{"version": 0.6, "generator": "Overpass API 0.7.62.8 e802775f", "osm3s": {"timestamp_osm_base": "2026-01-13T08:07:54Z", "copyright": "The data included in this document is from www.openstreetmap.org. The data is made available under ODbL."}, "elements": [{"type": "node", "id": 245660950, "lat": 19.0190616, "lon": 72.8575206, "tags": {"source": "AND"}}, {"type": "node", "id": 346379239, "lat": 19.0508211, "lon": 72.8297569}, {"type": "node", "id": 346388855, "lat": 19.051578, "lon": 72.829257}, {"type": "node", "id": 346388856, "lat": 19.0510502, "lon": 72.8285763}, {"type": "node", "id": 346388857, "lat": 19.0503724, "lon": 72.8290228}, {"type": "node", "id": 346643796, "lat": 19.0516428, "lon": 72.8321317, "tags": {"amenity": "hospital", "created_by": "Potlatch 0.10f", "name": "National Centre for Training and Research into Cerebral Palsy"}}, {"type": "node", "id": 347120067, "lat": 19.0571185, "lon": 72.8338596}, {"type": "node", "id": 347168743, "lat": 19.0560779, "lon": 72.8267648}, {"type": "node", "id": 347168744, "lat": 19.0554778, "lon": 72.8267854}, {"type": "node", "id": 347168745, "lat": 19.0554818, "lon": 72.8271174}, {"type": "node", "id": 347168746, "lat": 19.0549057, "lon": 72.8271253}, {"type": "node", "id": 347168747, "lat": 19.0549122, "lon": 72.8275145}, {"type": "node", "id": 347168748, "lat": 19.0560954, "lon": 72.8274859}, {"type": "node", "id": 631493980, "lat": 19.0353273, "lon": 72.8597511}, {"type": "node", "id": 631493994, "lat": 19.0367462, "lon": 72.860318}, {"type": "node", "id": 1111894364, "lat": 19.043651, "lon": 72.850087}, {"type": "node", "id": 1111894369, "lat": 19.0433011, "lon": 72.8501004}, {"type": "node", "id": 1281204550, "lat": 19.0209503, "lon": 72.8589049}, {"type": "node", "id": 1281204569, "lat": 19.0204278, "lon": 72.8588338}, {"type": "node", "id": 1289162623, "lat": 19.0334494, "lon": 72.8388383}, {"type": "node", "id": 1289162630, "lat": 19.0333038, "lon": 72.8394537}, {"type": "node", "id": 1289162738, "lat": 19.0329023, "lon": 72.8393222}, {"type": "node", "id": 1289162782, "lat": 19.0326962, "lon": 72.8391364}, {"type": "node", "id": 1289162838, "lat": 19.0337229, "lon": 72.8379976}, {"type": "node", "id": 1289162869, "lat": 19.033007, "lon": 72.8378025}, {"type": "node", "id": 1289162909, "lat": 19.0327661, "lon": 72.8377435}, {"type": "node", "id": 1311768755, "lat": 19.0211306, "lon": 72.8590511}, {"type": "node", "id": 1311768756, "lat": 19.021313, "lon": 72.8590688}, {"type": "node", "id": 1311768840, "lat": 19.0211168, "lon": 72.8592095}, {"type": "node", "id": 1311768874, "lat": 19.0212993, "lon": 72.8592272}, {"type": "node", "id": 1419256929, "lat": 19.0192046, "lon": 72.8602182}, {"type": "node", "id": 1419256940, "lat": 19.0196684, "lon": 72.8569997, "tags": {"source": "AND"}}, {"type": "node", "id": 1419256941, "lat": 19.0201928, "lon": 72.8605096}, {"type": "node", "id": 1575266020, "lat": 19.1031903, "lon": 72.8470399}, {"type": "node", "id": 1575266022, "lat": 19.1033044, "lon": 72.8470264}, {"type": "node", "id": 1575266023, "lat": 19.1031718, "lon": 72.8469488}, {"type": "node", "id": 1575266025, "lat": 19.1032884, "lon": 72.8469193}, {"type": "node", "id": 1625365308, "lat": 19.0327895, "lon": 72.8387426}, {"type": "node", "id": 1625365313, "lat": 19.0329452, "lon": 72.839232}, {"type": "node", "id": 1633934084, "lat": 19.047019, "lon": 72.8743312}, {"type": "node", "id": 1633934086, "lat": 19.0463943, "lon": 72.8745689}, {"type": "node", "id": 1640244309, "lat": 19.0962884, "lon": 72.8483799, "tags": {"addr:city": "Mumbai", "addr:district": "Maharashtra", "addr:housenumber": "KIRIT NURSING HOME, Pushpa Ganga Soc, Subhash Rd", "addr:postcode": "400057", "addr:street": "opp Sai Mandir Marg, Navpada, Vile Parle E", "amenity": "hospital", "contact:facebook": "https://www.facebook.com/drmaitreyeeparulekar/", "email": "parulekardrmaitreyee@gmail.com", "healthcare": "hospital", "healthcare:speciality": "gynaecology;oncology", "image": "https://drmaitreyeegynec.in/wp-content/uploads/2025/03/gallery1.webp", "mobile": "7208727500", "name": "Dr Maitreyee Parulekar", "opening_hours": "24/7", "payment:cash": "yes", "payment:contactless": "yes", "payment:credit_cards": "yes", "payment:debit_cards": "yes", "payment:google_pay": "yes", "website": "https://drmaitreyeegynec.in/"}}, {"type": "node", "id": 1646529751, "lat": 19.0319324, "lon": 72.8393212}, {"type": "node", "id": 1646529753, "lat": 19.0318019, "lon": 72.839874}, {"type": "node", "id": 1646529811, "lat": 19.0319497, "lon": 72.8399255}, {"type": "node", "id": 1646529838, "lat": 19.0320669, "lon": 72.8393416}, {"type": "node", "id": 1650753824, "lat": 19.0189989, "lon": 72.8588785}, {"type": "node", "id": 1650753844, "lat": 19.0192186, "lon": 72.8589021}, {"type": "node", "id": 1650753846, "lat": 19.0192633, "lon": 72.8595165}, {"type": "node", "id": 1650753849, "lat": 19.0193824, "lon": 72.8589927}, {"type": "node", "id": 1650753851, "lat": 19.0193913, "lon": 72.8569821}, {"type": "node", "id": 1650753852, "lat": 19.0194047, "lon": 72.8591857}, {"type": "node", "id": 1650753918, "lat": 19.0211771, "lon": 72.8574014}, {"type": "node", "id": 1673075405, "lat": 19.0771611, "lon": 72.8581228}, {"type": "node", "id": 1673075406, "lat": 19.077113, "lon": 72.858442}, {"type": "node", "id": 1673075407, "lat": 19.0771308, "lon": 72.8587343}, {"type": "node", "id": 1673075408, "lat": 19.0770217, "lon": 72.8583214}, {"type": "node", "id": 1673075409, "lat": 19.0768494, "lon": 72.8584421}, {"type": "node", "id": 1673075410, "lat": 19.0771028, "lon": 72.8582462}, {"type": "node", "id": 1673075411, "lat": 19.0769424, "lon": 72.8588056}, {"type": "node", "id": 1673075412, "lat": 19.0770571, "lon": 72.8582757}, {"type": "node", "id": 1673075413, "lat": 19.0769119, "lon": 72.8585669}, {"type": "node", "id": 1673075414, "lat": 19.077216, "lon": 72.8581511}, {"type": "node", "id": 1673075415, "lat": 19.0770394, "lon": 72.8582032}, {"type": "node", "id": 1673075416, "lat": 19.0771129, "lon": 72.8583132}, {"type": "node", "id": 2128608094, "lat": 19.0468027, "lon": 72.8420002}, {"type": "node", "id": 2128608096, "lat": 19.046962, "lon": 72.8425878}, {"type": "node", "id": 2128608109, "lat": 19.0458668, "lon": 72.8422835}, {"type": "node", "id": 2128608120, "lat": 19.046047, "lon": 72.8429939}, {"type": "node", "id": 2131962450, "lat": 19.0534388, "lon": 72.8752459}, {"type": "node", "id": 2131962451, "lat": 19.0532351, "lon": 72.8753815}, {"type": "node", "id": 2131962452, "lat": 19.0533035, "lon": 72.8750184}, {"type": "node", "id": 2131962453, "lat": 19.0530998, "lon": 72.8751539}, {"type": "node", "id": 2134856430, "lat": 19.0493781, "lon": 72.8698066, "tags": {"amenity": "hospital"}}, {"type": "node", "id": 2382047271, "lat": 19.0396977, "lon": 72.8519607}, {"type": "node", "id": 2382047272, "lat": 19.0397366, "lon": 72.8518611}, {"type": "node", "id": 2382047275, "lat": 19.0397658, "lon": 72.8517582}, {"type": "node", "id": 2382047276, "lat": 19.0397723, "lon": 72.8518749}, {"type": "node", "id": 2382047277, "lat": 19.0398178, "lon": 72.8517959}, {"type": "node", "id": 2382047280, "lat": 19.0398534, "lon": 72.8520259}, {"type": "node", "id": 2382047281, "lat": 19.0398567, "lon": 72.851693}, {"type": "node", "id": 2382047282, "lat": 19.0398664, "lon": 72.8519675}, {"type": "node", "id": 2382047292, "lat": 19.0400416, "lon": 72.852122}, {"type": "node", "id": 2382047294, "lat": 19.0400611, "lon": 72.8520636}, {"type": "node", "id": 2382047297, "lat": 19.0401389, "lon": 72.851844}, {"type": "node", "id": 2382047302, "lat": 19.0402265, "lon": 72.8522284}, {"type": "node", "id": 2382047306, "lat": 19.0403368, "lon": 72.8519675}, {"type": "node", "id": 2449734759, "lat": 19.0549066, "lon": 72.827198, "tags": {"access": "private", "barrier": "gate", "name": "Gate 2"}}, {"type": "node", "id": 2449734760, "lat": 19.0549103, "lon": 72.8274255, "tags": {"access": "private", "barrier": "gate", "name": "Gate 1"}}, {"type": "node", "id": 2449734777, "lat": 19.055701, "lon": 72.8267823, "tags": {"access": "private", "barrier": "gate", "name": "Gate 3"}}, {"type": "node", "id": 2449757463, "lat": 19.0512777, "lon": 72.8285804}, {"type": "node", "id": 2663447657, "lat": 19.0758981, "lon": 72.8856074}, {"type": "node", "id": 2663447659, "lat": 19.0764767, "lon": 72.8863946}, {"type": "node", "id": 2947820875, "lat": 19.0616337, "lon": 72.8451297, "tags": {"amenity": "hospital", "healthcare": "hospital"}}, {"type": "node", "id": 3205767044, "lat": 19.0277452, "lon": 72.868275}, {"type": "node", "id": 3532119818, "lat": 19.0634778, "lon": 72.8817876, "tags": {"amenity": "hospital", "name": "v care hospital intensive& unit care"}}, {"type": "node", "id": 3532124714, "lat": 19.0693933, "lon": 72.8781202, "tags": {"amenity": "hospital", "name": "arpan nursing home"}}, {"type": "node", "id": 3532124717, "lat": 19.0627584, "lon": 72.8731765, "tags": {"amenity": "hospital", "name": "fauziya hospital"}}, {"type": "node", "id": 3532126359, "lat": 19.0636096, "lon": 72.8819271, "tags": {"amenity": "hospital", "name": "arayan hospital"}}, {"type": "node", "id": 3589399303, "lat": 19.0809415, "lon": 72.8820782}, {"type": "node", "id": 3589399323, "lat": 19.0809784, "lon": 72.8818558}, {"type": "node", "id": 3589399326, "lat": 19.0811378, "lon": 72.8818513}, {"type": "node", "id": 3589399327, "lat": 19.0811435, "lon": 72.8820724}, {"type": "node", "id": 3589607622, "lat": 19.0833696, "lon": 72.8396091}, {"type": "node", "id": 3589607625, "lat": 19.0834084, "lon": 72.8393662}, {"type": "node", "id": 3589607628, "lat": 19.0834806, "lon": 72.8396289}, {"type": "node", "id": 3589607630, "lat": 19.0835193, "lon": 72.839386}, {"type": "node", "id": 3591607438, "lat": 19.0277334, "lon": 72.8683552}, {"type": "node", "id": 3591607444, "lat": 19.0277542, "lon": 72.8682144}, {"type": "node", "id": 3591607451, "lat": 19.0278374, "lon": 72.8683723}, {"type": "node", "id": 3591607452, "lat": 19.0278581, "lon": 72.8682315}, {"type": "node", "id": 3591988751, "lat": 19.0797777, "lon": 72.8401094}, {"type": "node", "id": 3591988753, "lat": 19.0797871, "lon": 72.8402171}, {"type": "node", "id": 3591988758, "lat": 19.0798166, "lon": 72.8402035}, {"type": "node", "id": 3591988762, "lat": 19.0798445, "lon": 72.8403563}, {"type": "node", "id": 3591988763, "lat": 19.0798478, "lon": 72.8400771}, {"type": "node", "id": 3591988766, "lat": 19.0798602, "lon": 72.8401071}, {"type": "node", "id": 3591988786, "lat": 19.0799358, "lon": 72.8400723}, {"type": "node", "id": 3591988795, "lat": 19.0800196, "lon": 72.8402754}, {"type": "node", "id": 3597683636, "lat": 19.0782728, "lon": 72.8547927}, {"type": "node", "id": 3597683640, "lat": 19.0783736, "lon": 72.8552629}, {"type": "node", "id": 3597683642, "lat": 19.0783899, "lon": 72.8548691}, {"type": "node", "id": 3597683646, "lat": 19.0784475, "lon": 72.8551514}, {"type": "node", "id": 3597683650, "lat": 19.0784578, "lon": 72.8547499}, {"type": "node", "id": 3597683653, "lat": 19.0785166, "lon": 72.8551171}, {"type": "node", "id": 3597683655, "lat": 19.0784864, "lon": 72.8548657}, {"type": "node", "id": 3597683659, "lat": 19.0785482, "lon": 72.8551813}, {"type": "node", "id": 3626442910, "lat": 19.0312671, "lon": 72.8440563}, {"type": "node", "id": 3626442917, "lat": 19.031304, "lon": 72.8438754}, {"type": "node", "id": 3626442946, "lat": 19.031531, "lon": 72.8441167}, {"type": "node", "id": 3626442953, "lat": 19.031568, "lon": 72.8439357}, {"type": "node", "id": 3627071289, "lat": 19.068504, "lon": 72.8371295}, {"type": "node", "id": 3627071291, "lat": 19.0685152, "lon": 72.836917}, {"type": "node", "id": 3627071313, "lat": 19.0686166, "lon": 72.8371362}, {"type": "node", "id": 3627071318, "lat": 19.0686278, "lon": 72.8369236}, {"type": "node", "id": 3951526714, "lat": 19.0959684, "lon": 72.8400115, "tags": {"addr:district": "Mumbai", "addr:full": "S V Road , Vile Parle", "addr:postcode": "400056", "addr:state": "Maharashtra", "addr:street": "Swami Vivekanand Road", "amenity": "hospital", "contact:phone": "2226267500", "email": "info@nanavatihospital.org", "healthcare": "hospital", "name": "Nanavati Hospital, Mumbai", "opening_hours": "24/7", "operator:type": "government", "source": "OpenGovernmentData", "website": "https://www.nanavatihospital.org/", "wikidata": "Q6962443", "wikipedia": "en:Nanavati hospital"}}, {"type": "node", "id": 3951538079, "lat": 19.0857296, "lon": 72.8377345, "tags": {"amenity": "hospital", "name": "Surya Mother And Child Speciality Hospital"}}, {"type": "node", "id": 3951538080, "lat": 19.0855132, "lon": 72.837945, "tags": {"addr:district": "Mumbai", "addr:full": "101/102 Mangal Ashirwad, June S.V. Road & Dattatray Road, T.P.S. Ii Santacruz (W)", "addr:postcode": "400054", "addr:state": "Maharashtra", "amenity": "hospital", "name": "Surya Childrens Hospital", "source": "OpenGovernmentData"}}, {"type": "node", "id": 4264834970, "lat": 19.0358885, "lon": 72.8583026}, {"type": "node", "id": 4297000114, "lat": 19.0652101, "lon": 72.8602486}, {"type": "node", "id": 4297017108, "lat": 19.0648746, "lon": 72.8604461}, {"type": "node", "id": 4297017109, "lat": 19.0649062, "lon": 72.8602099}, {"type": "node", "id": 4297017110, "lat": 19.0650704, "lon": 72.8616134}, {"type": "node", "id": 4297017111, "lat": 19.0651941, "lon": 72.8603705}, {"type": "node", "id": 4297017112, "lat": 19.0655094, "lon": 72.8612444}, {"type": "node", "id": 4297017113, "lat": 19.0656848, "lon": 72.8612577}, {"type": "node", "id": 4297017114, "lat": 19.065784, "lon": 72.8604366}, {"type": "node", "id": 4352387478, "lat": 19.0750197, "lon": 72.8356392, "tags": {"addr:city": "Santa Cruz", "addr:district": "Mumbai", "addr:full": "12Th Road, Khar", "addr:postcode": "400052", "addr:state": "Maharashtra", "addr:street": "South Avenue", "amenity": "hospital", "check_date": "2025-06-12", "healthcare": "hospital", "name": "Ramakrishna Mission Hospital, Mumbai", "source": "OpenGovernmentData"}}, {"type": "node", "id": 4423695890, "lat": 19.0323408, "lon": 72.8595512, "tags": {"addr:district": "Mumbai", "addr:full": "Sion-Matunga Estate, Plot No: 96, Road No.31, Near Gandhi Market, King Circle-Sion (East)", "addr:postcode": "400022", "addr:state": "Maharashtra", "amenity": "hospital", "contact:phone": "2224035459", "name": "Smt S.R.Mehta and Sir K.P.Cardiac Institute", "name:en": "Smt. S.R.Mehta and Sir K.P.Cardiac Institute", "operator:type": "private", "source": "OpenGovernmentData", "website": "https://srmkpcardiac.com/"}}, {"type": "node", "id": 4672225593, "lat": 19.0401523, "lon": 72.844575, "tags": {"addr:street": "Mia Mohd Chhotani Road", "amenity": "hospital", "name:en": "Pikale Hospital", "name:hi": "\u092a\u093f\u0915\u093e\u0932\u0947 \u0905\u0938\u094d\u092a\u0924\u093e\u0932"}}, {"type": "node", "id": 4848773727, "lat": 19.0358379, "lon": 72.8609822, "tags": {"amenity": "hospital", "name": "Mata Lachmi Hospital"}}, {"type": "node", "id": 4996322798, "lat": 19.0815079, "lon": 72.8831157, "tags": {"addr:city": "Mumbai", "addr:postcode": "400070", "addr:street": "father peter periera road", "amenity": "hospital", "name": "Kurla Municipal Hospital", "operator": "MCGM", "website": "https://www.mcgm.gov.in"}}, {"type": "node", "id": 5506320776, "lat": 19.0646242, "lon": 72.8510225, "tags": {"addr:street": "Hari Mandir Road", "amenity": "hospital", "name": "Shivam Nursing Home", "phone": "022-2657138689"}}, {"type": "node", "id": 5506320962, "lat": 19.0647166, "lon": 72.860991}, {"type": "node", "id": 5510255905, "lat": 19.0649456, "lon": 72.8602135}, {"type": "node", "id": 5792364461, "lat": 19.0360806, "lon": 72.8581106}, {"type": "node", "id": 5792364462, "lat": 19.0373889, "lon": 72.8586434}, {"type": "node", "id": 6228730399, "lat": 19.0577092, "lon": 72.8337577}, {"type": "node", "id": 6228730400, "lat": 19.0576712, "lon": 72.8330362}, {"type": "node", "id": 6228730401, "lat": 19.0570577, "lon": 72.8330576}, {"type": "node", "id": 6228730402, "lat": 19.0576636, "lon": 72.8338301}, {"type": "node", "id": 6228754300, "lat": 19.0570865, "lon": 72.833438}, {"type": "node", "id": 6991331185, "lat": 19.0239187, "lon": 72.8407113, "tags": {"addr:housenumber": "400028", "addr:street": "D L Vaidya Marg", "amenity": "hospital", "healthcare": "hospital", "name:en": "DHANVANTARI HOSPITAL"}}, {"type": "node", "id": 7043090395, "lat": 19.0190313, "lon": 72.8639666, "tags": {"addr:district": "Mumbai", "addr:full": "4, Margaret House, Opp Indian Oil, Wadala (E)", "addr:postcode": "400037", "addr:state": "Maharashtra", "amenity": "hospital", "name": "Genesis Speciality Center (Health-Check Up", "source": "OpenGovernmentData"}}, {"type": "node", "id": 7043174030, "lat": 19.0632283, "lon": 72.834439, "tags": {"addr:district": "Mumbai", "addr:full": "8 Roseland Bulding, 180, Opposite National College, Junction Of Linking And Waterfield Road, Bandra West", "addr:postcode": "400050", "addr:state": "Maharashtra", "amenity": "hospital", "email": "info@ojaseyehospital.com", "healthcare": "hospital", "name": "Ojas Eye Hospital", "source": "OpenGovernmentData", "website": "https://www.ojaseyehospital.com/"}}, {"type": "node", "id": 7043182324, "lat": 19.0803279, "lon": 72.8421846, "tags": {"addr:district": "Mumbai", "addr:full": "Qureshi House, 6Th Nehru Road,Near Santacruz Railway Station, Santacruz (East)", "addr:postcode": "400055", "addr:state": "Maharashtra", "amenity": "hospital", "healthcare": "hospital", "name": "R. K. Hospital, Mumbai", "source": "OpenGovernmentData"}}, {"type": "node", "id": 7043348148, "lat": 19.0797908, "lon": 72.8427047, "tags": {"addr:district": "Mumbai", "addr:full": "Shri Sadashiv Chs, 6Th Road, Santacruz(E)", "addr:postcode": "400055", "addr:state": "Maharashtra", "amenity": "hospital", "healthcare": "hospital", "name": "Nandan Maternity and Surgical Home", "source": "OpenGovernmentData"}}, {"type": "node", "id": 7043376493, "lat": 19.0784905, "lon": 72.8380749, "tags": {"addr:district": "Mumbai", "addr:full": "101, Kirti Manor, S V Road, Phiroz Dastoor & Sons, Santacruz West", "addr:postcode": "400054", "addr:state": "Maharashtra", "amenity": "hospital", "healthcare": "hospital", "name": "Mumbai Retina Centre", "source": "OpenGovernmentData"}}, {"type": "node", "id": 7043388690, "lat": 19.0879436, "lon": 72.8376687, "tags": {"addr:district": "Mumbai", "addr:full": "G-6, Chirag Housing Society, B-1, S.V.Road, Santacruz(W)", "addr:postcode": "400054", "addr:state": "Maharashtra", "amenity": "hospital", "name": "Malpani Eye Hospital and Laser Centre", "source": "OpenGovernmentData"}}, {"type": "node", "id": 7043397894, "lat": 19.089509, "lon": 72.8385763, "tags": {"addr:district": "Mumbai", "addr:full": "102 D Wing Rizvi Nagar 1 St Floor S.V.Road Milan , , Corner Santacruz", "addr:postcode": "400054", "addr:state": "Maharashtra", "amenity": "hospital", "name": "Kenias Eye Hospital", "source": "OpenGovernmentData"}}, {"type": "node", "id": 7043548005, "lat": 19.0604187, "lon": 72.8369254, "tags": {"addr:district": "Mumbai", "addr:full": "# 222, S.V. Road, Bandra- West", "addr:postcode": "400050", "addr:state": "Maharashtra", "amenity": "hospital", "healthcare": "hospital", "name": "Shroff Eye Hospital", "source": "OpenGovernmentData"}}, {"type": "node", "id": 7043778826, "lat": 19.1013222, "lon": 72.8484596, "tags": {"addr:city": "mumbai", "addr:district": "Mumbai", "addr:full": "# 102/6, Purshottam Niwas,1st Floor, Park Road, Vile Parle (E)", "addr:postcode": "400057", "addr:state": "Maharashtra", "addr:street": "Prarthana Samaj Road", "amenity": "hospital", "healthcare": "hospital", "healthcare:speciality": "ophthalmology", "name": "Parle Eye Hospital", "opening_hours": "24/7", "source": "OpenGovernmentData"}}, {"type": "node", "id": 7044064894, "lat": 19.0240308, "lon": 72.8368979, "tags": {"addr:district": "Mumbai", "addr:full": "Meghdoot, S.H.Paralkar Marg, Shivaji Park, Dadar (W)", "addr:postcode": "400028", "addr:state": "Maharashtra", "amenity": "hospital", "healthcare": "hospital", "name": "Dr.Vaze Hospital", "source": "OpenGovernmentData"}}, {"type": "node", "id": 7044553386, "lat": 19.0196598, "lon": 72.8486822, "tags": {"addr:district": "Mumbai", "addr:full": "166-C Krishna Kunj,Khareghat Road, Dr.Ambedkar Road,Dadar( E)", "addr:postcode": "400014", "addr:state": "Maharashtra", "amenity": "hospital", "name": "Krishna Cardiac Care Centre, Mumbai", "source": "OpenGovernmentData"}}, {"type": "node", "id": 7044829632, "lat": 19.0829325, "lon": 72.8819436, "tags": {"addr:district": "Mumbai", "addr:full": "Pratap Nagar, Housing Society, A-Wing, 1st Floor, L.B.S. Marg, Kurla West", "addr:postcode": "400070", "addr:state": "Maharashtra", "amenity": "hospital", "healthcare": "hospital", "name": "Sushila Hospital-Icu and Maternity", "source": "OpenGovernmentData"}}, {"type": "node", "id": 7045020590, "lat": 19.062706, "lon": 72.8815868, "tags": {"addr:district": "Mumbai", "addr:full": "Opposite Bldg No.101, Nehru Nagar, Kurla (E)", "addr:postcode": "400070", "addr:state": "Maharashtra", "amenity": "hospital", "name": "V Care Hospital and Icu", "source": "OpenGovernmentData"}}, {"type": "node", "id": 7045324038, "lat": 19.0630077, "lon": 72.8823915, "tags": {"addr:district": "Mumbai", "addr:full": "D-28 & 29, Nehru Nagar, Station Road, Kurla (East)", "addr:postcode": "400024", "addr:state": "Maharashtra", "amenity": "hospital", "name": "Aryan Hospital and Iccu - Kurla-Mumbai", "source": "OpenGovernmentData"}}, {"type": "node", "id": 7045980547, "lat": 19.0232828, "lon": 72.8379312, "tags": {"addr:district": "Mumbai", "addr:full": "698-B,Ranade Road, Dadar", "addr:postcode": "400028", "addr:state": "Maharashtra", "amenity": "hospital", "healthcare": "hospital", "name": "Shushrusha Citizens Co-Op Hospital Ltd.", "source": "OpenGovernmentData"}}, {"type": "node", "id": 7046326222, "lat": 19.0972827, "lon": 72.8493802, "tags": {"addr:district": "Mumbai", "addr:full": "Vimal Apartment, Nehru Road, No.9, 10, 11, Near Municipal Office, Vile Parle East", "addr:postcode": "400057", "addr:state": "Maharashtra", "amenity": "hospital", "name": "Navjivan Maternity and Surgical Nursing Home", "source": "OpenGovernmentData"}}, {"type": "node", "id": 7046777602, "lat": 19.0535553, "lon": 72.8870063, "tags": {"addr:district": "Mumbai", "addr:full": "Sion-Trombay Road, Suman Nagar, Chembur East", "addr:postcode": "400071", "addr:state": "Maharashtra", "amenity": "hospital", "email": "info@suranasethiahospital.in", "healthcare": "hospital", "name": "Surana Sethia Hospital And Research Centre", "source": "OpenGovernmentData", "website": "https://suranahospital.in/"}}, {"type": "node", "id": 7047430578, "lat": 19.0758488, "lon": 72.8608239, "tags": {"addr:district": "Mumbai", "addr:full": "C.S.T. Road, Next To Sundar Nagar,M Kalina, Santacruz(E)", "addr:postcode": "400098", "addr:state": "Maharashtra", "amenity": "hospital", "name": "Durga Maternity and Surgical Nursing Home", "source": "OpenGovernmentData"}}, {"type": "node", "id": 7048172474, "lat": 19.0338607, "lon": 72.8590146, "tags": {"addr:district": "Mumbai", "addr:full": "No. 1/ 7, Sindhi Society, opp. Gurukrupa Hotel, Sion", "addr:postcode": "400022", "addr:state": "Maharashtra", "amenity": "hospital", "name": "Vaishnav Seva Samaj", "operator:type": "government", "source": "OpenGovernmentData"}}, {"type": "node", "id": 7049124019, "lat": 19.0204668, "lon": 72.8383778, "tags": {"addr:district": "Mumbai", "addr:full": "12, Gyan Mandir Road, Dadar West Railway Station", "addr:postcode": "400028", "addr:state": "Maharashtra", "amenity": "hospital", "healthcare": "hospital", "name": "Shree Vardhaman Sthanakvasi Jain Shravak Sangh Dadar Sanchalit Navneet Jain Health Centre", "source": "OpenGovernmentData"}}, {"type": "node", "id": 7049584815, "lat": 19.0740757, "lon": 72.8329611, "tags": {"addr:district": "Mumbai", "addr:full": "21 - A, Sita Bhavan, 14Th A Road, Ahimsa Marg, Khar (West)", "addr:postcode": "400052", "addr:state": "Maharashtra", "amenity": "hospital", "email": "info@rghospital.com", "healthcare": "hospital", "healthcare:speciality": "urology;clinical_pathology", "name": "RG Stone Urology and Laparoscopy Hospital, Khar", "operator:type": "private", "source": "OpenGovernmentData", "website": "https://www.rghospitals.com/"}}, {"type": "node", "id": 7049683148, "lat": 19.031047, "lon": 72.860038, "tags": {"addr:district": "Mumbai", "addr:full": "Mumbai", "addr:postcode": "400022", "addr:state": "Maharashtra", "amenity": "hospital", "name": "Shanmukhananda Jasubhai R k shah Medical Centre", "source": "OpenGovernmentData"}}, {"type": "node", "id": 7051069996, "lat": 19.0250711, "lon": 72.8400777, "tags": {"addr:district": "Mumbai", "addr:full": "Vidya Bhuvan 121, Shivaji Park, Opp Shiv Sena Bhavan Dadar - West", "addr:postcode": "400028", "addr:state": "Maharashtra", "amenity": "hospital", "healthcare": "hospital", "name": "Dr Thakur Hospital", "source": "OpenGovernmentData"}}, {"type": "node", "id": 7052027524, "lat": 19.0279281, "lon": 72.8538381, "tags": {"addr:district": "Mumbai", "addr:full": "Sanjay, Ground Floor, Plot 376, Telang Cross Road No.2, Near Matunga Circle", "addr:postcode": "400019", "addr:state": "Maharashtra", "amenity": "hospital", "name": "Jashem Eye Institute", "source": "OpenGovernmentData"}}, {"type": "node", "id": 7052058100, "lat": 19.0342874, "lon": 72.8591891, "tags": {"addr:district": "Mumbai", "addr:full": "2/254, Alka Mansion, Dr Ambedkar Road, Sion West", "addr:postcode": "400022", "addr:state": "Maharashtra", "amenity": "hospital", "name": "Vyas' Surgery", "source": "OpenGovernmentData"}}, {"type": "node", "id": 7052181497, "lat": 19.0399657, "lon": 72.8546199, "tags": {"addr:district": "Mumbai", "addr:full": "90 Feet Road, Ground, 1st, 2nd & 3rd Road, At Masiha Islampura Co-operative Housing Society Ltd., Behind Sion Hospital, Near Dharavi Police Station", "addr:postcode": "400017", "addr:state": "Maharashtra", "amenity": "hospital", "healthcare": "hospital", "name": "Sai Hospital", "source": "OpenGovernmentData"}}, {"type": "node", "id": 7052185493, "lat": 19.0744458, "lon": 72.8344122, "tags": {"addr:district": "Mumbai", "addr:full": "1 Milton Tower, 290-291, Linking Road, Khar West", "addr:postcode": "400052", "addr:state": "Maharashtra", "amenity": "hospital", "healthcare": "hospital", "healthcare:speciality": "pathology", "name": "Khar Clinico-Pathology Laboratory", "source": "OpenGovernmentData"}}, {"type": "node", "id": 7052303296, "lat": 19.0799452, "lon": 72.8545234, "tags": {"addr:district": "Mumbai", "addr:full": "Rizvi Park, S.V.Road, Santacruz(W)", "addr:postcode": "400054", "addr:state": "Maharashtra", "amenity": "hospital", "emergency": "yes", "healthcare": "hospital", "healthcare:speciality": "orthodontics", "name": "Aseem Orthopaedic Hospital"}}, {"type": "node", "id": 7052525501, "lat": 19.1012531, "lon": 72.8853004, "tags": {"addr:district": "Mumbai", "addr:full": "J.P House, Sakinaka,Andheri Kurla Road,Andheri East", "addr:postcode": "400072", "addr:state": "Maharashtra", "amenity": "hospital", "name": "J.P Hospital, Mumbai", "source": "OpenGovernmentData"}}, {"type": "node", "id": 7053189597, "lat": 19.1035152, "lon": 72.8514978, "tags": {"addr:district": "Mumbai", "addr:full": "Shop No - 1,Dunhill Castle,Opp 9 To 9 Super Market,Hanuman Road,Vileparle (East)", "addr:postcode": "400057", "addr:state": "Maharashtra", "amenity": "hospital", "healthcare": "hospital", "name": "Dr.Satish G.Desai", "source": "OpenGovernmentData"}}, {"type": "node", "id": 7053245833, "lat": 19.0154396, "lon": 72.8335994, "tags": {"addr:district": "Mumbai", "addr:full": "Shilpa Appts, 1st Floor, Shankar Ghanekar Marg, Off Gokhle Road (S)", "addr:postcode": "400028", "addr:state": "Maharashtra", "amenity": "hospital", "healthcare": "hospital", "healthcare:speciality": "general", "name": "Dev Nursing Home", "source": "OpenGovernmentData"}}, {"type": "node", "id": 7053266063, "lat": 19.0418977, "lon": 72.8640935, "tags": {"addr:district": "Mumbai", "addr:full": "6/206, Shiv Mahal Chs, Sion Main Road", "addr:postcode": "400022", "addr:state": "Maharashtra", "amenity": "hospital", "name": "Dr. Deosthaci's Eye Care Centre", "source": "OpenGovernmentData"}}, {"type": "node", "id": 7053277891, "lat": 19.0253227, "lon": 72.8520517, "tags": {"addr:district": "Mumbai", "addr:full": "1/320, Shridhar Niwas,Sir Bhaichandra Road, Matunga", "addr:postcode": "400019", "addr:state": "Maharashtra", "amenity": "hospital", "name": "Dr.Chhatres Maternity and Surgical Nursing Home", "source": "OpenGovernmentData"}}, {"type": "node", "id": 7053355770, "lat": 19.0241779, "lon": 72.8380385, "tags": {"addr:district": "Mumbai", "addr:full": "Udyam, Ranade Road Shivaji Park", "addr:postcode": "400028", "addr:state": "Maharashtra", "amenity": "hospital", "healthcare": "hospital", "name": "Well Spring Dr Avinash Phadke Pathlab Clinic", "source": "OpenGovernmentData"}}, {"type": "node", "id": 7054526793, "lat": 19.0307218, "lon": 72.8416521, "tags": {"addr:district": "Mumbai", "addr:full": "1st Fl., Shayog Society, L.J. Road, Next To City Light Cinema, Mahim", "addr:postcode": "400016", "addr:state": "Maharashtra", "amenity": "hospital", "healthcare": "hospital", "name": "Surlata Hospital", "source": "OpenGovernmentData"}}, {"type": "node", "id": 7054682098, "lat": 19.055927, "lon": 72.8368556, "tags": {"addr:district": "Mumbai", "addr:full": "Opp,Lake.S.V Road,Bandra(West)", "addr:postcode": "400050", "addr:state": "Maharashtra", "amenity": "hospital", "healthcare": "hospital", "name": "Mahatma Gandhi Seva Mandir", "source": "OpenGovernmentData"}}, {"type": "node", "id": 7054746894, "lat": 19.0804497, "lon": 72.8562031, "tags": {"addr:district": "Mumbai", "addr:full": "Karlton Apts, Vakola Village Road, Vakola Santacruz (E)", "addr:postcode": "400055", "addr:state": "Maharashtra", "amenity": "hospital", "healthcare": "hospital", "name": "Dr. Raut's Maternity and Surgical Nursing Home", "source": "OpenGovernmentData"}}, {"type": "node", "id": 7054852418, "lat": 19.0444281, "lon": 72.8651664, "tags": {"addr:district": "Mumbai", "addr:full": "# 102, Maryland Corner, Plot No.39, Next To Hp Petrol Pump,Sion(E)", "addr:postcode": "400022", "addr:state": "Maharashtra", "amenity": "hospital", "name": "Krishna Eye Centre", "source": "OpenGovernmentData"}}, {"type": "node", "id": 7055144633, "lat": 19.0880933, "lon": 72.8363293, "tags": {"addr:district": "Mumbai", "addr:full": "B-9/G-2 & 3, Ground Floor, Khira Nagar, S V Road, Santacruz West", "addr:postcode": "400054", "addr:state": "Maharashtra", "amenity": "hospital", "healthcare": "hospital", "name": "Malhaar Maternity and Nursing Home", "source": "OpenGovernmentData"}}, {"type": "node", "id": 7055262419, "lat": 19.0399822, "lon": 72.8511733, "tags": {"addr:district": "Mumbai", "addr:full": "103, Jai Ganesh Co-Op Soc, Plot No 206, Opp Sion Hosp-Sion East", "addr:postcode": "400022", "addr:state": "Maharashtra", "amenity": "hospital", "name": "Dr Savlas Child Care Centre", "source": "OpenGovernmentData"}}, {"type": "node", "id": 7055279023, "lat": 19.0308961, "lon": 72.8600594, "tags": {"addr:district": "Mumbai", "addr:full": "4Th Floor, (Tower Block), Jasubhai R K Shah Medical Centre 292,Comrade Harbansial Marg, Sion East", "addr:postcode": "400022", "addr:state": "Maharashtra", "amenity": "hospital", "name": "Shanmukhananda Aditya Jyot Eye Institute", "source": "OpenGovernmentData"}}, {"type": "node", "id": 7055441837, "lat": 19.07045, "lon": 72.8370246, "tags": {"addr:district": "Mumbai", "addr:full": "Naseeb Plot No.115,1st Floor, S.V.Road, Khar (West)", "addr:postcode": "400052", "addr:state": "Maharashtra", "amenity": "hospital", "healthcare": "hospital", "name": "G.M.Medical Centre - Khar", "source": "OpenGovernmentData"}}, {"type": "node", "id": 7055460057, "lat": 19.0660316, "lon": 72.8319771, "tags": {"addr:district": "Mumbai", "addr:full": "Shyamkripa Bldg,Ground Floor 15Th Road, Khar (W)", "addr:postcode": "400052", "addr:state": "Maharashtra", "amenity": "hospital", "healthcare": "hospital", "name": "Tulip Womens Healthcare Centre - Khar (W)", "source": "OpenGovernmentData"}}, {"type": "node", "id": 7055590161, "lat": 19.0554466, "lon": 72.8357264, "tags": {"addr:district": "Mumbai", "addr:full": "1st Floor , Diamond Palace , 15 - A , Hill Road , Opposite Bandra , Police Station , Bandra (West )", "addr:postcode": "400050", "addr:state": "Maharashtra", "amenity": "hospital", "healthcare": "hospital", "name": "Parekh Eye Hospital", "source": "OpenGovernmentData"}}, {"type": "node", "id": 7062228611, "lat": 19.0713778, "lon": 72.8377193, "tags": {"addr:district": "Mumbai", "addr:full": "Mumbai", "addr:postcode": "400052", "addr:state": "Maharashtra", "amenity": "hospital", "name": "I Sight Eyecare and Surgery", "source": "OpenGovernmentData"}}, {"type": "node", "id": 7062712062, "lat": 19.099527, "lon": 72.8493437, "tags": {"addr:district": "Mumbai", "addr:full": "261 Sumat Bhavan, Malvia Road, Above Jain Sthanak, Vile Parle East", "addr:postcode": "400057", "addr:state": "Maharashtra", "amenity": "hospital", "healthcare": "hospital", "name": "Smt. Laxmiben Dharamsi Karsan Gala Eye Hospital", "source": "OpenGovernmentData"}}, {"type": "node", "id": 7063077063, "lat": 19.0373922, "lon": 72.8397457, "tags": {"addr:district": "Mumbai", "addr:full": "Above Prabhat Bazar, 26, Kapad Bazar, Mahim", "addr:postcode": "400016", "addr:state": "Maharashtra", "amenity": "hospital", "healthcare": "hospital", "name": "Dr Haresh Shah Prabhat Maternity and Surgical Nursing Home", "source": "OpenGovernmentData"}}, {"type": "node", "id": 7063808889, "lat": 19.0254153, "lon": 72.8535792, "tags": {"addr:district": "Mumbai", "addr:full": "Matunga", "addr:postcode": "400019", "addr:state": "Maharashtra", "amenity": "hospital", "name": "Lions Club Of East Bombay", "source": "OpenGovernmentData"}}, {"type": "node", "id": 7064402717, "lat": 19.0600492, "lon": 72.85234}, {"type": "node", "id": 7064405838, "lat": 19.0716358, "lon": 72.837663, "tags": {"addr:district": "Mumbai", "addr:full": "No. 81, Swami Vivekanand Road, Above State Bank Of India, Khar West", "addr:postcode": "400052", "addr:state": "Maharashtra", "amenity": "hospital", "name": "Dr Gupte Lying-In Surgical Hospital", "source": "OpenGovernmentData"}}, {"type": "node", "id": 7066374709, "lat": 19.053611, "lon": 72.8246194, "tags": {"addr:district": "Mumbai", "addr:full": "13, Hill Road, Bandra (W)", "addr:postcode": "400050", "addr:state": "Maharashtra", "amenity": "hospital", "name": "Sushama Patkar Maternity ( and Surgical) Home - Bandra", "source": "OpenGovernmentData"}}, {"type": "node", "id": 7066505690, "lat": 19.0202665, "lon": 72.8339642, "tags": {"addr:district": "Mumbai", "addr:full": "104, Ramgiri Heights, Mtnl Marg, Dadari (W)", "addr:postcode": "400028", "addr:state": "Maharashtra", "amenity": "hospital", "healthcare": "hospital", "name": "Ashtavinayak Maternity Surgical and Eye Hospital", "source": "OpenGovernmentData"}}, {"type": "node", "id": 7066695543, "lat": 19.015612, "lon": 72.8451866, "tags": {"addr:district": "Mumbai", "addr:full": "Shilpa Apartment Dasturwadi Dadar E Mumbai", "addr:postcode": "400014", "addr:state": "Maharashtra", "amenity": "hospital", "healthcare": "hospital", "name": "G S B S Medical Trust", "source": "OpenGovernmentData"}}, {"type": "node", "id": 7066865609, "lat": 19.0346836, "lon": 72.8401695, "tags": {"addr:district": "Mumbai", "addr:full": "Rajdeep, 143, Lt. Dilip Gupte Road, Mahim", "addr:postcode": "400016", "addr:state": "Maharashtra", "amenity": "hospital", "healthcare": "hospital", "name": "Gupte Maternity and Surgical Home", "source": "OpenGovernmentData"}}, {"type": "node", "id": 7067050975, "lat": 19.0414249, "lon": 72.8453261, "tags": {"addr:district": "Mumbai", "addr:full": "3, Nitya Sahaya Building, Marinagar, Mahim West", "addr:postcode": "400016", "addr:state": "Maharashtra", "amenity": "hospital", "name": "Dr. Fonsecas Maternity and Surgical Home", "source": "OpenGovernmentData"}}, {"type": "node", "id": 7067050981, "lat": 19.1022549, "lon": 72.8486849, "tags": {"addr:district": "Mumbai", "addr:full": "Silver Apartment 29, Mahant Road, Vile Parle East", "addr:postcode": "400057", "addr:state": "Maharashtra", "amenity": "hospital", "healthcare": "hospital", "name": "Vivek Pathology Laboratory", "source": "OpenGovernmentData"}}, {"type": "node", "id": 7067373861, "lat": 19.0704407, "lon": 72.8751061, "tags": {"addr:full": "Town Hall", "amenity": "hospital", "healthcare": "hospital", "name": "Despande Nursing Home", "source": "OpenGovernmentData", "wheelchair": "no"}}, {"type": "node", "id": 7069814015, "lat": 19.0605379, "lon": 72.8456949, "tags": {"addr:district": "Mumbai", "addr:full": "Bldg.No.3,Kher Nagar Kala Co-Op Hsg Soc., Ram Mandir Road, Bandra (E)", "addr:postcode": "400051", "addr:state": "Maharashtra", "amenity": "hospital", "healthcare": "hospital", "name": "Nandini Eye Care Centre", "source": "OpenGovernmentData"}}, {"type": "node", "id": 7070711758, "lat": 19.0196078, "lon": 72.8337315, "tags": {"addr:district": "Mumbai", "addr:full": "Anil Apartment Ist Floor College Street Behind Prabhadevi Teleophone Exchange Agar Bazar Dadar", "addr:postcode": "400028", "addr:state": "Maharashtra", "amenity": "hospital", "healthcare": "hospital", "name": "Shreedhar Hospital", "source": "OpenGovernmentData"}}, {"type": "node", "id": 7070857458, "lat": 19.0895432, "lon": 72.8379983, "tags": {"addr:district": "Mumbai", "addr:full": "C-Wing 1st Floor Rizvi Park,At Milan Subway Signal S V Road Santacruz(W)", "addr:postcode": "400054", "addr:state": "Maharashtra", "amenity": "hospital", "name": "Life Line Hospital and Diagnostics Pvt Ltd", "source": "OpenGovernmentData"}}, {"type": "node", "id": 7070859097, "lat": 19.1031325, "lon": 72.8392227, "tags": {"addr:district": "Mumbai", "addr:full": "D-31, Navmangal Chs, 1st Floor,Above Venilal Saree Shop, S. V. Road", "addr:postcode": "400056", "addr:state": "Maharashtra", "amenity": "hospital", "name": "Khandwala Eye Hospital and Polyclinic", "source": "OpenGovernmentData"}}, {"type": "node", "id": 7072801164, "lat": 19.0857328, "lon": 72.8367229, "tags": {"addr:district": "Mumbai", "addr:full": "5-D, Dattaray Road, Santacruz (West)", "addr:postcode": "400054", "addr:state": "Maharashtra", "amenity": "hospital", "name": "Sarla Hospital and Icu", "source": "OpenGovernmentData"}}, {"type": "node", "id": 7072837154, "lat": 19.0679055, "lon": 72.8353534, "tags": {"addr:district": "Mumbai", "addr:full": "724, 11Th Road , Khar West-Bhandara", "addr:postcode": "400052", "addr:state": "Maharashtra", "amenity": "hospital", "healthcare": "hospital", "name": "Hinduja Healthcare", "source": "OpenGovernmentData"}}, {"type": "node", "id": 7073765630, "lat": 19.062597, "lon": 72.8358504, "tags": {"addr:district": "Mumbai", "addr:full": "Renuka, Gr Flr 269-D, Nr National College , Linking Road Bandra W)", "addr:postcode": "400050", "addr:state": "Maharashtra", "amenity": "hospital", "healthcare": "hospital", "name": "Dr A K Chandiramani Hospital", "source": "OpenGovernmentData"}}, {"type": "node", "id": 7073949883, "lat": 19.1038168, "lon": 72.886899, "tags": {"addr:district": "Mumbai", "addr:full": "1st & 2nd Floor Laxmi Commarcial Premises Saki Naka Junction Andheri ( E)", "addr:postcode": "400059", "addr:state": "Maharashtra", "amenity": "hospital", "healthcare": "hospital", "name": "Paramount General Hospital and ICU", "name:en": "Paramount General Hospital and ICU", "source": "OpenGovernmentData", "website": "https://paramountgeneralhospital.com/"}}, {"type": "node", "id": 7073961725, "lat": 19.103614, "lon": 72.8870398, "tags": {"addr:district": "Mumbai", "addr:full": "Laxmi Commercial Premises, Near Sakinaka Junction, Andheri Kurla Road, Andheri East", "addr:postcode": "400072", "addr:state": "Maharashtra", "amenity": "hospital", "email": "clinics2hospitals@gmail.com", "name": "Paramount General Hospital and ICCU", "operator:type": "private", "source": "OpenGovernmentData", "website": "https://parakhhospital.com/"}}, {"type": "node", "id": 7079392099, "lat": 19.0942526, "lon": 72.849741, "tags": {"addr:district": "Mumbai", "addr:full": "Nanda Patkar Road, Vileparle East", "addr:postcode": "400057", "addr:state": "Maharashtra", "amenity": "hospital", "name": "Dr. Rane hospital maternity & surgical", "source": "OpenGovernmentData"}}, {"type": "node", "id": 7079665770, "lat": 19.0880071, "lon": 72.8367417, "tags": {"addr:district": "Mumbai", "addr:full": "103, Parasurampuria Apt, 2 Tps 6 2nd Road , Santacruz West", "addr:postcode": "400054", "addr:state": "Maharashtra", "amenity": "hospital", "name": "Netrapuja Research Centre", "source": "OpenGovernmentData"}}, {"type": "node", "id": 7080269652, "lat": 19.0363697, "lon": 72.8427344, "tags": {"addr:district": "Mumbai", "addr:full": "Ganesh Apt. Ground Floor, L. J. Road, Opposite Sitladevi Temple, Mahim", "addr:postcode": "400014", "addr:state": "Maharashtra", "amenity": "hospital", "healthcare": "hospital", "name": "Ashwini Accident Hospital and Poly Clinic", "source": "OpenGovernmentData"}}, {"type": "node", "id": 7080269989, "lat": 19.0970597, "lon": 72.847386, "tags": {"addr:district": "Mumbai", "addr:full": "199, Dixit Cross Road, Near Chetan School, Vile Parle (East)", "addr:postcode": "400057", "addr:state": "Maharashtra", "amenity": "hospital", "healthcare": "hospital", "name": "Ashish Maternity and Nursing Home - Vile Parle (E)", "source": "OpenGovernmentData"}}, {"type": "node", "id": 7080878125, "lat": 19.0828996, "lon": 72.8376549, "tags": {"addr:district": "Mumbai", "addr:full": "Santacruz (W)", "addr:postcode": "400054", "addr:state": "Maharashtra", "amenity": "hospital", "name": "Radiance Laser Vision Centre", "source": "OpenGovernmentData"}}, {"type": "node", "id": 7081965757, "lat": 19.0520436, "lon": 72.8238114, "tags": {"addr:district": "Mumbai", "addr:full": "Opp Mehboob Sutdio, Hill Road , Bandra West", "addr:postcode": "400050", "addr:state": "Maharashtra", "amenity": "hospital", "name": "Vision Laser Surgery Centre", "source": "OpenGovernmentData"}}, {"type": "node", "id": 7082499146, "lat": 19.0918193, "lon": 72.8436054, "tags": {"addr:district": "Mumbai", "addr:full": "Veer Makrand Ghanekar Marg, Navpada, Vile Parle East, Vile Parle", "addr:postcode": "400057", "addr:state": "Maharashtra", "amenity": "hospital", "healthcare": "hospital", "name": "Shree Ramnath Eye Care", "source": "OpenGovernmentData"}}, {"type": "node", "id": 7085742085, "lat": 19.0721453, "lon": 72.8343692, "tags": {"addr:district": "Mumbai", "addr:full": "No. 7, Rajsarovar Nikethan, No. 315. A Working Road, Above Punjab Sindhi Bank, Khar West", "addr:postcode": "400054", "addr:state": "Maharashtra", "amenity": "hospital", "name": "Zen Eye Center", "source": "OpenGovernmentData"}}, {"type": "node", "id": 7086409774, "lat": 19.0230349, "lon": 72.8498315, "tags": {"addr:district": "Mumbai", "addr:full": "153-B Dongre Building Hindu Colony Opp Ruia College Matunga (Cr)", "addr:postcode": "400019", "addr:state": "Maharashtra", "amenity": "hospital", "name": "Icon The Eye Consultants Eye and Laser Centre", "source": "OpenGovernmentData"}}, {"type": "node", "id": 7086758044, "lat": 19.0466757, "lon": 72.8574979, "tags": {"addr:district": "Mumbai", "addr:full": "Priyadarshini Co-Op. Hsg.Soc.,Room No.102,G-Wing, 1st Floor,OppositeNew Ongc Tower, Sion-Bandra Link Road, Dharavi", "addr:postcode": "400017", "addr:state": "Maharashtra", "amenity": "hospital", "name": "Lifecare Hospital", "source": "OpenGovernmentData"}}, {"type": "node", "id": 7087131468, "lat": 19.0626503, "lon": 72.881615, "tags": {"addr:district": "Mumbai", "addr:full": "Opp-Building No-101 Nehru Nagar, Kurla (E)", "addr:postcode": "400024", "addr:state": "Maharashtra", "amenity": "hospital", "name": "Prarushi Healthcare Pvt Ltd / Kusumesh Chandra Maternity Hospital", "source": "OpenGovernmentData"}}, {"type": "node", "id": 7225067112, "lat": 19.078004, "lon": 72.86302, "tags": {"addr:district": "Mumbai", "addr:full": "Kalina Health Post, Near Geeta Vihar Market, Santacruz East", "addr:postcode": "400029", "addr:state": "Maharashtra", "amenity": "hospital", "name": "Kalina Hospital", "source": "OpenGovernmentData"}}, {"type": "node", "id": 7225067271, "lat": 19.0369195, "lon": 72.8582046, "tags": {"addr:district": "Mumbai", "addr:full": "Dr Babasaheb Ambedkar Road, Sion West, Sion", "addr:postcode": "400022", "addr:state": "Maharashtra", "amenity": "hospital", "description": "Medical Colleges Hospital", "healthcare": "hospital", "name": "L.T.Muncipal Medical College and Sion Hospital", "source": "OpenGovernmentData"}}, {"type": "node", "id": 7663961415, "lat": 19.0826988, "lon": 72.8816976, "tags": {"addr:district": "Mumbai Suburban", "addr:full": "LBS Road, Bail Bajar, Saki Naka, Mumbai", "addr:postcode": "400070", "addr:state": "Maharastra", "amenity": "hospital", "name": "Subhash Hospital", "source": "Local Knowledge"}}, {"type": "node", "id": 7663961416, "lat": 19.0615419, "lon": 72.8725536, "tags": {"addr:district": "Mumbai Suburban", "addr:full": "LBS Road, Kurla West, Kurla, Mumbai", "addr:postcode": "400070", "addr:state": "Maharastra", "amenity": "hospital", "healthcare": "hospital", "name": "Lions Club Medical Centre General Hospital", "source": "Local Knowledge"}}, {"type": "node", "id": 7663961417, "lat": 19.0797861, "lon": 72.8827185, "tags": {"addr:district": "Mumbai Suburban", "addr:full": "88, New Hall Road, Jai Ambika Nagar, Christian Gaon, Kurla West, Mumbai", "addr:postcode": "400070", "addr:state": "Maharastra", "amenity": "hospital", "name": "Buddh Colony BMC Hospital", "source": "Local Knowledge"}}, {"type": "node", "id": 7663961419, "lat": 19.064667, "lon": 72.835138, "tags": {"addr:district": "Mumbai Suburban", "addr:full": "513, Linking Road, Khar, Pali Village, Khar West, Mumbai", "addr:postcode": "400050", "addr:state": "Maharastra", "amenity": "hospital", "healthcare": "hospital", "name": "Kohinoor Hospital", "source": "Local Knowledge"}}, {"type": "node", "id": 7663961436, "lat": 19.078367, "lon": 72.880408, "tags": {"addr:district": "Mumbai Suburban", "addr:full": "Opposite Quality Bakery, Near Shalimar Hotel, Swadeshi Mills Road, Kurla West, Kurla, Mumbai", "addr:postcode": "400070", "addr:state": "Maharastra", "amenity": "hospital", "healthcare": "hospital", "name": "Muskaan Hospital", "source": "Local Knowledge"}}, {"type": "node", "id": 7663961443, "lat": 19.078247, "lon": 72.880101, "tags": {"addr:district": "Mumbai Suburban", "addr:full": "AH Wadia Marg, Old Agra Road, Off, LBS Road, Opp. Shalimar Hotel, Kurla West, Mumbai", "addr:postcode": "400070", "addr:state": "Maharastra", "amenity": "hospital", "healthcare": "hospital", "name": "Habib Hospital", "source": "Local Knowledge"}}, {"type": "node", "id": 7663961450, "lat": 19.094566, "lon": 72.8870507, "tags": {"addr:district": "Mumbai Suburban", "addr:full": "Dosti Building, D'souza Nagar, 90 Feet Road, Mayfair Industrial Area, Sakinaka, Andheri East, Mumbai", "addr:postcode": "400072", "addr:state": "Maharastra", "amenity": "hospital", "name": "Uma Hospital", "source": "Local Knowledge"}}, {"type": "node", "id": 7663961454, "lat": 19.072612, "lon": 72.871065, "tags": {"addr:district": "Mumbai Suburban", "addr:full": "Office No. 701, Trade Center, Bandra Kurla Complex, Opp. MTNL, Bandra (East), Mumbai", "addr:postcode": "400051", "addr:state": "Maharastra", "amenity": "hospital", "name": "Alphine Life Solutions General Hospital", "source": "Local Knowledge"}}, {"type": "node", "id": 7663961459, "lat": 19.0834657, "lon": 72.8395008, "tags": {"addr:district": "Mumbai Suburban", "addr:full": "Harihar Niwas, Besant Road, Santacruz West, Mumbai", "addr:postcode": "400054", "addr:state": "Maharastra", "amenity": "hospital", "healthcare": "hospital", "name": "Mangal Multispeciality Hospital", "source": "Local Knowledge"}}, {"type": "node", "id": 7663961462, "lat": 19.101669, "lon": 72.848999, "tags": {"addr:district": "Mumbai Suburban", "addr:full": "Chittaranjan Road, Satsang CHSL, Navpada, Park Road, Vile Parle, Mumbai", "addr:postcode": "400057", "addr:state": "Maharastra", "amenity": "hospital", "healthcare": "hospital", "name": "Dr. Wagh Maternity Hospital", "source": "Local Knowledge"}}, {"type": "node", "id": 7663961463, "lat": 19.053227, "lon": 72.876813, "tags": {"addr:district": "Mumbai Suburban", "addr:full": "Flat No.5/6 Sheetal Building, Narayan Nagar, Chunabhatti East, Mumbai", "addr:postcode": "400022", "addr:state": "Maharastra", "amenity": "hospital", "name": "Santrupti Hospital", "source": "Local Knowledge"}}, {"type": "node", "id": 7663961465, "lat": 19.103219, "lon": 72.834862, "tags": {"addr:district": "Mumbai Suburban", "addr:full": "V. L Vaikunthlal Mehta Road, JVPD Scheme, Vile Parle", "addr:postcode": "400056", "addr:state": "Maharastra", "amenity": "hospital", "healthcare": "hospital", "name": "Sunridges Speciality Hospital", "operator": "Private", "operator:type": "private", "source": "Local Knowledge"}}, {"type": "node", "id": 7663961467, "lat": 19.0818439, "lon": 72.8821058, "tags": {"addr:district": "Mumbai Suburban", "addr:full": "New Dwarkapuri Building, LBS Road, Next To Subiksha, Christian Gaon, Kurla, Mumbai", "addr:postcode": "400070", "addr:state": "Maharastra", "amenity": "hospital", "name": "Masoom Child Hospital", "source": "Local Knowledge"}}, {"type": "node", "id": 7663961479, "lat": 19.052772, "lon": 72.87496, "tags": {"addr:district": "Mumbai Suburban", "addr:full": "Akansha Building, VN Purav Marg, Opp. Muncipal Hospital, Chunabhatti, Mumbai", "addr:postcode": "400022", "addr:state": "Maharastra", "amenity": "hospital", "name": "Prathamesh Hospital", "source": "Local Knowledge"}}, {"type": "node", "id": 7663961482, "lat": 19.1002971, "lon": 72.8829976, "tags": {"addr:district": "Mumbai Suburban", "addr:full": "Behind Sakinaka Telephone Exchange, Safed Pul, Saki Naka, Mumbai", "addr:postcode": "400072", "addr:state": "Maharastra", "amenity": "hospital", "name": "Central Hospital & Child Care Centre", "source": "Local Knowledge"}}, {"type": "node", "id": 7664032209, "lat": 19.040411, "lon": 72.854633, "tags": {"addr:district": "Mumbai City", "addr:full": "Dharavi Vivekananda Cooperative Housing Society Limited, RP Nagar, Dharavi, Mumbai", "addr:postcode": "400017", "addr:state": "Maharastra", "amenity": "hospital", "healthcare": "hospital", "name": "Janani Hospital", "source": "Local Knowledge"}}, {"type": "node", "id": 7664032212, "lat": 19.0456326, "lon": 72.8596339, "tags": {"addr:district": "Mumbai City", "addr:full": "90 Feet Road, Dharavi Slums, Laxmi Baug, Dharavi, Mumbai", "addr:postcode": "400017", "addr:state": "Maharastra", "amenity": "hospital", "healthcare": "hospital", "name": "Resham Hospital", "source": "Local Knowledge"}}, {"type": "node", "id": 7664032213, "lat": 19.0358599, "lon": 72.8386025, "tags": {"addr:district": "Mumbai City", "addr:full": "Sitladevi Temple Road, Mahim West, Mahim, Mumbai", "addr:postcode": "400016", "addr:state": "Maharastra", "amenity": "hospital", "healthcare": "hospital", "name": "New Ratna Hospital", "source": "Local Knowledge"}}, {"type": "node", "id": 7664032219, "lat": 19.015443, "lon": 72.8261774, "tags": {"addr:district": "Mumbai City", "addr:full": "Old Prabhadevi Road, G-South Ward, Dadar West, Prabhadevi, Mumbai", "addr:postcode": "400025", "addr:state": "Maharastra", "amenity": "hospital", "healthcare": "hospital", "healthcare:speciality": "general", "name": "BMC Hospital", "source": "Local Knowledge"}}, {"type": "node", "id": 7664032222, "lat": 19.047153, "lon": 72.84134, "tags": {"addr:district": "Mumbai City", "addr:full": "Building No.1, Ground Floor, New Mahim Police Colony, Mahim, Mumbai", "addr:postcode": "400016", "addr:state": "Maharastra", "amenity": "hospital", "name": "Mahim Police Hospital", "source": "Local Knowledge"}}, {"type": "node", "id": 7664032224, "lat": 19.03978, "lon": 72.840027, "tags": {"addr:district": "Mumbai City", "addr:full": "Welkarwadi BMC Building, LJ Cross Road, Opp.Darga Sarff, Mahim West, Mahim, Mumbai", "addr:postcode": "400016", "addr:state": "Maharastra", "amenity": "hospital", "healthcare": "hospital", "name": "Welkarwadi BMC Hospital", "source": "Local Knowledge"}}, {"type": "node", "id": 7664032231, "lat": 19.0363379, "lon": 72.8400357, "tags": {"addr:district": "Mumbai City", "addr:full": "Bobby Apartments, Near Mahim Bazar, P.O., Kapad Bazar, Mahim West, Mumbai", "addr:postcode": "400016", "addr:state": "Maharastra", "amenity": "hospital", "healthcare": "hospital", "name": "Raj Ratan Hospital", "source": "Local Knowledge"}}, {"type": "node", "id": 7664032232, "lat": 19.0363806, "lon": 72.8598664, "tags": {"addr:district": "Mumbai City", "addr:full": "RB2 Central Railway Quarters, Jain Society, Sion, Mumbai", "addr:postcode": "400022", "addr:state": "Maharastra", "amenity": "hospital", "healthcare": "hospital", "name": "Sion Hospital", "source": "Local Knowledge"}}, {"type": "node", "id": 7664032240, "lat": 19.04033, "lon": 72.8553219, "tags": {"addr:district": "Mumbai City", "addr:full": "Bandra Reclamation Road, Muslim Nagar, Kumbhar Wada, Bandra West, Mumbai", "addr:postcode": "400017", "addr:state": "Maharastra", "amenity": "hospital", "healthcare": "hospital", "name": "Lelavati Hospital", "source": "Local Knowledge"}}, {"type": "node", "id": 7664032241, "lat": 19.040315, "lon": 72.854812, "tags": {"addr:district": "Mumbai City", "addr:full": "Dharavi Vivekananda Cooperative Housing Society Limited, 90 Feet Road, Muslim Nagar, RP Nagar, Dharavi, Mumbai", "addr:postcode": "400017", "addr:state": "Maharastra", "amenity": "hospital", "healthcare": "hospital", "name": "Aayush Hospital", "source": "Local Knowledge"}}, {"type": "node", "id": 7664032243, "lat": 19.0479325, "lon": 72.857919, "tags": {"addr:district": "Mumbai City", "addr:full": "Dharavi, Mumbai", "addr:postcode": "400017", "addr:state": "Maharastra", "amenity": "hospital", "name": "Lifecare Hospital", "source": "Local Knowledge"}}, {"type": "node", "id": 8797139771, "lat": 19.0846423, "lon": 72.8836535, "tags": {"addr:district": "Mumbai", "addr:full": "A Wing, Ghatkopar, Mumbai", "addr:postcode": "400086", "addr:state": "Maharashtra", "amenity": "hospital", "name": "Sapna Health Care Centre Pvt Ltd", "source": "Local Knowledge"}}, {"type": "node", "id": 8797197801, "lat": 19.0526857, "lon": 72.8732117, "tags": {"addr:district": "Mumbai", "addr:full": "VN Purav Marg, Chunabhatti, Mumbai", "addr:postcode": "400022", "addr:state": "Maharashtra", "amenity": "hospital", "name": "Dalvi Nursing Home", "source": "Local Knowledge"}}, {"type": "node", "id": 8798161108, "lat": 19.0899538, "lon": 72.8376684, "tags": {"addr:district": "Mumbai", "addr:full": "BEST Colony, Santacruz West, Mumbai", "addr:postcode": "400054", "addr:state": "Maharashtra", "amenity": "hospital", "name": "Surya Hospital", "source": "Local Knowledge"}}, {"type": "node", "id": 8801598781, "lat": 19.0997223, "lon": 72.8463493, "tags": {"addr:district": "Mumbai", "addr:full": "Plot No. 77, Vile Parle, Mumbai", "addr:postcode": "400057", "addr:state": "Maharashtra", "amenity": "hospital", "name": "Babasaheb Gawde Hospital", "source": "Local Knowledge"}}, {"type": "node", "id": 9060925094, "lat": 19.0336282, "lon": 72.8386004, "tags": {"source": "AND"}}, {"type": "node", "id": 9215480148, "lat": 19.0708455, "lon": 72.878112, "tags": {"addr:district": "Mumbai", "addr:full": "Ambedkar Nagar, Kurla West", "addr:postcode": "400070", "addr:state": "Maharashtra", "amenity": "hospital", "description": "Private Hospital", "name": "Bhabha Hospital", "source": "Local Knowledge"}}, {"type": "node", "id": 9215659357, "lat": 19.0207825, "lon": 72.8419304, "tags": {"addr:district": "Mumbai", "addr:full": "Dadar West", "addr:postcode": "400028", "addr:state": "Maharashtra", "amenity": "hospital", "description": "Private Hospital", "name": "Thyrocare Aarogyam Center - Dadar West", "source": "Local Knowledge"}}, {"type": "node", "id": 9441680530, "lat": 19.0554479, "lon": 72.8271482, "tags": {"amenity": "hospital", "healthcare": "hospital"}}, {"type": "node", "id": 9668096312, "lat": 19.0467651, "lon": 72.8756596}, {"type": "node", "id": 9668096314, "lat": 19.047379, "lon": 72.8741942}, {"type": "node", "id": 10172914421, "lat": 19.0627787, "lon": 72.8731767, "tags": {"amenity": "hospital", "healthcare": "hospital", "name": "Fauziya hospital"}}, {"type": "node", "id": 10172914423, "lat": 19.0708724, "lon": 72.8781127, "tags": {"amenity": "hospital", "healthcare": "hospital", "name": "bhabha hospital"}}, {"type": "node", "id": 10172914425, "lat": 19.072649, "lon": 72.8710522, "tags": {"amenity": "hospital", "healthcare": "hospital", "name": "Alphine life solutions general hospital"}}, {"type": "node", "id": 10172914426, "lat": 19.0527267, "lon": 72.8732182, "tags": {"amenity": "hospital", "healthcare": "hospital", "name": "Dalvi nursing home"}}, {"type": "node", "id": 10172914427, "lat": 19.0528, "lon": 72.8749595, "tags": {"amenity": "hospital", "healthcare": "hospital", "name": "Prathamesh hospital"}}, {"type": "node", "id": 10172914428, "lat": 19.0532885, "lon": 72.8751862, "tags": {"amenity": "hospital", "healthcare": "hospital", "name": "Brihanmumbai mucipality Hospital"}}, {"type": "node", "id": 10172914429, "lat": 19.0532245, "lon": 72.876812, "tags": {"amenity": "hospital", "healthcare": "hospital", "name": "Santrupti hospital"}}, {"type": "node", "id": 10172914430, "lat": 19.0477498, "lon": 72.8752849}, {"type": "node", "id": 10242737058, "lat": 19.0559475, "lon": 72.8267709, "tags": {"barrier": "gate", "name": "Gate 4"}}, {"type": "node", "id": 10607816273, "lat": 19.0814514, "lon": 72.8569934, "tags": {"amenity": "hospital", "healthcare": "hospital"}}, {"type": "node", "id": 10696472359, "lat": 19.0595718, "lon": 72.8532235}, {"type": "node", "id": 10696472360, "lat": 19.0592338, "lon": 72.8532187}, {"type": "node", "id": 10696472364, "lat": 19.0592405, "lon": 72.8524366}, {"type": "node", "id": 10696472365, "lat": 19.0590909, "lon": 72.8522193}, {"type": "node", "id": 10696472366, "lat": 19.059314, "lon": 72.8518921}, {"type": "node", "id": 10696472367, "lat": 19.0600086, "lon": 72.8522676}, {"type": "node", "id": 10696472368, "lat": 19.0594433, "lon": 72.8534612}, {"type": "node", "id": 10696472369, "lat": 19.0589312, "lon": 72.8528684}, {"type": "node", "id": 10779234879, "lat": 19.0647644, "lon": 72.8605034}, {"type": "node", "id": 10779234880, "lat": 19.0649532, "lon": 72.8608443}, {"type": "node", "id": 11022260057, "lat": 19.0432174, "lon": 72.8499153}, {"type": "node", "id": 11022260058, "lat": 19.043651, "lon": 72.84958}, {"type": "node", "id": 11023548671, "lat": 19.0332352, "lon": 72.8379419}, {"type": "node", "id": 11023548672, "lat": 19.0329157, "lon": 72.8387547}, {"type": "node", "id": 11023548673, "lat": 19.0327357, "lon": 72.8385025}, {"type": "node", "id": 11023575824, "lat": 19.0332123, "lon": 72.8385253}, {"type": "node", "id": 11045755917, "lat": 19.07613, "lon": 72.8866663}, {"type": "node", "id": 11384605285, "lat": 19.0694671, "lon": 72.8305428}, {"type": "node", "id": 11384605286, "lat": 19.0693505, "lon": 72.8305354}, {"type": "node", "id": 11384605287, "lat": 19.0693376, "lon": 72.8307641}, {"type": "node", "id": 11384605288, "lat": 19.0694542, "lon": 72.8307715}, {"type": "node", "id": 12150771601, "lat": 19.0588838, "lon": 72.8480068, "tags": {"amenity": "hospital", "name": "Agarwal Children's Hospital", "outdoor_seating": "no"}}, {"type": "node", "id": 12413297718, "lat": 19.0722491, "lon": 72.8450037, "tags": {"amenity": "hospital", "healthcare": "hospital"}}, {"type": "node", "id": 12415386367, "lat": 19.0726487, "lon": 72.8443905, "tags": {"addr:city": "mumbai santacruz", "addr:housenumber": "2", "addr:postcode": "400055", "addr:street": "golibar road", "amenity": "hospital", "healthcare": "hospital", "name": "sanjivani hospital", "opening_hours": "24/7"}}, {"type": "node", "id": 12625091014, "lat": 19.0755458, "lon": 72.8858573}, {"type": "node", "id": 12632644743, "lat": 19.0809813, "lon": 72.8819702}, {"type": "node", "id": 12632644744, "lat": 19.0809387, "lon": 72.8819715}, {"type": "node", "id": 12632644753, "lat": 19.0810341, "lon": 72.8818542}, {"type": "node", "id": 12637821285, "lat": 19.075722, "lon": 72.8857324}, {"type": "node", "id": 12666389528, "lat": 19.031922, "lon": 72.8394263}, {"type": "node", "id": 12666389529, "lat": 19.031947, "lon": 72.8394753}, {"type": "node", "id": 12666389530, "lat": 19.0318651, "lon": 72.8395515}, {"type": "node", "id": 12666389531, "lat": 19.0318295, "lon": 72.8396044}, {"type": "node", "id": 12666389532, "lat": 19.0318692, "lon": 72.8396253}, {"type": "node", "id": 12666389533, "lat": 19.0318409, "lon": 72.8397602}, {"type": "node", "id": 12989590769, "lat": 19.0347495, "lon": 72.8572857}, {"type": "node", "id": 12989590770, "lat": 19.0341457, "lon": 72.8588447}, {"type": "node", "id": 12989590771, "lat": 19.0349359, "lon": 72.8591754}, {"type": "node", "id": 12989590772, "lat": 19.0355437, "lon": 72.8576164}, {"type": "node", "id": 13232407990, "lat": 19.0784545, "lon": 72.8447091}, {"type": "node", "id": 13232407991, "lat": 19.0783943, "lon": 72.8452213}, {"type": "node", "id": 13232407992, "lat": 19.078462, "lon": 72.845296}, {"type": "node", "id": 13232407993, "lat": 19.0788047, "lon": 72.8454487}, {"type": "node", "id": 13232407994, "lat": 19.0789204, "lon": 72.8454869}, {"type": "node", "id": 13232407995, "lat": 19.0790557, "lon": 72.8451338}, {"type": "node", "id": 13232407996, "lat": 19.0790768, "lon": 72.8447568}, {"type": "way", "id": 31144296, "nodes": [346379239, 346388855, 2449757463, 346388856, 346388857, 346379239], "tags": {"addr:city": "Mumbai", "addr:district": "Mumbai", "addr:full": "A-791, Bandra Reclamation, Bandra(W), Mumbai", "addr:postcode": "400050", "addr:state": "Maharashtra", "addr:street": "KC Marg", "alt_name": "Lilavati Hospital", "amenity": "hospital", "email": "info@lilavatihospital.com", "emergency": "yes", "healthcare": "hospital", "healthcare:speciality": "cardiology;oncology;psychiatry;paediatrics;emergency;surgery;dermatology;neurology;rheumatology;endocrinology;nephrology;gastroenterology", "loc_name": "Lilavati Hospital", "name": "Lilavati Hospital and Research Centre", "name:en": "Lilavati Hospital", "name:hi": "\u0932\u0940\u0932\u093e\u0935\u0924\u0940 \u0939\u0949\u0938\u094d\u092a\u093f\u091f\u0932", "operator": "Lilavati Kirtilal Mehta Medical Trust", "operator:type": "private", "phone": "+91226666666", "source": "OpenGovernmentData", "start_date": "1997", "website": "https://www.lilavatihospital.com/", "wikidata": "Q6547573", "wikimedia_commons": "Category:Lilavati Hospital", "wikipedia": "en:Lilavati Hospital and Research Centre"}}, {"type": "way", "id": 31213763, "nodes": [347168743, 10242737058, 2449734777, 347168744, 347168745, 347168746, 2449734759, 2449734760, 347168747, 347168748, 347168743], "tags": {"addr:district": "Mumbai", "addr:full": "St.Andrew's Road,Bandra West,Bandra", "addr:postcode": "400050", "addr:state": "Maharashtra", "addr:street": "St. Andrew Road", "amenity": "hospital", "healthcare": "hospital", "name": "Holy Family Hospital, Mumbai", "opening_hours": "Mo-Fr 08:00-17:00", "phone": "(022 30610555 )", "source": "OpenGovernmentData", "wikidata": "Q5885495", "wikipedia": "en:Holy Family Hospital, Mumbai"}}, {"type": "way", "id": 49681498, "nodes": [5792364461, 4264834970, 631493980, 631493994, 5792364462, 5792364461], "tags": {"addr:postcode": "400022", "addr:street": "Laxmibai Kelkar Marg", "amenity": "hospital", "emergency": "yes", "healthcare": "hospital", "helipad": "no", "name": "Lokmanya Tilak Hospital", "name:etymology:wikidata": "Q312555", "wikidata": "Q6668710", "wikipedia": "en:Lokmanya Tilak Municipal General Hospital"}}, {"type": "way", "id": 112781797, "nodes": [1650753918, 1281204550, 1281204569, 1419256941, 1419256929, 1650753846, 1650753852, 1650753849, 1650753844, 1650753824, 245660950, 1650753851, 1419256940, 1650753918], "tags": {"amenity": "hospital", "healthcare": "hospital", "historic": "public", "name": "Acworth Leper Asylum"}}, {"type": "way", "id": 113716576, "nodes": [11023548672, 1625365308, 1289162782, 1625365313, 1289162738, 1289162630, 1289162623, 11023548672], "tags": {"amenity": "hospital", "healthcare": "hospital", "name": "Hinduja Clinic"}}, {"type": "way", "id": 113716578, "nodes": [1289162909, 11023548673, 11023575824, 9060925094, 1289162838, 11023548671, 1289162869, 1289162909], "tags": {"amenity": "hospital", "healthcare": "hospital", "name": "Hinduja Hospital"}}, {"type": "way", "id": 116342799, "nodes": [1311768756, 1311768755, 1311768840, 1311768874, 1311768756], "tags": {"addr:city": "Wadala, Mumbai", "addr:full": "Registered Office, Plot No 153, Major Parmeshwaran Road Road No 9, Opp Siws College Gate No 3, Wadala (West)", "addr:housenumber": "Plot 153", "addr:postcode": "400031", "addr:state": "Maharashtra", "addr:street": "Major R Parameswaran Road", "amenity": "hospital", "building": "yes", "healthcare:speciality": "ophthalmology", "name": "Aditya Jyot Eye Hospital", "source": "OpenGovernmentData"}}, {"type": "way", "id": 143950812, "nodes": [1575266025, 1575266022, 1575266020, 1575266023, 1575266025], "tags": {"amenity": "hospital", "healthcare": "hospital", "name": "Karbhari"}}, {"type": "way", "id": 151806615, "nodes": [1646529838, 1646529751, 12666389528, 12666389529, 12666389530, 12666389531, 12666389532, 12666389533, 1646529753, 1646529811, 1646529838], "tags": {"addr:city": "Mumbai", "amenity": "hospital", "building": "apartments", "building:levels": "15", "healthcare": "hospital", "name": "Lalita Girdhar (Hinduja Hospital)"}}, {"type": "way", "id": 154837118, "nodes": [1673075405, 1673075410, 1673075415, 1673075409, 1673075413, 1673075411, 1673075407, 1673075406, 1673075408, 1673075412, 1673075416, 1673075414, 1673075405], "tags": {"addr:district": "Mumbai", "addr:full": "Kadamwadi, Off.St Anthony, St.Santacruz(East), Near Vishwakarma Samiti Hall", "addr:postcode": "400098", "addr:state": "Maharashtra", "amenity": "hospital", "name": "Niron Hospital and Research Center", "source": "OpenGovernmentData"}}, {"type": "way", "id": 202918725, "nodes": [2128608109, 2128608120, 2128608096, 2128608094, 2128608109], "tags": {"addr:district": "Mumbai", "addr:full": "Raheja Rugnalaya Marg, Mahim (West)", "addr:postcode": "400016", "addr:state": "Maharashtra", "addr:street": "SL Raheja Hospital Marg", "amenity": "hospital", "healthcare": "hospital", "name": "S.L. Raheja Hospital", "name:en": "S.L. Raheja Hospital", "source": "OpenGovernmentData"}}, {"type": "way", "id": 203215801, "nodes": [2131962452, 2131962453, 2131962451, 2131962450, 2131962452], "tags": {"amenity": "hospital", "name": "Brihanmumbai Municipalty Hospital"}}, {"type": "way", "id": 229636994, "nodes": [2382047281, 2382047297, 2382047306, 2382047302, 2382047292, 2382047294, 2382047282, 2382047280, 2382047271, 2382047272, 2382047276, 2382047277, 2382047275, 2382047281], "tags": {"addr:city": "Mumbai", "addr:street": "60 Feet Road", "amenity": "hospital", "building": "apartments", "healthcare": "hospital", "name": "Dharavi Hospital"}}, {"type": "way", "id": 260786332, "nodes": [2663447659, 11045755917, 12625091014, 12637821285, 2663447657, 2663447659], "tags": {"addr:city": "Mumbai", "addr:district": "Mumbai", "addr:full": "Kirol Road, Off LBS Road, Kurla (West)", "addr:housename": "Kohinoor Hospital", "addr:postcode": "400070", "addr:state": "Maharashtra", "addr:street": "Kirol Road, Off LBS Marg, Patelwadi", "amenity": "hospital", "contact:phone": "2267556766", "email": "info@kohinoorhospitals.in", "healthcare": "hospital", "name": "Crtiti Care Asia Hospital", "operator:type": "private", "source": "OpenGovernmentData", "website": "https://www.kohinoorhospitals.in/"}}, {"type": "way", "id": 353174274, "nodes": [3589399326, 3589399327, 3589399303, 12632644744, 12632644743, 3589399323, 12632644753, 3589399326], "tags": {"addr:city": "mumbai", "addr:district": "Mumbai", "addr:full": "Sagar Palace B Wing, Sonapur Lane, F.P.P. Marg, Off L B S Marg, Kurla (W)", "addr:postcode": "400070", "addr:state": "Maharashtra", "addr:street": "father peter periera road", "amenity": "hospital", "building": "yes", "building:levels": "4", "healthcare": "hospital", "name": "City Hospital and Reserch Centre", "source": "OpenGovernmentData"}}, {"type": "way", "id": 353378830, "nodes": [3591607452, 3591607451, 3591607438, 3205767044, 3591607444, 3591607452], "tags": {"addr:city": "Mumbai", "addr:housenumber": "Sector - 7, CGS Colony", "addr:postcode": "400037", "addr:street": "Sheikh Misari Road", "amenity": "hospital", "healthcare": "hospital", "name": "Sanjeevni hospital"}}, {"type": "way", "id": 353418036, "nodes": [3591988763, 3591988766, 3591988786, 3591988795, 3591988762, 3591988753, 3591988758, 3591988751, 3591988763], "tags": {"amenity": "hospital", "healthcare": "hospital"}}, {"type": "way", "id": 353981991, "nodes": [3597683650, 3597683655, 3597683642, 3597683646, 3597683653, 3597683659, 3597683640, 3597683636, 3597683650], "tags": {"amenity": "hospital", "healthcare": "hospital", "healthcare:speciality": "general", "name": "Kaizen Quro"}}, {"type": "way", "id": 357360289, "nodes": [3626442953, 3626442946, 3626442910, 3626442917, 3626442953], "tags": {"addr:city": "Mumbai", "addr:district": "Mumbai", "addr:housenumber": "43", "addr:postcode": "400016", "addr:street": "Takandas H. Kataria Marg", "amenity": "hospital", "emergency": "yes", "healthcare": "hospital", "healthcare:speciality": "general", "name": "smriti narvekar", "opening_hours": "Mo-Fr 08:00-17:00"}}, {"type": "way", "id": 357472226, "nodes": [3627071291, 3627071318, 3627071313, 3627071289, 3627071291], "tags": {"addr:city": "Mumbai", "addr:housenumber": "301-302 Prabath Chambers, Plot No 92", "addr:postcode": "400052", "addr:street": "Swami Vivekanand Road", "amenity": "hospital", "building": "commercial", "description": "The Vein Center is a chain vascular clinic located in Mumbai, India that specializes in the diagnosis and treatment of varicose vein related disorders. As a vascular interventional radiology center, it offers a range of services for the non-surgical treat", "emergency": "yes", "healthcare": "hospital", "healthcare:speciality": "vascular_surgery", "image": "https://tvcm.in/wp-content/uploads/2023/03/The-Vein-Center-Mumbai-Khar-West-Clinic-Building.png", "name": "The Vein Center Mumbai", "operator": "Dr Joshi Vein Center LLP", "operator:type": "private", "phone": "+91 8080866266", "start_date": "2008-01-03", "website": "https://tvcm.in"}}, {"type": "way", "id": 430418378, "nodes": [10779234879, 4297017108, 4297017109, 5510255905, 4297000114, 4297017111, 4297017114, 4297017113, 4297017112, 4297017110, 5506320962, 10779234880, 10779234879], "tags": {"addr:district": "Mumbai", "addr:full": "G / N Block, Bandra Kurla Complex, Bandra (E)", "addr:postcode": "400051", "addr:state": "Maharashtra", "amenity": "hospital", "email": "info@ahirc.com", "healthcare": "hospital", "healthcare:speciality": "cardiology", "name": "Asian Heart Institute", "operator:type": "private", "source": "OpenGovernmentData", "website": "https://www.asianheartinstitute.org/"}}, {"type": "way", "id": 665481038, "nodes": [6228730402, 347120067, 6228754300, 6228730401, 6228730400, 6228730399, 6228730402], "tags": {"addr:district": "Mumbai", "addr:full": "K.B.Bhabha Municipal General Hospital, Waterfield Road, Bandra (W)", "addr:postcode": "400050", "addr:state": "Maharashtra", "amenity": "hospital", "full_name": "Khurshitji Beharamji Bhabha Municipal General Hospital", "full_name:en": "Khurshitji Beharamji Bhabha Municipal General Hospital", "healthcare": "hospital", "name": "K B Bhabha Municipal General Hospital", "official_name": "K B Bhabha Municipal General Hospital", "official_name:en": "K B Bhabha Municipal General Hospital", "phone": "+912226422775", "short_name": "Bhabha Hospital", "short_name:en": "Bhabha Hospital", "source": "OpenGovernmentData", "wikidata": "Q4900481", "wikipedia": "en:Bhabha Hospital"}}, {"type": "way", "id": 1052052198, "nodes": [9668096314, 10172914430, 9668096312, 1633934086, 1633934084, 9668096314], "tags": {"amenity": "hospital", "emergency": "yes", "healthcare": "hospital", "name": "K.J. Somaiya Hospital and Research Centre"}}, {"type": "way", "id": 1149824759, "nodes": [10696472369, 10696472360, 10696472368, 10696472359, 7064402717, 10696472367, 10696472366, 10696472365, 10696472364, 10696472369], "tags": {"addr:district": "Mumbai", "addr:full": "S-341, Gandhinagar, Bandra(E)", "addr:postcode": "400051", "addr:state": "Maharashtra", "amenity": "hospital", "email": "gnhosp@vsnl.com", "healthcare": "hospital", "name": "Guru Nanak Hospital", "name:etymology:wikidata": "Q83322", "operator:type": "private", "source": "OpenGovernmentData", "website": "https://www.gurunanakhospital.com/"}}, {"type": "way", "id": 1186783958, "nodes": [11022260058, 11022260057, 1111894369, 1111894364, 11022260058], "tags": {"addr:district": "Mumbai", "addr:full": "Jeevan Hall Building, 2-A, Dharavi Main Road", "addr:postcode": "400017", "addr:state": "Maharashtra", "amenity": "hospital", "name": "Ayurseva Hospital", "source": "OpenGovernmentData"}}, {"type": "way", "id": 1227680040, "nodes": [11384605285, 11384605286, 11384605287, 11384605288, 11384605285], "tags": {"amenity": "hospital", "building": "hospital", "healthcare": "hospital", "mobile": "+91 98202 54545", "name": "Women's Hospital", "name:en": "Women's Hospital", "operator": "Dr. Rakesh Sinha", "operator:type": "private", "website": "https://www.womenshospital.com/"}}, {"type": "way", "id": 1410330978, "nodes": [4297017109, 4297000114, 4297017111, 4297017114, 4297017113, 4297017112, 4297017110, 5506320962, 10779234880, 10779234879, 4297017108, 4297017109], "tags": {"amenity": "hospital", "healthcare": "hospital", "name": "Asian"}}, {"type": "way", "id": 1413471846, "nodes": [12989590769, 12989590770, 12989590771, 12989590772, 12989590769], "tags": {"amenity": "hospital", "healthcare": "hospital", "name": "Sion Hospital"}}, {"type": "way", "id": 1442093565, "nodes": [13232407990, 13232407991, 13232407992, 13232407993, 13232407994, 13232407995, 13232407996, 13232407990], "tags": {"addr:full": "11th Road, Golibar, Santacruz East", "addr:postcode": "400055", "addr:state": "Maharashtra", "amenity": "hospital", "healthcare": "hospital", "name": "V.N. Desai Hospital", "name:en": "V.N. Desai Hospital", "operator": "BMC", "operator:type": "government", "website": "https://mumbaisuburban.gov.in/en/public-utility/v-n-desai-municipal-general-hospital/"}}, {"type": "way", "id": 1447315313, "nodes": [3589607630, 3589607625, 3589607622, 3589607628, 3589607630], "tags": {"addr:city": "Mumbai", "addr:postcode": "400054", "addr:street": "Besant Road", "amenity": "hospital", "description": "it is a nursing home", "healthcare": "hospital", "healthcare:speciality": "general", "name": "Mangal nursing home", "website": "https://www.justdial.com/Mumbai/Mangal-Multispeciality-Hospital-ICU-Near-Santacurz-Station-Santacruz-West/022PXX22-XX22-121008193335-N5M5_BZDET"}}]}