{"version": 0.6, "generator": "Overpass API 0.7.62.8 e802775f", "osm3s": {"timestamp_osm_base": "2026-01-16T00:33:00Z", "copyright": "The data included in this document is from www.openstreetmap.org. The data is made available under ODbL."}, "elements": [{"type": "node", "id": 1482133854, "lat": 46.2582389, "lon": 6.2050738}, {"type": "node", "id": 2730170590, "lat": 46.2578133, "lon": 6.2063456}, {"type": "node", "id": 2730170602, "lat": 46.2582501, "lon": 6.2050792}, {"type": "node", "id": 2730170674, "lat": 46.2593054, "lon": 6.2056426}, {"type": "node", "id": 2730180669, "lat": 46.2578395, "lon": 6.2063158}, {"type": "node", "id": 2730180671, "lat": 46.2578457, "lon": 6.2062795}, {"type": "node", "id": 2730180688, "lat": 46.2589767, "lon": 6.2068556}, {"type": "node", "id": 2730180691, "lat": 46.2592134, "lon": 6.2059981}, {"type": "way", "id": 134877024, "nodes": [2730180688, 2730180691, 2730170674, 2730170602, 1482133854, 2730180671, 2730180669, 2730170590, 2730180688], "tags": {"addr:country": "CH", "addr:housenumber": "11", "addr:postcode": "1245", "addr:street": "Chemin de la Savonni\u00e8re", "amenity": "hospital", "check_date": "2025-08-29", "healthcare": "rehabilitation", "name": "H\u00f4pital de Bellerive (HUG)", "operator": "HUG Hopitaux Universitaires Gen\u00e8ve", "phone": "+41 22 035 71 11", "website": "https://www.hug-ge.ch/hopital-bellerive/"}}]}