{"version": 0.6, "generator": "Overpass API 0.7.62.8 e802775f", "osm3s": {"timestamp_osm_base": "2026-01-12T12:33:35Z", "copyright": "The data included in this document is from www.openstreetmap.org. The data is made available under ODbL."}, "elements": [{"type": "node", "id": 458105013, "lat": 12.9412769, "lon": 77.5219293}, {"type": "node", "id": 954623054, "lat": 12.939058, "lon": 77.5510802, "tags": {"addr:city": "bangalore", "addr:housenumber": "8/45", "addr:postcode": "560050", "addr:street": "80 Feet Road, SBM Colony, Near-Bank Colony Bus Stop, Banashankari 1st Stage", "amenity": "hospital", "name": "Sri Vinayaka Poly Clinic", "phone": "080 2672 8455", "source": "justdial"}}, {"type": "node", "id": 1228960966, "lat": 12.90306, "lon": 77.4974982, "tags": {"addr:district": "Bengaluru Urban", "addr:full": "67, Uttarahalli Road, Kengeri", "addr:postcode": "560060", "addr:state": "Karnataka", "amenity": "hospital", "email": "web.enquiries@globalhospitalsindia.com", "healthcare": "hospital", "healthcare:speciality": "multi speciality", "name": "BGS Gleneagles Hospitals", "name:kn": "\u0cac\u0cbf\u0c9c\u0cbf\u0c8e\u0cb8\u0ccd \u0c86\u0cb8\u0ccd\u0caa\u0ca4\u0ccd\u0cb0\u0cc6", "operator:type": "private", "source": "OpenGovernmentData", "website": "https://bgsgleneaglesglobalhospitalbengaluru.com/"}}, {"type": "node", "id": 1318987638, "lat": 12.8915893, "lon": 77.560715, "tags": {"amenity": "hospital", "emergency": "yes", "name": "Metro Hospital"}}, {"type": "node", "id": 1462175435, "lat": 12.908504, "lon": 77.5139924}, {"type": "node", "id": 1462175436, "lat": 12.9084491, "lon": 77.5138596}, {"type": "node", "id": 1462175438, "lat": 12.9095733, "lon": 77.5134841}, {"type": "node", "id": 1462175439, "lat": 12.909345, "lon": 77.5142567}, {"type": "node", "id": 1462175441, "lat": 12.9090664, "lon": 77.5132532}, {"type": "node", "id": 1462175447, "lat": 12.9084727, "lon": 77.5130697}, {"type": "node", "id": 1462175448, "lat": 12.9081947, "lon": 77.5137658}, {"type": "node", "id": 1463555571, "lat": 12.930936, "lon": 77.5153776, "tags": {"addr:district": "Bengaluru Urban", "addr:full": "No. 484/A, Ideal Homes Township, 18th Main Road, Rajarajeshwarinagar", "addr:postcode": "560098", "addr:state": "Karnataka", "amenity": "hospital", "name": "Rc Hospital", "source": "OpenGovernmentData"}}, {"type": "node", "id": 1463563608, "lat": 12.9263226, "lon": 77.5156579, "tags": {"amenity": "hospital", "name": "Veturi Child Health Centre"}}, {"type": "node", "id": 1464035837, "lat": 12.9246977, "lon": 77.5004222}, {"type": "node", "id": 1464035839, "lat": 12.9244782, "lon": 77.5006593}, {"type": "node", "id": 1466477036, "lat": 12.9256842, "lon": 77.5489346, "tags": {"addr:district": "Bengaluru Urban", "addr:full": "No:114, 100 Feet Ring Road, 3Road Stage Banashankari", "addr:postcode": "560085", "addr:state": "Karnataka", "amenity": "hospital", "emergency": "yes", "name": "Udhbhava Hospital", "name:kn": "\u0c89\u0ca6\u0ccd\u0cad\u0cb5 \u0c86\u0cb8\u0ccd\u0caa\u0ca4\u0ccd\u0cb0\u0cc6", "source": "OpenGovernmentData"}}, {"type": "node", "id": 1466576385, "lat": 12.9206648, "lon": 77.5598673, "tags": {"addr:district": "Bengaluru Urban", "addr:full": "274 / 275, M K Puttalingaiah Road, Padmanabhanagar", "addr:postcode": "560073", "addr:state": "Karnataka", "amenity": "hospital", "emergency": "yes", "name": "DG Hospital", "operator:type": "private", "source": "OpenGovernmentData", "website": "http://dpal.kar.nic.in/Kanunu%20padakosha%20PDF%20Files/Recognised%20Hospitals.pdf"}}, {"type": "node", "id": 1467778591, "lat": 12.9336501, "lon": 77.5660602, "tags": {"amenity": "hospital", "emergency": "yes", "name": "Kangila Clinic"}}, {"type": "node", "id": 1468296636, "lat": 12.9410014, "lon": 77.5454222}, {"type": "node", "id": 1468296638, "lat": 12.9408975, "lon": 77.5456958}, {"type": "node", "id": 1468296641, "lat": 12.9409341, "lon": 77.5454222}, {"type": "node", "id": 1468296642, "lat": 12.9410197, "lon": 77.545551}, {"type": "node", "id": 1468296644, "lat": 12.9410249, "lon": 77.5457012}, {"type": "node", "id": 1468296645, "lat": 12.9409184, "lon": 77.5455644}, {"type": "node", "id": 1551996910, "lat": 12.9307467, "lon": 77.5415644}, {"type": "node", "id": 1551996911, "lat": 12.9311353, "lon": 77.5410146}, {"type": "node", "id": 1551996916, "lat": 12.9308423, "lon": 77.5408805}, {"type": "node", "id": 1551996934, "lat": 12.93049, "lon": 77.5414278}, {"type": "node", "id": 1794111895, "lat": 12.9309944, "lon": 77.4929837, "tags": {"addr:district": "Bengaluru Urban", "addr:full": "3 P (2), 60 Ft Road, Jnanabharathi Layout, 1st Block, (Valgerhalli), Near To Srikki Apartment", "addr:postcode": "560059", "addr:state": "Karnataka", "amenity": "hospital", "emergency": "yes", "name": "MEDSOL Hospital", "source": "OpenGovernmentData"}}, {"type": "node", "id": 1812673570, "lat": 12.9202791, "lon": 77.5598033, "tags": {"addr:district": "Bengaluru Urban", "addr:full": "No. 277, M.K. Puttalingaiah Road, Padmanabha Nagar", "addr:postcode": "560070", "addr:state": "Karnataka", "amenity": "hospital", "emergency": "yes", "name": "Yogananda Medical and Research Centre", "source": "OpenGovernmentData"}}, {"type": "node", "id": 1835530203, "lat": 12.9089008, "lon": 77.5129805}, {"type": "node", "id": 2123564200, "lat": 12.915903, "lon": 77.5550223, "tags": {"addr:district": "Bengaluru Urban", "addr:full": "15Th Main, 17Th Cross Padmanabhanagar", "addr:postcode": "560070", "addr:state": "Karnataka", "amenity": "hospital", "emergency": "yes", "name": "Maharaja Agrasen Hospital, Bengaluru Urban", "source": "OpenGovernmentData"}}, {"type": "node", "id": 2123630630, "lat": 12.9231342, "lon": 77.5642974, "tags": {"addr:district": "Bengaluru Urban", "addr:full": "17Th, Main,27Th Cross, Banashankari 2nd Stage, South", "addr:postcode": "560070", "addr:state": "Karnataka", "amenity": "hospital", "healthcare": "hospital", "name": "Banashankari Referral Hospital", "source": "OpenGovernmentData"}}, {"type": "node", "id": 2124813862, "lat": 12.9179548, "lon": 77.555816, "tags": {"amenity": "hospital", "name": "Bangalore Kidney Foundation - NU Hospital"}}, {"type": "node", "id": 2484900084, "lat": 12.9436624, "lon": 77.5419997, "tags": {"addr:city": "Bangalore", "addr:housename": "Near BDA Park", "addr:housenumber": "63", "addr:postcode": "560085", "addr:street": "6th Main Road", "amenity": "hospital", "name": "Shalini Nursing & MAternity Home"}}, {"type": "node", "id": 2932851733, "lat": 12.9169288, "lon": 77.5592568, "tags": {"addr:city": "Bangalore", "addr:district": "Bengaluru Urban", "addr:full": "No. 30, Pavana Dhama, 80 Feet Main Road,Opposite Nilgiris,Padmanabha Nagar", "addr:postcode": "560070", "addr:state": "Karnataka", "amenity": "hospital", "healthcare": "hospital", "name": "Dr.Agarwal's Eye Hospital Ltd, Padmanabha Nagar", "operator": "Dr. Agarwal's Eye Hospital", "operator:wikidata": "Q17052044", "source": "OpenGovernmentData"}}, {"type": "node", "id": 2984295033, "lat": 12.9184617, "lon": 77.5555842, "tags": {"addr:district": "Bengaluru Urban", "addr:full": "Thimmaiah Road, Padmanabhanagar, Bengaluru", "addr:postcode": "560070", "addr:state": "Karnataka", "amenity": "hospital", "name": "Shraddha Eye Care", "source": "Local Knowledge"}}, {"type": "node", "id": 3004275434, "lat": 12.931334, "lon": 77.5154779, "tags": {"addr:district": "Bengaluru Urban", "addr:full": "#483, 16 Th Cross, 8 Th Main", "addr:postcode": "560098", "addr:state": "Karnataka", "addr:subdistrict": "Rajarajeswarinagar", "amenity": "hospital", "healthcare": "doctor", "healthcare:speciality": "ophthalmology", "name": "Vasan Eye Care Hospital, Rajarajeswari Nagar", "operator:type": "private", "source": "OpenGovernmentData", "website": "http://www.vasaneye.in/"}}, {"type": "node", "id": 3037310855, "lat": 12.8827229, "lon": 77.5466715, "tags": {"addr:city": "Bangalore", "addr:housenumber": "28", "addr:postcode": "560062", "addr:street": "Kanakapura Road", "amenity": "hospital", "healthcare": "hospital", "name": "Aikya Healthcare"}}, {"type": "node", "id": 3118322042, "lat": 12.9293654, "lon": 77.5639296}, {"type": "node", "id": 3118322043, "lat": 12.9293415, "lon": 77.5640447}, {"type": "node", "id": 3118322044, "lat": 12.9295056, "lon": 77.5640805}, {"type": "node", "id": 3118322045, "lat": 12.9295294, "lon": 77.5639654}, {"type": "node", "id": 3388805879, "lat": 12.9413723, "lon": 77.5220207}, {"type": "node", "id": 3544299986, "lat": 12.9391198, "lon": 77.5512468}, {"type": "node", "id": 3544300103, "lat": 12.9391862, "lon": 77.5514089}, {"type": "node", "id": 3544300106, "lat": 12.9391903, "lon": 77.5512164}, {"type": "node", "id": 3544300124, "lat": 12.9392567, "lon": 77.5513785}, {"type": "node", "id": 4397421787, "lat": 12.9074635, "lon": 77.5651851}, {"type": "node", "id": 4397421788, "lat": 12.9074713, "lon": 77.565228}, {"type": "node", "id": 4397421789, "lat": 12.9074791, "lon": 77.5651261}, {"type": "node", "id": 4397421791, "lat": 12.9075079, "lon": 77.5653004}, {"type": "node", "id": 4397421798, "lat": 12.9077406, "lon": 77.5652227}, {"type": "node", "id": 4397421799, "lat": 12.9078033, "lon": 77.5650456}, {"type": "node", "id": 4397421803, "lat": 12.9079654, "lon": 77.5652093}, {"type": "node", "id": 4397421804, "lat": 12.9079837, "lon": 77.5650242}, {"type": "node", "id": 4397421812, "lat": 12.9082321, "lon": 77.5650698}, {"type": "node", "id": 4397421813, "lat": 12.9082504, "lon": 77.5652441}, {"type": "node", "id": 4397421814, "lat": 12.9082556, "lon": 77.56511}, {"type": "node", "id": 4397421815, "lat": 12.9082713, "lon": 77.5651798}, {"type": "node", "id": 4443301971, "lat": 12.9151071, "lon": 77.5624888, "tags": {"addr:city": "bangalore", "addr:housenumber": "5", "addr:postcode": "560050", "addr:street": "80 feet road,banashankari", "amenity": "hospital", "name": "NRS Medical & Dental Specialists Centre", "phone": "08026696054"}}, {"type": "node", "id": 4444989840, "lat": 12.9390944, "lon": 77.5619057, "tags": {"addr:city": "bangalore", "addr:housenumber": "11/2", "addr:postcode": "560079", "addr:street": "Magadi Main Road", "amenity": "hospital", "name": "Sarvodaya Hospital", "name:kn": "\u0cb8\u0cb0\u0ccd\u0cb5\u0ccb\u0ca6\u0caf \u0c86\u0cb8\u0ccd\u0caa\u0ca4\u0ccd\u0cb0\u0cc6", "phone": "098440 74946"}}, {"type": "node", "id": 4446881168, "lat": 12.9378359, "lon": 77.5573329, "tags": {"addr:city": "Bangalore", "addr:housenumber": "5", "addr:postcode": "560050", "addr:street": "80 Feet Road, 1st Stage, Srinivasa Nagar, Banashankari", "amenity": "hospital", "name": "\" NRS Medical & Dental Specialists Centre\"", "phone": "080-26696054"}}, {"type": "node", "id": 4446891375, "lat": 12.9386994, "lon": 77.5518394, "tags": {"addr:city": "bangalore", "addr:district": "Bengaluru Urban", "addr:housenumber": "60", "addr:postcode": "560050", "addr:state": "Karnataka", "addr:street": "2nd Main, Bsk 1st Stage, 80 Feet Road, Srinivasa Nagar,Sree Manjunatha Temple Street", "amenity": "hospital", "name": "Chiranjeevi Hospital & Maternity Home", "phone": "080 2691 7676", "source": "OpenGovernmentData"}}, {"type": "node", "id": 4446893667, "lat": 12.9373748, "lon": 77.5494778, "tags": {"addr:city": "bangalore", "addr:district": "Bengaluru Urban", "addr:full": "110, 1st Main, Sbm Colony, Bsk 1st Stage Hanumantha Nagar", "addr:housenumber": "110", "addr:postcode": "560050", "addr:state": "Karnataka", "addr:street": "State Bank Of Mysore Colony, 1st Stage,80 Feet Road,, Banashankari", "amenity": "hospital", "name": "Vinayaka Hospital, Hanumantha Nagar", "operator:type": "private", "phone": "080 2679 6167", "source": "OpenGovernmentData", "website": "http://dpal.kar.nic.in/Kanunu%20padakosha%20PDF%20Files/Recognised%20Hospitals.pdf"}}, {"type": "node", "id": 4446894388, "lat": 12.9354293, "lon": 77.5477956, "tags": {"addr:city": "Banglore", "addr:housenumber": "788", "addr:postcode": "560050", "addr:street": "11th Cross, 2nd Main, 80ft Main Road, SBM Colony, Giri Nagar 4th Phase", "amenity": "hospital", "name": "Diavista Diabetes & Multispeciality Hospital", "phone": "080 4096 9392", "source": "justdail", "website": "diavista.co.in"}}, {"type": "node", "id": 4446897063, "lat": 12.9420715, "lon": 77.553698, "tags": {"addr:city": "Bengaluru", "addr:housenumber": "979/A", "addr:postcode": "560085", "addr:street": "50 Feet Road", "amenity": "hospital", "name": "Meenakshi Hospital", "name:kn": "\u0cae\u0cc0\u0ca8\u0cbe\u0c95\u0ccd\u0cb7\u0cbf \u0c86\u0cb8\u0ccd\u0caa\u0ca4\u0ccd\u0cb0\u0cc6", "phone": "+918026755800"}}, {"type": "node", "id": 4446899253, "lat": 12.9408667, "lon": 77.5603657, "tags": {"addr:city": "bangalore", "addr:district": "Bengaluru Urban", "addr:full": "#795/1, 9Th Main ,Bsk 1st, Stage,2nd Block,Hanumantha Nagar", "addr:housenumber": "795/1", "addr:postcode": "560050", "addr:state": "Karnataka", "addr:street": "9th Main, 2nd Block, Hanumantha Nagar, Near-Shaneshwara Temple Road, Banashankari 1st Stage", "amenity": "hospital", "name": "Medi-Tech Multi Speciality Hospital", "phone": "080 2660 2910", "source": "OpenGovernmentData"}}, {"type": "node", "id": 4446900247, "lat": 12.9420124, "lon": 77.5506918, "tags": {"addr:city": "bangalore", "addr:housenumber": "237/37", "addr:postcode": "560050", "addr:street": "Nagendra Block, 50ft Road, 10th Main Rd, Srinagar, Banashankari", "amenity": "hospital", "name": "Kusuma Hospital", "phone": "080 2642 1177", "source": "justdail"}}, {"type": "node", "id": 4446907220, "lat": 12.9274553, "lon": 77.5516293, "tags": {"addr:city": "Bangalore", "addr:housenumber": "165", "addr:postcode": "560085", "addr:street": "1st Main Road, Kathreguppe Cross Road, Kathreguppe, Banashankari 3rd Stage", "amenity": "hospital", "name": "Ring Road Hospital", "phone": "080 2679 7040", "source": "just dial"}}, {"type": "node", "id": 4446907712, "lat": 12.9389007, "lon": 77.5438808, "tags": {"addr:city": "bangalore", "addr:housenumber": "5/8/1", "addr:postcode": "560085", "addr:street": "20th Main Road, Muneshwara Block, Girinagar, 1st phase Girinagar, Kadavanthra, Banashankari", "amenity": "hospital", "name": "Pulse Multispecialty Hospital", "phone": "080 2672 4466", "source": "just dial"}}, {"type": "node", "id": 4446909294, "lat": 12.9316792, "lon": 77.5450887, "tags": {"addr:city": "bangalore", "addr:housenumber": "103,994", "addr:postcode": "560085", "addr:street": ",2nd Main,1st Block,4th Phase,Kathriguppe,BSK 3rd Stage, Water Tank Road, Banashankari", "amenity": "hospital", "name": "Surya Galaxy Hospital", "phone": "080 2642 1051", "source": "just dial"}}, {"type": "node", "id": 4547191103, "lat": 12.9056092, "lon": 77.5426964, "tags": {"addr:postcode": "560061", "addr:street": "Dr. Vishnuvardhan Road", "amenity": "hospital", "healthcare": "hospital", "name": "Nagarathna Hospital", "name:kn": "\u0ca8\u0cbe\u0c97\u0cb0\u0ca4\u0ccd\u0ca8"}}, {"type": "node", "id": 5277512112, "lat": 12.9138086, "lon": 77.5273633, "tags": {"amenity": "hospital", "name": "Usha Vikranth Diagnostic Center and Hospital"}}, {"type": "node", "id": 6531332483, "lat": 12.9248001, "lon": 77.500522}, {"type": "node", "id": 6531332484, "lat": 12.9246684, "lon": 77.5006643}, {"type": "node", "id": 6531332485, "lat": 12.9247366, "lon": 77.5007308}, {"type": "node", "id": 6531332486, "lat": 12.9246489, "lon": 77.5008256}, {"type": "node", "id": 6809801083, "lat": 12.9156896, "lon": 77.4808065, "tags": {"addr:district": "Bangalore", "addr:full": "NEAR COLLAGE, RAILWAY STATION", "addr:postcode": "560060", "addr:state": "Karnataka", "addr:subdistrict": "Bangalore South", "amenity": "hospital", "healthcare": "hospital", "name": "Kengeri Upanagara Government Hospital", "name:kn": "\u0c95\u0cc6\u0c82\u0c97\u0cc7\u0cb0\u0cbf \u0c89\u0caa\u0ca8\u0c97\u0cb0 \u0cb8\u0cb0\u0ccd\u0c95\u0cbe\u0cb0\u0cbf \u0c86\u0cb8\u0ccd\u0caa\u0ca4\u0ccd\u0cb0\u0cc6", "source": "OpenGovernmentData"}}, {"type": "node", "id": 6852266953, "lat": 12.9158516, "lon": 77.5593919, "tags": {"addr:district": "Bengaluru Urban", "addr:full": "Padmanabhanagar, Bengaluru", "addr:postcode": "560070", "addr:state": "Karnataka", "amenity": "hospital", "healthcare": "hospital", "name": "Yogananda Multi Speciality Hospital", "name:kn": "\u0caf\u0ccb\u0c97\u0ca8\u0c82\u0ca6 \u0c86\u0cb8\u0ccd\u0caa\u0ca4\u0ccd\u0cb0\u0cc6", "source": "Local Knowledge"}}, {"type": "node", "id": 6938708338, "lat": 12.9215013, "lon": 77.5655432, "tags": {"addr:district": "Bengaluru Urban", "addr:full": "No 154, 17 Th Main, 29 Th Cross, Near Bnm Institution", "addr:postcode": "560070", "addr:state": "Karnataka", "amenity": "hospital", "healthcare": "hospital", "name": "Sri Krishna Hospital", "source": "OpenGovernmentData"}}, {"type": "node", "id": 6938772336, "lat": 12.9118831, "lon": 77.5528805, "tags": {"addr:district": "Bengaluru Urban", "addr:full": "Dr.Gurappa Naidu Complex, Opposite Komarla Brigade Residency. Uttarahalli Main Road, Chikkalasandra", "addr:postcode": "560063", "addr:state": "Karnataka", "amenity": "hospital", "healthcare": "hospital", "name": "C.S. Hospital", "source": "OpenGovernmentData"}}, {"type": "node", "id": 6938775854, "lat": 12.9406698, "lon": 77.5644596, "tags": {"addr:district": "Bengaluru Urban", "addr:full": "No.10/4 & 10/5, 3Road Main Road, Hanumanthanagar", "addr:postcode": "560019", "addr:state": "Karnataka", "amenity": "hospital", "name": "Vishwabharathi Hospital Pvt. Ltd", "source": "OpenGovernmentData"}}, {"type": "node", "id": 6938775855, "lat": 12.9404548, "lon": 77.5578493, "tags": {"addr:district": "Bengaluru Urban", "addr:full": "No 519/34, 2nd Cross 10Th Main, Bsk 1st Stage Banashankari", "addr:postcode": "560050", "addr:state": "Karnataka", "amenity": "hospital", "name": "Sunetra Eye Hospital, Bengaluru Urban", "source": "OpenGovernmentData"}}, {"type": "node", "id": 6938777925, "lat": 12.9291283, "lon": 77.5461361, "tags": {"addr:district": "Bengaluru Urban", "addr:full": "No.160, 1st Floor,Rashi Complex,2nd Stage,2nd Block,Near Bda Complex, Nagarabhavi", "addr:postcode": "560072", "addr:state": "Karnataka", "amenity": "hospital", "name": "Netraspandana Healthcare and Research Pvt. Ltd", "source": "OpenGovernmentData"}}, {"type": "node", "id": 6938777945, "lat": 12.9176216, "lon": 77.5550705, "tags": {"addr:district": "Bengaluru Urban", "addr:full": "Bkf Chand , Nephro- Urology Centre, Ca - 6,15Th, Main Street, 11Th Cross, Padmanabhanagar", "addr:postcode": "560070", "addr:state": "Karnataka", "amenity": "hospital", "name": "Nu Trust", "source": "OpenGovernmentData"}}, {"type": "node", "id": 6938783140, "lat": 12.9278657, "lon": 77.5519297, "tags": {"addr:district": "Bengaluru Urban", "addr:full": "#129, 1 Main Road, Kattriguppe, Banashankari Iii Stage", "addr:postcode": "560085", "addr:state": "Karnataka", "amenity": "hospital", "name": "Ring Road Hospital", "source": "OpenGovernmentData"}}, {"type": "node", "id": 6939444286, "lat": 12.9246384, "lon": 77.5509238, "tags": {"addr:district": "Bengaluru Urban", "addr:full": "#271, 5Th Block, 100 Feet Road, 3Road Phase, Banashankari", "addr:postcode": "560085", "addr:state": "Karnataka", "amenity": "hospital", "name": "Abhilash Hospital And Sara Rehabilitation Centre", "source": "OpenGovernmentData"}}, {"type": "node", "id": 6939582677, "lat": 12.9275311, "lon": 77.5457901, "tags": {"addr:district": "Bengaluru Urban", "addr:full": "30, 2nd Cross Anjaneya Nagar, 3Road Stage Banashankari", "addr:postcode": "560085", "addr:state": "Karnataka", "amenity": "hospital", "name": "Sg Hospital", "source": "OpenGovernmentData"}}, {"type": "node", "id": 6944095844, "lat": 12.9215104, "lon": 77.4832503, "tags": {"addr:district": "Bengaluru Rural", "addr:full": "No 73, 3Road Main Road, Kengeri Satellite Town, Kengeri", "addr:postcode": "560060", "addr:state": "Karnataka", "amenity": "hospital", "name": "Shreya Hospital, Bengaluru Rural", "source": "OpenGovernmentData"}}, {"type": "node", "id": 6944096856, "lat": 12.9255704, "lon": 77.4857756, "tags": {"addr:district": "Bengaluru Rural", "addr:full": "80 Ft. Road", "addr:postcode": "560060", "addr:state": "Karnataka", "amenity": "hospital", "name": "Sri Annapoorneshwari Hospital", "source": "OpenGovernmentData"}}, {"type": "node", "id": 6944201468, "lat": 12.9271131, "lon": 77.5471291, "tags": {"addr:district": "Bengaluru Urban", "addr:full": "# 77, 100 Ft.Ring Road, B.S.K.3rd Stage, 5th Block", "addr:postcode": "560085", "addr:state": "Karnataka", "amenity": "hospital", "email": "abhayaeye@yahoo.com", "healthcare:speciality": "Cataract", "name": "Abhaya Eye Hospital, Super Speciality Eye Care Centre", "operator:type": "private", "source": "OpenGovernmentData", "website": "http://www.abhayaeyehospital.com/"}}, {"type": "node", "id": 6944231472, "lat": 12.9110975, "lon": 77.4806057, "tags": {"addr:district": "Bengaluru Rural", "addr:full": "No-304, Kuvempu Street, Bazar Street , Kenegeri", "addr:postcode": "560060", "addr:state": "Karnataka", "amenity": "hospital", "name": "Mathru Hospital - Bangalore", "name:kn": "\u0cae\u0cbe\u0ca4\u0cc3 \u0c86\u0cb8\u0ccd\u0caa\u0ca4\u0ccd\u0cb0\u0cc6", "source": "OpenGovernmentData"}}, {"type": "node", "id": 6944256036, "lat": 12.9424801, "lon": 77.5473283, "tags": {"addr:district": "Bengaluru Urban", "addr:full": "5/81, 50 Feet Road, 20Th Main Road, Muneshwara Block, Girinagar", "addr:postcode": "560085", "addr:state": "Karnataka", "amenity": "hospital", "name": "The Pulse Multi Speciality Hospital", "source": "OpenGovernmentData"}}, {"type": "node", "id": 6944400794, "lat": 12.9110766, "lon": 77.4800451, "tags": {"addr:district": "Bengaluru Rural", "addr:full": "#709, 1st Cross, Ring Road, Kengeri Upanagar,Behind Vijaya Bank", "addr:postcode": "560060", "addr:state": "Karnataka", "amenity": "hospital", "name": "Belaku Eye Hospital", "source": "OpenGovernmentData"}}, {"type": "node", "id": 6944578226, "lat": 12.910823, "lon": 77.5207892, "tags": {"addr:district": "Bengaluru Urban", "addr:full": "No.886, Beml Layout,Near Police Station Main Road,Rajarajeshwari Nagar", "addr:postcode": "560098", "addr:state": "Karnataka", "amenity": "hospital", "name": "Unity Hospital, Bengaluru Urban", "source": "OpenGovernmentData"}}, {"type": "node", "id": 6944616329, "lat": 12.9085981, "lon": 77.4784157, "tags": {"addr:district": "Bengaluru Urban", "addr:full": "106/2&135 - Mysore Road Kengeri", "addr:postcode": "560054", "addr:state": "Karnataka", "amenity": "hospital", "name": "HK Hospital", "source": "OpenGovernmentData"}}, {"type": "node", "id": 6947375064, "lat": 12.89708, "lon": 77.5473364, "tags": {"addr:district": "Bengaluru Urban", "addr:full": "No.4, Sagar Complex,Gopalakrishna Layout,Vasanthapura Main Road,Subramanyapura Post,Uttarahalli Hobli", "addr:postcode": "560061", "addr:state": "Karnataka", "amenity": "hospital", "name": "Samastha Hospitals Pvt Ltd", "source": "OpenGovernmentData"}}, {"type": "node", "id": 6947707903, "lat": 12.9418827, "lon": 77.48376, "tags": {"addr:district": "Bengaluru Urban", "addr:full": "4,Kirloskar Colony, Basaveshwaranagar", "addr:postcode": "560079", "addr:state": "Karnataka", "amenity": "hospital", "name": "Vijaya Hospital, Bengaluru Urban", "source": "OpenGovernmentData"}}, {"type": "node", "id": 6947750361, "lat": 12.9162753, "lon": 77.5589544, "tags": {"addr:district": "Bengaluru Urban", "addr:full": "No. 113, 4Th Cross, R. K. Layout, Padmanabhanagar", "addr:postcode": "560070", "addr:state": "Karnataka", "amenity": "hospital", "healthcare": "hospital", "name": "Hillside Hospital", "source": "OpenGovernmentData"}}, {"type": "node", "id": 6950185729, "lat": 12.8914666, "lon": 77.5612113, "tags": {"addr:district": "Bengaluru Rural", "addr:full": "No. 21/3 Vasanthpur Main Road Konanakunte Cross", "addr:postcode": "560062", "addr:state": "Karnataka", "amenity": "hospital", "name": "Metro Hospital, Bengaluru Rural", "source": "OpenGovernmentData"}}, {"type": "node", "id": 6952164952, "lat": 12.9408227, "lon": 77.5227942}, {"type": "node", "id": 6952164953, "lat": 12.9415717, "lon": 77.523348}, {"type": "node", "id": 6952164960, "lat": 12.9420357, "lon": 77.5225983}, {"type": "node", "id": 7213514086, "lat": 12.9358669, "lon": 77.4927128, "tags": {"addr:district": "Bengaluru Rural", "addr:full": "Mutharayana Nagar, Gnana Bharathi, Bengaluru", "addr:postcode": "560056", "addr:state": "Karnataka", "amenity": "hospital", "name": "Sree Ranga Hospital", "source": "OpenGovernmentData"}}, {"type": "node", "id": 7229958802, "lat": 12.9427937, "lon": 77.5256266}, {"type": "node", "id": 7229958803, "lat": 12.9428107, "lon": 77.5254495}, {"type": "node", "id": 7229958804, "lat": 12.9426696, "lon": 77.5254013}, {"type": "node", "id": 7229958805, "lat": 12.9426291, "lon": 77.5255233}, {"type": "node", "id": 7258378647, "lat": 12.931298, "lon": 77.5412566, "tags": {"amenity": "hospital", "healthcare": "hospital", "healthcare:speciality": "optometry;optometrist", "name": "Vittal Eye HOspital"}}, {"type": "node", "id": 7576958025, "lat": 12.93753, "lon": 77.549675, "tags": {"addr:district": "Bengaluru Urban", "addr:full": "Srinivasnagar, Banashankari, Bengaluru", "addr:state": "Karnataka", "amenity": "hospital", "name": "Vinayaka Hospital", "source": "Local Knowledge"}}, {"type": "node", "id": 7576958039, "lat": 12.9417439, "lon": 77.5601782, "tags": {"addr:district": "Bengaluru Urban", "addr:full": "50 Feet Road, Basavanagadi, Banashankari, Bengaluru", "addr:postcode": "560019", "addr:state": "Karnataka", "amenity": "hospital", "name": "Sumanjara Hospital", "source": "Local Knowledge"}}, {"type": "node", "id": 7576958048, "lat": 12.942076, "lon": 77.553598, "tags": {"addr:district": "Bengaluru Urban", "addr:full": "Dasarhalli, Srinagar, Banashankari, Bengaluru", "addr:state": "Karnataka", "amenity": "hospital", "name": "People Tree Hospitals", "source": "Local Knowledge"}}, {"type": "node", "id": 7576958060, "lat": 12.940404, "lon": 77.5580361, "tags": {"addr:district": "Bengaluru Urban", "addr:full": "SBM Colony, Banashankari, Bengaluru", "addr:postcode": "560050", "addr:state": "Karnataka", "amenity": "hospital", "name": "Verna Hospital", "source": "Local Knowledge"}}, {"type": "node", "id": 7576958068, "lat": 12.9415883, "lon": 77.5641917, "tags": {"addr:district": "Bengaluru Urban", "addr:full": "Hanumanthnagar, Banashankari, Bengaluru", "addr:postcode": "560019", "addr:state": "Karnataka", "amenity": "hospital", "name": "Jeevini Sarvodaya Hospital", "source": "Local Knowledge"}}, {"type": "node", "id": 7576958071, "lat": 12.938787, "lon": 77.554296, "tags": {"addr:district": "Bengaluru Urban", "addr:full": "Banashankari, Bengaluru", "addr:state": "Karnataka", "amenity": "hospital", "name": "Raghavendra Hospital", "source": "Local Knowledge"}}, {"type": "node", "id": 7576958074, "lat": 12.938453, "lon": 77.551329, "tags": {"addr:district": "Bengaluru Urban", "addr:full": "Srinivasnagar, Banashankari, Bengaluru", "addr:state": "Karnataka", "amenity": "hospital", "name": "Apaara Multi Speciality", "source": "Local Knowledge"}}, {"type": "node", "id": 7576958083, "lat": 12.9422541, "lon": 77.5506328, "tags": {"addr:district": "Bengaluru Urban", "addr:full": "Giri Nagar, Banashankari, Bengaluru", "addr:state": "Karnataka", "amenity": "hospital", "name": "Drishti Nethralaya", "name:kn": "\u0ca6\u0cc3\u0cb7\u0ccd\u0c9f\u0cbf \u0ca8\u0cc7\u0ca4\u0ccd\u0cb0\u0cbe\u0cb2\u0caf", "source": "Local Knowledge"}}, {"type": "node", "id": 7579924725, "lat": 12.9055752, "lon": 77.5425258, "tags": {"addr:district": "Bengaluru Urban", "addr:full": "Uttarahalli, Bengaluru", "addr:postcode": "560011", "addr:state": "Karnataka", "amenity": "hospital", "name": "Perfetual Help Hospital", "source": "Local Knowledge"}}, {"type": "node", "id": 7579924732, "lat": 12.9334096, "lon": 77.5622345, "tags": {"addr:district": "Bengaluru Urban", "addr:full": "Vidyapeeta Layout, Basavanagudi, Bengaluru", "addr:postcode": "560050", "addr:state": "Karnataka", "amenity": "hospital", "name": "Bharathi Hospitals", "source": "Local Knowledge"}}, {"type": "node", "id": 7579924744, "lat": 12.924153, "lon": 77.565797, "tags": {"addr:district": "Bengaluru Urban", "addr:full": "Banashankari, Bengaluru", "addr:postcode": "560070", "addr:state": "Karnataka", "amenity": "hospital", "name": "Devagiri Hospital", "source": "Local Knowledge"}}, {"type": "node", "id": 7579924760, "lat": 12.9254569, "lon": 77.5467101, "tags": {"addr:district": "Bengaluru Urban", "addr:full": "Banashankari, Bengaluru", "addr:postcode": "560085", "addr:state": "Karnataka", "amenity": "hospital", "name": "Sudha Prevention Centre", "source": "Local Knowledge"}}, {"type": "node", "id": 7579924783, "lat": 12.906113, "lon": 77.542548, "tags": {"addr:district": "Bengaluru Urban", "addr:full": "Simhadri layout, Uttarahalli Hobli, Bengaluru", "addr:postcode": "560061", "addr:state": "Karnataka", "amenity": "hospital", "name": "St. Martha's Hospital", "source": "Local Knowledge"}}, {"type": "node", "id": 9192967331, "lat": 12.9208444, "lon": 77.4847891, "tags": {"amenity": "hospital", "name": "Adarsh Hospital", "name:kn": "\u0c86\u0ca6\u0cb0\u0ccd\u0cb6 \u0c86\u0cb8\u0ccd\u0caa\u0ca4\u0ccd\u0cb0\u0cc6"}}, {"type": "node", "id": 9884952776, "lat": 12.8832909, "lon": 77.5500857, "tags": {"addr:city": "Bengaluru", "addr:housenumber": "766", "addr:postcode": "560062", "addr:street": "Narayana Nagar, 1st Block, Doddakallasandra Village, Kanakapura Road", "amenity": "hospital", "check_date": "2024-10-19", "description": "Maternity & Kids Hospital", "emergency": "yes", "healthcare": "hospital", "healthcare:speciality": "gynaecology;pulmonology;paediatrics;dermatology;dentistry;physiotherapy;fertility", "name": "Cloudnine Hospital", "operator:type": "private", "phone": "9972999729", "website": "https://www.cloudninecare.com"}}, {"type": "node", "id": 9934012104, "lat": 12.9429852, "lon": 77.5460604, "tags": {"amenity": "hospital", "healthcare": "hospital", "healthcare:speciality": "dentist", "name": "My Dentist", "operator": "Dr Katta R Venkatesh", "operator:type": "public"}}, {"type": "node", "id": 10245038162, "lat": 12.9093485, "lon": 77.5133836}, {"type": "node", "id": 10979388706, "lat": 12.926271, "lon": 77.5210091}, {"type": "node", "id": 10979388707, "lat": 12.9258632, "lon": 77.5221571}, {"type": "node", "id": 10979388708, "lat": 12.9266631, "lon": 77.5223475}, {"type": "node", "id": 10979388709, "lat": 12.9269742, "lon": 77.5211835}, {"type": "node", "id": 11299121541, "lat": 12.8784742, "lon": 77.5450234, "tags": {"amenity": "hospital", "healthcare": "hospital", "name": "Zymus Hospitals"}}, {"type": "node", "id": 11757261198, "lat": 12.9411586, "lon": 77.5230597}, {"type": "node", "id": 11757261199, "lat": 12.9418461, "lon": 77.522475}, {"type": "node", "id": 11801601935, "lat": 12.9030689, "lon": 77.5607177}, {"type": "node", "id": 11801601936, "lat": 12.902942, "lon": 77.5606585}, {"type": "node", "id": 11801601937, "lat": 12.9031277, "lon": 77.5598988}, {"type": "node", "id": 11801601938, "lat": 12.9033643, "lon": 77.5599393}, {"type": "node", "id": 11869384815, "lat": 12.8835095, "lon": 77.550214, "tags": {"addr:street": "Kanakapura Road", "amenity": "hospital", "description": "Multi speciality hospital", "name": "Dhee Hospital", "website": "https://dheehospitals.com/"}}, {"type": "node", "id": 12155267775, "lat": 12.924584, "lon": 77.500545}, {"type": "node", "id": 13257391201, "lat": 12.9070989, "lon": 77.5460762, "tags": {"addr:postcode": "560061", "addr:street": "Dr. Vishnuvardhan Road", "amenity": "hospital", "name": "Nano Hospitals"}}, {"type": "way", "id": 132913842, "nodes": [1462175438, 1462175439, 1462175435, 1462175436, 1462175448, 1462175447, 1835530203, 1462175441, 10245038162, 1462175438], "tags": {"alt_name": "Jayadev Memorial Rashtrotthana Hospital and Research Centre", "amenity": "hospital", "healthcare": "hospital", "name": "Manipal Speciality Hospital", "website": "https://www.rashtrotthanahospital.com/"}}, {"type": "way", "id": 133379520, "nodes": [1468296644, 1468296642, 1468296636, 1468296641, 1468296645, 1468296638, 1468296644], "tags": {"addr:city": "bangalore", "addr:district": "Bengaluru Urban", "addr:full": "3/4, Sunrise Tower, J.P. Road, Girinagar", "addr:housenumber": "3-4", "addr:postcode": "560085", "addr:state": "Karnataka", "addr:street": "Sunrise Towers, 30th crs JP Rd. Girinagar.,opp Canara Bank", "amenity": "hospital", "emergency": "yes", "name": "Radhakrishna Multispeciality Hospital", "name:kn": "\u0cb0\u0cbe\u0ca7\u0cbe\u0c95\u0cc3\u0cb7\u0ccd\u0ca3 \u0c86\u0cb8\u0ccd\u0caa\u0ca4\u0ccd\u0cb0\u0cc6", "phone": "080 2642 2977", "source": "OpenGovernmentData"}}, {"type": "way", "id": 141791769, "nodes": [1551996916, 1551996934, 1551996910, 1551996911, 1551996916], "tags": {"addr:district": "Bengaluru Urban", "addr:full": "#1,2nd Cross, 2nd Main,7Th Block, Banashankari 3Road Stage, Hosakerehalli", "addr:postcode": "560085", "addr:state": "Karnataka", "amenity": "hospital", "emergency": "yes", "name": "Vittala International Institute Of Ophthalmology, Hosakerehalli", "source": "OpenGovernmentData"}}, {"type": "way", "id": 306826547, "nodes": [3118322042, 3118322043, 3118322044, 3118322045, 3118322042], "tags": {"addr:district": "Bengaluru Urban", "addr:full": "Banashankari, Bengaluru", "addr:postcode": "560070", "addr:state": "Karnataka", "amenity": "hospital", "building": "hospital", "name": "Pro MED Hospital", "name:kn": "\u0caa\u0ccd\u0cb0\u0ccb\u0cae\u0cc6\u0ca1\u0ccd\u200c \u0c86\u0cb8\u0ccd\u0caa\u0ca4\u0ccd\u0cb0\u0cc6", "source": "Local Knowledge"}}, {"type": "way", "id": 348287598, "nodes": [3544299986, 3544300106, 3544300124, 3544300103, 3544299986], "tags": {"addr:district": "Bengaluru Urban", "addr:full": "SBM Colony, Banashankari, Bengaluru", "addr:state": "Karnataka", "amenity": "hospital", "building": "yes", "name": "Prashanth Hospitals", "name:kn": "\u0caa\u0cbf\u0c87\u0c8e\u0cb8\u0ccd \u0cb5\u0cbf\u0cb6\u0ccd\u0cb5\u0cb5\u0cbf\u0ca6\u0ccd\u0caf\u0cbe\u0cb2\u0caf \u0c95\u0ccd\u0cb0\u0cbf\u0c95\u0cc6\u0c9f\u0ccd \u0cae\u0cc8\u0ca6\u0cbe\u0ca8", "source": "Local Knowledge"}}, {"type": "way", "id": 442048031, "nodes": [4397421813, 4397421803, 4397421798, 4397421791, 4397421788, 4397421787, 4397421789, 4397421799, 4397421804, 4397421812, 4397421814, 4397421815, 4397421813], "tags": {"amenity": "hospital", "building": "hospital", "name": "Sagar Hospital", "name:kn": "\u0cb8\u0cbe\u0c97\u0cb0 \u0c86\u0cb8\u0ccd\u0caa\u0ca4\u0ccd\u0cb0\u0cc6", "opening_hours": "Mo-Su 00:00-23:00"}}, {"type": "way", "id": 695545711, "nodes": [1464035837, 12155267775, 1464035839, 6531332486, 6531332485, 6531332484, 6531332483, 1464035837], "tags": {"amenity": "hospital", "healthcare": "hospital", "name": "Medical Centre"}}, {"type": "way", "id": 742634558, "nodes": [6952164953, 11757261198, 6952164952, 458105013, 3388805879, 11757261199, 6952164960, 6952164953], "tags": {"amenity": "hospital", "name": "Puneeth Rajkumar Multispeciality Hospital", "name:etymology:wikidata": "Q3351697", "operator": "BBMP"}}, {"type": "way", "id": 774947265, "nodes": [7229958805, 7229958804, 7229958803, 7229958802, 7229958805], "tags": {"amenity": "hospital", "name": "Natus Woman and Children Hospital"}}, {"type": "way", "id": 1182315656, "nodes": [10979388709, 10979388708, 10979388707, 10979388706, 10979388709], "tags": {"amenity": "hospital", "name": "SS Sparsh Hospital"}}, {"type": "way", "id": 1270817507, "nodes": [11801601938, 11801601937, 11801601936, 11801601935, 11801601938], "tags": {"amenity": "hospital", "healthcare": "hospital", "name": "Vasavi Hospital", "name:kn": "\u0cb5\u0cbe\u0cb8\u0cb5\u0cbf \u0c86\u0cb8\u0ccd\u0caa\u0ca4\u0ccd\u0cb0\u0cc6"}}]}