{"version": 0.6, "generator": "Overpass API 0.7.62.8 e802775f", "osm3s": {"timestamp_osm_base": "2026-01-12T13:45:30Z", "copyright": "The data included in this document is from www.openstreetmap.org. The data is made available under ODbL."}, "elements": [{"type": "node", "id": 308072402, "lat": 13.02371, "lon": 77.5216866, "tags": {"bus": "yes", "highway": "bus_stop", "loc_name": "PEENYA 2ND STAGE, 3RD PHASE", "name": "Rajagopalanagara Police Station", "name:kn": "\u0cb0\u0cbe\u0c9c\u0c97\u0ccb\u0caa\u0cbe\u0cb2\u0ca8\u0c97\u0cb0 \u0c86\u0cb0\u0c95\u0ccd\u0cb7\u0c95", "public_transport": "platform"}}, {"type": "node", "id": 308073342, "lat": 13.0646541, "lon": 77.5232221}, {"type": "node", "id": 308073343, "lat": 13.0663198, "lon": 77.5189461}, {"type": "node", "id": 308073344, "lat": 13.0675862, "lon": 77.5156742}, {"type": "node", "id": 308073345, "lat": 13.0682534, "lon": 77.5139326}, {"type": "node", "id": 308073346, "lat": 13.0688643, "lon": 77.5124096}, {"type": "node", "id": 308073347, "lat": 13.0693351, "lon": 77.5115111}, {"type": "node", "id": 308073348, "lat": 13.0699459, "lon": 77.5106447}, {"type": "node", "id": 308073349, "lat": 13.0707834, "lon": 77.509723}, {"type": "node", "id": 308073350, "lat": 13.0718747, "lon": 77.5087004}, {"type": "node", "id": 308073351, "lat": 13.0746787, "lon": 77.5056373, "tags": {"internet_access": "no", "name": "Chikka Banavara", "name:kn": "\u0c9a\u0cbf\u0c95\u0ccd\u0c95 \u0cac\u0cbe\u0ca3\u0cb5\u0cbe\u0cb0", "network": "IR", "operator": "SWR", "public_transport": "station", "railway": "station", "ref": "BAW", "wikidata": "Q63355771"}}, {"type": "node", "id": 308073360, "lat": 13.0847368, "lon": 77.4965246}, {"type": "node", "id": 308073362, "lat": 13.0858507, "lon": 77.4954618}, {"type": "node", "id": 308073363, "lat": 13.0881452, "lon": 77.4932751}, {"type": "node", "id": 308073364, "lat": 13.0905043, "lon": 77.4910194}, {"type": "node", "id": 308073365, "lat": 13.092824, "lon": 77.4888099}, {"type": "node", "id": 308073366, "lat": 13.0940921, "lon": 77.4875788}, {"type": "node", "id": 308073368, "lat": 13.0955875, "lon": 77.4860264}, {"type": "node", "id": 308073369, "lat": 13.0972762, "lon": 77.4841617}, {"type": "node", "id": 308073370, "lat": 13.099055, "lon": 77.4821982}, {"type": "node", "id": 308074054, "lat": 13.0401291, "lon": 77.542309}, {"type": "node", "id": 308074058, "lat": 13.0479234, "lon": 77.5371525}, {"type": "node", "id": 308074059, "lat": 13.0499436, "lon": 77.5358205}, {"type": "node", "id": 308074060, "lat": 13.0527199, "lon": 77.5340148}, {"type": "node", "id": 308074061, "lat": 13.0538913, "lon": 77.5333289}, {"type": "node", "id": 308074062, "lat": 13.0544735, "lon": 77.5330851}, {"type": "node", "id": 308074063, "lat": 13.0560409, "lon": 77.5326043}, {"type": "node", "id": 308074064, "lat": 13.0571945, "lon": 77.5323048}, {"type": "node", "id": 308074066, "lat": 13.0583917, "lon": 77.531934}, {"type": "node", "id": 308074067, "lat": 13.0595358, "lon": 77.5313669}, {"type": "node", "id": 308074068, "lat": 13.0603749, "lon": 77.5308067}, {"type": "node", "id": 308074069, "lat": 13.0612299, "lon": 77.5300658}, {"type": "node", "id": 308074070, "lat": 13.0618215, "lon": 77.5294064}, {"type": "node", "id": 308074071, "lat": 13.0624905, "lon": 77.5284404}, {"type": "node", "id": 308074072, "lat": 13.0630044, "lon": 77.5274038}, {"type": "node", "id": 308074074, "lat": 13.0638849, "lon": 77.5251877}, {"type": "node", "id": 308298721, "lat": 13.006545, "lon": 77.4530554, "tags": {"highway": "bus_stop", "name": "Machohalli", "name:kn": "\u0cae\u0cbe\u0c9a\u0ccb\u0cb9\u0cb3\u0ccd\u0cb3\u0cbf"}}, {"type": "node", "id": 433826899, "lat": 13.0498855, "lon": 77.5164759, "tags": {"bus": "yes", "highway": "bus_stop", "name": "Ravindra Nagara", "name:kn": "\u0cb0\u0cb5\u0cc0\u0c82\u0ca6\u0ccd\u0cb0 \u0ca8\u0c97\u0cb0", "public_transport": "platform"}}, {"type": "node", "id": 433843828, "lat": 13.0762424, "lon": 77.5050696, "tags": {"highway": "bus_stop", "loc_name": "CHIKKA BANAVARA", "name": "Medarahalli Railway Gate"}}, {"type": "node", "id": 443722548, "lat": 13.0397202, "lon": 77.5426132}, {"type": "node", "id": 446791106, "lat": 13.0189809, "lon": 77.5226018, "tags": {"highway": "bus_stop", "name": "Lakshmidevi Nagar Cross"}}, {"type": "node", "id": 446796182, "lat": 13.0217404, "lon": 77.5258111, "tags": {"highway": "bus_stop", "name": "Sonal Garments"}}, {"type": "node", "id": 503002483, "lat": 13.0686238, "lon": 77.4765245, "tags": {"bus": "yes", "highway": "bus_stop", "loc_name": "Madhanayakanahalli KUDREGERE", "name": "Kudhurgere colony", "public_transport": "platform"}}, {"type": "node", "id": 503002519, "lat": 13.0571489, "lon": 77.4603031, "tags": {"bus": "yes", "highway": "bus_stop", "loc_name": "SIDDANNAHOSAHALLI", "name": "Siddana Hosahalli", "name:en": "Siddana Hosahalli", "name:kn": "\u0cb8\u0cbf\u0ca6\u0ccd\u0ca6\u0ca3\u0ccd\u0ca3 \u0cb9\u0cca\u0cb8\u0cb9\u0cb3\u0ccd\u0cb3\u0cbf", "network": "BMTC", "operator": "BMTC", "public_transport": "platform"}}, {"type": "node", "id": 503002526, "lat": 13.0494582, "lon": 77.459986, "tags": {"bus": "yes", "highway": "bus_stop", "loc_name": "DOMBARAHALLI", "name": "Dombarahalli", "name:en": "Dombarahalli", "network": "BMTC", "operator": "BMTC", "public_transport": "platform"}}, {"type": "node", "id": 571439222, "lat": 13.0737412, "lon": 77.4521283, "tags": {"bus": "yes", "highway": "bus_stop", "loc_name": "MAKALI", "name": "Nisarga Layout", "public_transport": "platform"}}, {"type": "node", "id": 571439228, "lat": 13.0812447, "lon": 77.4504331, "tags": {"bus": "yes", "highway": "bus_stop", "loc_name": "MAKALI", "name": "Biscuit Factory", "public_transport": "platform"}}, {"type": "node", "id": 571439231, "lat": 13.0847038, "lon": 77.4476436, "tags": {"bus": "yes", "highway": "bus_stop", "loc_name": "NAGARARU", "name": "Manthri Layout", "public_transport": "platform"}}, {"type": "node", "id": 574398494, "lat": 13.0787974, "lon": 77.5164773, "tags": {"highway": "bus_stop", "loc_name": "KEREGUDDADAHALLI", "name": "Kere Guddadahalli", "name:kn": "\u0c95\u0cc6\u0cb0\u0cc6\u0c97\u0cc1\u0ca1\u0ccd\u0ca1\u0ca6\u0cb9\u0cb3\u0ccd\u0cb3\u0cbf"}}, {"type": "node", "id": 574500358, "lat": 13.0999575, "lon": 77.4806396}, {"type": "node", "id": 574500373, "lat": 13.1005009, "lon": 77.4793309}, {"type": "node", "id": 574520928, "lat": 13.0096301, "lon": 77.4828987, "tags": {"bus": "yes", "name": "Andrahalli Government School", "name:en": "Andrahalli Government School", "network": "BMTC", "operator": "BMTC", "public_transport": "stop_position"}}, {"type": "node", "id": 574522047, "lat": 12.9978617, "lon": 77.4894408, "tags": {"highway": "bus_stop", "loc_name": "Andrahalli", "name": "Syndicate Bank Colony", "name:en": "Syndicate Bank Colony", "network": "BMTC", "operator": "BMTC", "public_transport": "platform"}}, {"type": "node", "id": 574529330, "lat": 13.0139019, "lon": 77.4966426, "tags": {"highway": "bus_stop", "name": "Balaji Nagar", "name:kn": "\u0cac\u0cbe\u0cb2\u0cbe\u0c9c\u0cbf \u0ca8\u0c97\u0cb0"}}, {"type": "node", "id": 599212207, "lat": 13.0100902, "lon": 77.4967077, "tags": {"highway": "bus_stop", "name": "Balaji Nagara", "name:kn": "\u0cac\u0cbe\u0cb2\u0cbe\u0c9c\u0cbf \u0ca8\u0c97\u0cb0"}}, {"type": "node", "id": 599212408, "lat": 13.0372658, "lon": 77.4911456, "tags": {"highway": "bus_stop", "name": "Byraveshwara Nagara", "name:kn": "\u0cac\u0cc8\u0cb0\u0cc7\u0cb6\u0ccd\u0cb5\u0cb0 \u0ca8\u0c97\u0cb0"}}, {"type": "node", "id": 668972592, "lat": 13.034347, "lon": 77.5310025}, {"type": "node", "id": 774662335, "lat": 13.0399581, "lon": 77.5187543, "tags": {"bus": "yes", "highway": "bus_stop", "loc_name": "PEENYA INDUSTRIAL AREA", "name": "Jalahalli Cross", "name:kn": "\u0c9c\u0cbe\u0cb2\u0cb9\u0cb3\u0ccd\u0cb3\u0cbf \u0c95\u0ccd\u0cb0\u0cbe\u0cb8\u0ccd", "public_transport": "platform"}}, {"type": "node", "id": 863291814, "lat": 13.0554769, "lon": 77.4791781, "tags": {"highway": "bus_stop", "loc_name": "Tumkur Road", "name": "Anchepalya", "name:kn": "\u0c85\u0c82\u0c9a\u0cc7\u0caa\u0cbe\u0cb3\u0ccd\u0caf"}}, {"type": "node", "id": 1054665084, "lat": 13.0489301, "lon": 77.4973612, "tags": {"highway": "bus_stop", "loc_name": "Tumkur Road", "name": "Widia School"}}, {"type": "node", "id": 1147826271, "lat": 13.0437123, "lon": 77.5399741, "tags": {"railway": "switch"}}, {"type": "node", "id": 1318807705, "lat": 13.0763334, "lon": 77.4883159, "tags": {"highway": "bus_stop", "loc_name": "THAMENAHALLLI", "name": "Thammenahalli Palya", "name:kn": "\u0ca4\u0cae\u0ccd\u0cae\u0cc7\u0ca8\u0cb9\u0cb3\u0ccd\u0cb3\u0cbf \u0caa\u0cbe\u0cb3\u0ccd\u0caf"}}, {"type": "node", "id": 1318807736, "lat": 13.0835119, "lon": 77.4841613, "tags": {"alt_name": "Acharya Institute of Technology Chikkabanavara", "highway": "bus_stop", "name": "Acharya Institute of Technology", "name:en": "Acharya Institute of Technology", "network": "BMTC", "operator": "BMTC", "public_transport": "platform"}}, {"type": "node", "id": 1318807746, "lat": 13.0841656, "lon": 77.4865932, "tags": {"alt_name": "Achyutha Nagara Gate Chikkabanavara", "highway": "bus_stop", "loc_name": "Soladevanahalli", "name": "Achyuthanagara Gate", "name:en": "Achyuthanagara Gate", "name:kn": "\u0c85\u0c9a\u0ccd\u0caf\u0cc1\u0ca4\u0ca8\u0c97\u0cb0", "network": "BMTC", "operator": "BMTC", "public_transport": "platform"}}, {"type": "node", "id": 1485686845, "lat": 13.0479782, "lon": 77.5001473, "tags": {"code": "NGSA", "name": "Nagasandra", "name:kn": "\u0ca8\u0cbe\u0c97\u0cb8\u0c82\u0ca6\u0ccd\u0cb0", "network": "Namma Metro", "note": "Contributors are requested to not edit the \"network\" and the \"operator\" tags. (2023/11/08)", "operator": "Bangalore Metro Rail Corporation Limited", "public_transport": "stop_position", "public_transport:version": "2", "railway": "stop", "source": "http://www.bmrc.co.in/English/Network.htm", "subway": "yes", "wheelchair": "yes"}}, {"type": "node", "id": 1485686846, "lat": 13.0363428, "lon": 77.525528, "tags": {"code": "PYID", "internet_access:fee": "no", "name": "Peenya Industry", "name:kn": "\u0caa\u0cc0\u0ca3\u0ccd\u0caf \u0c95\u0cc8\u0c97\u0cbe\u0cb0\u0cbf\u0c95", "network": "Namma Metro", "note": "Contributors are requested to not edit the \"network\" and the \"operator\" tags. (2023/11/08)", "operator": "Bangalore Metro Rail Corporation Limited", "public_transport": "stop_position", "public_transport:version": "2", "railway": "stop", "source": "http://www.bmrc.co.in/English/Network.htm", "subway": "yes", "wheelchair": "yes", "wikidata": "Q17082550", "wikipedia": "en:Peenya Industry"}}, {"type": "node", "id": 1485686877, "lat": 13.0345266, "lon": 77.5306268}, {"type": "node", "id": 1485686878, "lat": 13.0347621, "lon": 77.5300958}, {"type": "node", "id": 1485686879, "lat": 13.0348609, "lon": 77.5298137}, {"type": "node", "id": 1485686880, "lat": 13.0352445, "lon": 77.5283755}, {"type": "node", "id": 1485686881, "lat": 13.0355359, "lon": 77.5272521}, {"type": "node", "id": 1485686882, "lat": 13.03562, "lon": 77.5269858}, {"type": "node", "id": 1485686883, "lat": 13.0357645, "lon": 77.5266159}, {"type": "node", "id": 1485686884, "lat": 13.0359417, "lon": 77.5262662}, {"type": "node", "id": 1485686885, "lat": 13.0371976, "lon": 77.5239477}, {"type": "node", "id": 1485686886, "lat": 13.0379594, "lon": 77.5229219}, {"type": "node", "id": 1485686887, "lat": 13.0380416, "lon": 77.5228769}, {"type": "node", "id": 1485686888, "lat": 13.0382314, "lon": 77.5228007}, {"type": "node", "id": 1485686889, "lat": 13.038452, "lon": 77.5227628}, {"type": "node", "id": 1485686890, "lat": 13.0401039, "lon": 77.5185366}, {"type": "node", "id": 1485686891, "lat": 13.0401896, "lon": 77.5184203}, {"type": "node", "id": 1485686892, "lat": 13.0419072, "lon": 77.5165298}, {"type": "node", "id": 1485686893, "lat": 13.042052, "lon": 77.5162253}, {"type": "node", "id": 1485686896, "lat": 13.0432956, "lon": 77.5125628, "tags": {"code": "DSH", "name": "Dasarahalli", "name:kn": "\u0ca6\u0cbe\u0cb8\u0cb0\u0cb9\u0cb3\u0ccd\u0cb3\u0cbf", "network": "Namma Metro", "note": "Contributors are requested to not edit the \"network\" and the \"operator\" tags. (2023/11/08)", "operator": "Bangalore Metro Rail Corporation Limited", "public_transport": "stop_position", "public_transport:version": "2", "railway": "stop", "source": "http://www.bmrc.co.in/English/Network.htm", "subway": "yes", "wheelchair": "yes"}}, {"type": "node", "id": 1485686897, "lat": 13.043908, "lon": 77.5109475}, {"type": "node", "id": 1485686898, "lat": 13.0438677, "lon": 77.5256195}, {"type": "node", "id": 1485686900, "lat": 13.0441767, "lon": 77.5262151, "tags": {"railway": "switch"}}, {"type": "node", "id": 1485686901, "lat": 13.0442432, "lon": 77.5289066, "tags": {"railway": "switch"}}, {"type": "node", "id": 1485686905, "lat": 13.0442796, "lon": 77.5264144, "tags": {"railway": "switch"}}, {"type": "node", "id": 1485686906, "lat": 13.0449868, "lon": 77.5088582}, {"type": "node", "id": 1485686907, "lat": 13.0452648, "lon": 77.5082271}, {"type": "node", "id": 1485692812, "lat": 13.0440634, "lon": 77.5179214, "tags": {"highway": "bus_stop", "name": "Munikondappa Badavane", "name:kn": "\u0cae\u0cc1\u0ca8\u0cbf\u0c95\u0cca\u0c82\u0ca1\u0caa\u0ccd\u0caa \u0cac\u0ca1\u0cbe\u0cb5\u0ca3\u0cc6"}}, {"type": "node", "id": 1485692894, "lat": 13.0647697, "lon": 77.5173296, "tags": {"bus": "yes", "highway": "bus_stop", "loc_name": "SHETTIHALLI", "name": "Shettty Halli", "name:kn": "\u0cb6\u0cc6\u0c9f\u0ccd\u0c9f\u0cbf\u0cb9\u0cb3\u0ccd\u0cb3\u0cbf", "public_transport": "platform"}}, {"type": "node", "id": 1485692927, "lat": 13.0672443, "lon": 77.5159428, "tags": {"bus": "yes", "highway": "bus_stop", "loc_name": "SHETTIHALLI", "name": "Medarahalli Railway Cross", "public_transport": "platform"}}, {"type": "node", "id": 1485692933, "lat": 13.0675008, "lon": 77.5158994, "tags": {"railway": "level_crossing"}}, {"type": "node", "id": 1485693042, "lat": 13.0753344, "lon": 77.5045233, "tags": {"highway": "bus_stop", "loc_name": "CHIKKA BANAVARA", "name": "Chikka Banawara Railway Gate", "name:en": "Chikka Banawara Railway Gate", "network": "BMTC", "operator": "BMTC", "public_transport": "platform"}}, {"type": "node", "id": 1557141963, "lat": 12.9997138, "lon": 77.5041185, "tags": {"highway": "bus_stop", "loc_name": "HEGGANA HALLI", "name": "Hegganahalli Cross", "name:en": "Hegganahalli Cross", "name:kn": "\u0cb9\u0cc6\u0c97\u0ccd\u0c97\u0ca8\u0cb9\u0cb3\u0ccd\u0cb3\u0cbf \u0c95\u0ccd\u0cb0\u0cbe\u0cb8\u0ccd", "network": "BMTC", "operator": "BMTC", "public_transport": "platform"}}, {"type": "node", "id": 1557169959, "lat": 12.9958612, "lon": 77.5025557, "tags": {"highway": "bus_stop", "loc_name": "SUNKADA KATTE", "name": "Neelagiri Thopu", "name:en": "Neelagiri Thopu", "network": "BMTC", "operator": "BMTC", "public_transport": "platform"}}, {"type": "node", "id": 1557409984, "lat": 13.004064, "lon": 77.5097263, "tags": {"highway": "bus_stop", "loc_name": "SHRI GUNDANAGARA HEGGANAHALLI", "name": "Kareem Sab Layout"}}, {"type": "node", "id": 1557441501, "lat": 13.0200072, "lon": 77.5207089, "tags": {"highway": "bus_stop", "name": "MEI Colony", "name:kn": "\u0c8e\u0c82\u0c87\u0c90 \u0c95\u0cbe\u0cb2\u0ccb\u0ca8\u0cbf"}}, {"type": "node", "id": 1563789423, "lat": 13.0197535, "lon": 77.5190795, "tags": {"highway": "bus_stop", "name": "Rajani Farm"}}, {"type": "node", "id": 1564615106, "lat": 13.0140998, "lon": 77.5090774, "tags": {"bus": "yes", "highway": "bus_stop", "loc_name": "PEENYA INDUSTRIAL AREA 2ND STAGE", "name": "Rajagopalanagar Rajni Farms", "name:en": "Rajagopalanagar Rajni Farms", "network": "BMTC", "operator": "BMTC", "public_transport": "platform"}}, {"type": "node", "id": 1565099102, "lat": 13.0461609, "lon": 77.505146}, {"type": "node", "id": 1565099135, "lat": 13.0475734, "lon": 77.5012661}, {"type": "node", "id": 1565099148, "lat": 13.047375, "lon": 77.5017778}, {"type": "node", "id": 1565099155, "lat": 13.0394442, "lon": 77.5197626, "tags": {"code": "JLHL", "name": "Jalahalli", "name:kn": "\u0c9c\u0cbe\u0cb2\u0cb9\u0cb3\u0ccd\u0cb3\u0cbf", "network": "Namma Metro", "note": "Contributors are requested to not edit the \"network\" and the \"operator\" tags. (2023/11/08)", "operator": "Bangalore Metro Rail Corporation Limited", "public_transport": "stop_position", "public_transport:version": "2", "railway": "stop", "source": "http://www.bmrc.co.in/English/Network.htm", "subway": "yes", "wheelchair": "yes"}}, {"type": "node", "id": 1576973952, "lat": 13.0505308, "lon": 77.4932587}, {"type": "node", "id": 1576973953, "lat": 13.0574214, "lon": 77.4728055, "tags": {"alt_name": "BIEC", "code": "BIET", "name": "Madavara", "name:kn": "\u0cae\u0ca6\u0cb5\u0cb0", "network": "Namma Metro", "network:wikidata": "Q279343", "note": "Contributors are requested to not edit the \"network\" and the \"operator\" tags. (2023/11/08)", "operator": "Bangalore Metro Rail Corporation Limited", "public_transport": "station", "public_transport:version": "2", "railway": "station", "shelter": "yes", "start_date": "2024-11-07", "station": "subway", "subway": "yes", "website": "https://english.brmc.co.in", "wheelchair": "yes", "wikidata": "Q122143705", "wikipedia": "en:Madavara metro station"}}, {"type": "node", "id": 1576973954, "lat": 13.0523616, "lon": 77.4879154, "tags": {"code": "JIDL", "name": "Chikkabidarakallu", "name:kn": "\u0c9a\u0cbf\u0c95\u0ccd\u0c95\u0cac\u0cbf\u0ca6\u0cb0\u0c95\u0cb2\u0ccd\u0cb2\u0cc1", "network": "Namma Metro", "network:wikidata": "Q279343", "note": "Contributors are requested to not edit the \"network\" and the \"operator\" tags. (2023/11/08)", "operator": "Bangalore Metro Rail Corporation Limited", "public_transport": "station", "public_transport:version": "2", "railway": "station", "shelter": "yes", "start_date": "2024-11-07", "station": "subway", "subway": "yes", "website": "https://english.brmc.co.in", "wheelchair": "yes", "wikidata": "Q122143708", "wikipedia": "en:Chikkabidarakallu metro station"}}, {"type": "node", "id": 1576973965, "lat": 13.0488138, "lon": 77.497939}, {"type": "node", "id": 1576973969, "lat": 13.0482044, "lon": 77.4995608}, {"type": "node", "id": 1576973971, "lat": 13.0534566, "lon": 77.484948}, {"type": "node", "id": 1576973975, "lat": 13.0502271, "lon": 77.4941493}, {"type": "node", "id": 1576973977, "lat": 13.0517007, "lon": 77.489768}, {"type": "node", "id": 1576973978, "lat": 13.0555796, "lon": 77.47931}, {"type": "node", "id": 1576973979, "lat": 13.0582688, "lon": 77.4695696}, {"type": "node", "id": 1576973980, "lat": 13.0500898, "lon": 77.4944461, "tags": {"code": "MNJN", "name": "Manjunathanagara", "name:kn": "\u0cae\u0c82\u0c9c\u0cc1\u0ca8\u0cbe\u0ca5\u0ca8\u0c97\u0cb0", "network": "Namma Metro", "network:wikidata": "Q279343", "note": "Contributors are requested to not edit the \"network\" and the \"operator\" tags. (2023/11/08)", "old_name": "Jindal", "operator": "Bangalore Metro Rail Corporation Limited", "public_transport": "station", "public_transport:version": "2", "railway": "station", "shelter": "yes", "start_date": "2024-11-07", "station": "subway", "subway": "yes", "website": "https://english.brmc.co.in", "wheelchair": "yes", "wikidata": "Q122143726", "wikipedia": "en:Manjunathanagara metro station"}}, {"type": "node", "id": 1589314307, "lat": 13.0293215, "lon": 77.4645807, "tags": {"bus": "yes", "highway": "bus_stop", "loc_name": "LAKSHMIPURA CROSS", "name": "Gangondanahalli Cross", "name:en": "Gangondanahalli Cross", "name:kn": "\u0c97\u0c82\u0c97\u0cca\u0c82\u0ca1\u0ca8\u0cb9\u0cb3\u0ccd\u0cb3\u0cbf \u0c95\u0ccd\u0cb0\u0cbe\u0cb8\u0ccd", "network": "BMTC", "operator": "BMTC", "public_transport": "platform"}}, {"type": "node", "id": 1589314465, "lat": 13.0217203, "lon": 77.4677183, "tags": {"bus": "yes", "highway": "bus_stop", "name": "Gangondanahalli", "name:kn": "\u0c97\u0c82\u0c97\u0cca\u0c82\u0ca1\u0ca8\u0cb9\u0cb3\u0ccd\u0cb3\u0cbf", "public_transport": "platform"}}, {"type": "node", "id": 1589314684, "lat": 13.0003721, "lon": 77.4705492, "tags": {"bus": "yes", "highway": "bus_stop", "name": "Kachohalli", "name:kn": "\u0c95\u0cbe\u0c9a\u0ccb\u0cb9\u0cb3\u0ccd\u0cb3\u0cbf", "public_transport": "platform"}}, {"type": "node", "id": 1589314795, "lat": 13.0371439, "lon": 77.4612522, "tags": {"highway": "bus_stop", "loc_name": "LAKSHMIPURA", "name": "Lakshmipura", "name:en": "Lakshmipura", "name:kn": "\u0cb2\u0c95\u0ccd\u0cb7\u0ccd\u0cae\u0cc0\u0caa\u0cc1\u0cb0", "network": "BMTC", "operator": "BMTC", "public_transport": "platform"}}, {"type": "node", "id": 1589314826, "lat": 13.0493188, "lon": 77.4598457, "tags": {"bus": "yes", "name": "Dombarahalli", "name:en": "Dombarahalli", "network": "BMTC", "operator": "BMTC", "public_transport": "stop_position"}}, {"type": "node", "id": 1589314866, "lat": 13.0455346, "lon": 77.4612535, "tags": {"bus": "yes", "highway": "bus_stop", "name": "Rajeshwarinagara", "name:en": "Rajeshwarinagara", "name:kn": "\u0cb0\u0cbe\u0c9c\u0cc7\u0cb6\u0ccd\u0cb5\u0cb0\u0cbf \u0ca8\u0c97\u0cb0", "network": "BMTC", "operator": "BMTC", "public_transport": "platform"}}, {"type": "node", "id": 1589314867, "lat": 13.0293165, "lon": 77.4645099, "tags": {"bus": "yes", "name": "Gangondanahalli Cross", "name:en": "Gangondanahalli Cross", "network": "BMTC", "operator": "BMTC", "public_transport": "stop_position"}}, {"type": "node", "id": 1593070943, "lat": 13.0170955, "lon": 77.4829741, "tags": {"bus": "yes", "highway": "bus_stop", "loc_name": "THIGALARAPALYA", "name": "Thigalara Palya", "name:en": "Thigalara Palya", "name:kn": "\u0ca4\u0cbf\u0c97\u0cb2\u0cbe\u0cb0 \u0caa\u0cbe\u0cb3\u0ccd\u0caf", "network": "BMTC", "operator": "BMTC", "public_transport": "platform"}}, {"type": "node", "id": 1593070948, "lat": 13.0137955, "lon": 77.4834818, "tags": {"bus": "yes", "name": "Anjaneya Temple Thigalarapalya", "name:en": "Anjaneya Temple Thigalarapalya", "network": "BMTC", "operator": "BMTC", "public_transport": "stop_position"}}, {"type": "node", "id": 1594859769, "lat": 12.995243, "lon": 77.478282, "tags": {"highway": "bus_stop", "name": "G Hosahalli"}}, {"type": "node", "id": 1681763287, "lat": 13.0731839, "lon": 77.5072051, "tags": {"railway": "buffer_stop"}}, {"type": "node", "id": 1681763312, "lat": 13.0775184, "lon": 77.503171}, {"type": "node", "id": 1681763324, "lat": 13.0770024, "lon": 77.5035734}, {"type": "node", "id": 1681763325, "lat": 13.0571339, "lon": 77.501909, "tags": {"highway": "bus_stop", "name": "Bagalagunte Village", "name:kn": "\u0cac\u0cbe\u0c97\u0cb2\u0c97\u0cc1\u0c82\u0c9f\u0cc6"}}, {"type": "node", "id": 1681763352, "lat": 13.0762838, "lon": 77.5042573}, {"type": "node", "id": 1681763420, "lat": 13.0683203, "lon": 77.4893818, "tags": {"bus": "yes", "highway": "bus_stop", "loc_name": "THOTADAGURADAHALLI", "name": "Thotada Guddadahalli", "name:kn": "\u0ca4\u0ccb\u0c9f\u0ca6 \u0c97\u0cc1\u0ca1\u0ccd\u0ca1\u0ca6\u0cb9\u0cb3\u0ccd\u0cb3\u0cbf", "public_transport": "platform"}}, {"type": "node", "id": 1681763441, "lat": 13.0804996, "lon": 77.5022973, "tags": {"alt_name": "Sante Beedi", "highway": "bus_stop", "loc_name": "Chikka Banawara", "name": "Chikka Banavara", "name:en": "Chikka Banavara", "name:kn": "\u0c9a\u0cbf\u0c95\u0ccd\u0c95 \u0cac\u0cbe\u0ca3\u0cb5\u0cbe\u0cb0", "network": "BMTC", "operator": "BMTC", "public_transport": "platform"}}, {"type": "node", "id": 1681763451, "lat": 13.0743961, "lon": 77.5060624}, {"type": "node", "id": 1681763509, "lat": 13.0607746, "lon": 77.5009314, "tags": {"highway": "bus_stop", "loc_name": "Bagalagunte", "name": "MEI Layout"}}, {"type": "node", "id": 1681763531, "lat": 13.0625424, "lon": 77.4953754, "tags": {"bus": "yes", "highway": "bus_stop", "loc_name": "SIDEDAHALLI", "name": "Sidedahalli", "name:kn": "\u0cb8\u0cbf\u0ca1\u0cc7\u0ca6\u0cb9\u0cb3\u0ccd\u0cb3\u0cbf", "public_transport": "platform", "wheelchair": "limited"}}, {"type": "node", "id": 1681763533, "lat": 13.0757835, "lon": 77.5047361}, {"type": "node", "id": 1681763604, "lat": 13.065434, "lon": 77.4927168, "tags": {"bus": "yes", "highway": "bus_stop", "loc_name": "MEENAKSHI LAYOUT", "name": "Meenakshi Layout", "name:kn": "\u0cae\u0cc0\u0ca8\u0cbe\u0c95\u0ccd\u0cb7\u0cbf \u0cac\u0ca1\u0cbe\u0cb5\u0ca3\u0cc6", "public_transport": "platform"}}, {"type": "node", "id": 1681763647, "lat": 13.077797, "lon": 77.5029265}, {"type": "node", "id": 1719258884, "lat": 13.0033032, "lon": 77.442387, "tags": {"bus": "yes", "highway": "bus_stop", "loc_name": "BYANDHALLI COLONY", "name": "Bayyandahalli Colony", "name:en": "Bayyandahalli Colony", "network": "BMTC", "operator": "BMTC", "public_transport": "platform"}}, {"type": "node", "id": 1719258903, "lat": 12.9992158, "lon": 77.4427719, "tags": {"highway": "bus_stop", "name": "Janapriya Township", "name:en": "Janapriya Township", "network": "BMTC", "operator": "BMTC", "public_transport": "platform"}}, {"type": "node", "id": 1794170293, "lat": 13.0081727, "lon": 77.5056024, "tags": {"designation": "Dairy Bus Stop", "highway": "bus_stop", "loc_name": "Dairy Bus Stop"}}, {"type": "node", "id": 1794666952, "lat": 13.0237865, "lon": 77.5217729, "tags": {"bus": "yes", "highway": "bus_stop", "loc_name": "PEENYA 2ND STAGE, 3RD PHASE", "name": "Rajagopalanagara Police Station", "name:kn": "\u0cb0\u0cbe\u0c9c\u0c97\u0ccb\u0caa\u0cbe\u0cb2\u0ca8\u0c97\u0cb0 \u0c86\u0cb0\u0c95\u0ccd\u0cb7\u0c95 \u0ca0\u0cbe\u0ca3\u0cc6", "public_transport": "platform"}}, {"type": "node", "id": 2110697934, "lat": 13.0751191, "lon": 77.4359092, "tags": {"highway": "bus_stop", "name": "Dasanapura", "name:en": "Dasanapura", "name:kn": "\u0ca6\u0cbe\u0cb8\u0ca8\u0caa\u0cc1\u0cb0", "network": "BMTC", "operator": "BMTC", "public_transport": "platform"}}, {"type": "node", "id": 2110697937, "lat": 13.0755778, "lon": 77.4360035, "tags": {"bus": "yes", "highway": "bus_stop", "name": "Dasanapura", "name:kn": "\u0ca6\u0cbe\u0cb8\u0ca8\u0caa\u0cc1\u0cb0", "public_transport": "platform"}}, {"type": "node", "id": 2126266201, "lat": 13.0446213, "lon": 77.5275534}, {"type": "node", "id": 2126266210, "lat": 13.043597, "lon": 77.525247}, {"type": "node", "id": 2126266219, "lat": 13.0391525, "lon": 77.5229505}, {"type": "node", "id": 2126266243, "lat": 13.0446064, "lon": 77.5270841}, {"type": "node", "id": 2126266249, "lat": 13.0429913, "lon": 77.5248949}, {"type": "node", "id": 2126266253, "lat": 13.0445933, "lon": 77.5276625, "tags": {"railway": "switch"}}, {"type": "node", "id": 2126266257, "lat": 13.0446393, "lon": 77.5273698}, {"type": "node", "id": 2126266263, "lat": 13.0437222, "lon": 77.5253852}, {"type": "node", "id": 2128423492, "lat": 13.0388829, "lon": 77.5208388}, {"type": "node", "id": 2128423494, "lat": 13.0385816, "lon": 77.5222872}, {"type": "node", "id": 2128423496, "lat": 13.0386749, "lon": 77.5224763}, {"type": "node", "id": 2128423498, "lat": 13.038519, "lon": 77.5217968}, {"type": "node", "id": 2128423499, "lat": 13.0385244, "lon": 77.522056}, {"type": "node", "id": 2128423501, "lat": 13.0388766, "lon": 77.5227253}, {"type": "node", "id": 2130914570, "lat": 13.1013211, "lon": 77.4735245}, {"type": "node", "id": 2130914578, "lat": 13.1008421, "lon": 77.477567}, {"type": "node", "id": 2130914579, "lat": 13.1006711, "lon": 77.4786357}, {"type": "node", "id": 2140328315, "lat": 13.0024805, "lon": 77.5259388, "tags": {"alt_name": "Laggere Arch", "bench": "yes", "highway": "bus_stop", "loc_name": "Kempegowda Nagar", "name": "Kempegowda Arch", "name:en": "Kempegowda Arch", "name:kn": "\u0c95\u0cc6\u0c82\u0caa\u0cc7\u0c97\u0ccc\u0ca1 \u0ca8\u0c97\u0cb0", "network": "BMTC", "operator": "BMTC", "public_transport": "platform", "shelter": "yes"}}, {"type": "node", "id": 2140328453, "lat": 13.0025745, "lon": 77.5256814, "tags": {"alt_name": "Laggere Arch", "bench": "yes", "highway": "bus_stop", "loc_name": "Kempegowda Nagar", "name": "Kempegowda Arch", "name:en": "Kempegowda Arch", "name:kn": "\u0c95\u0cc6\u0c82\u0caa\u0cc7\u0c97\u0ccc\u0ca1 \u0ca8\u0c97\u0cb0", "network": "BMTC", "operator": "BMTC", "public_transport": "platform", "shelter": "yes"}}, {"type": "node", "id": 2142790819, "lat": 13.060893, "lon": 77.5003917, "tags": {"highway": "bus_stop", "name": "MEI layout", "wheelchair": "limited"}}, {"type": "node", "id": 2143660757, "lat": 13.0454221, "lon": 77.507706, "tags": {"bus": "yes", "highway": "bus_stop", "loc_name": "T Dasarahalli", "name": "8th Mile Dasarahalli", "public_transport": "platform"}}, {"type": "node", "id": 2244641393, "lat": 13.0712135, "lon": 77.5059782, "tags": {"highway": "bus_stop", "name": "Geleyara Balaga", "name:kn": "\u0c97\u0cc6\u0cb2\u0cc6\u0caf\u0cb0 \u0cac\u0cb3\u0c97"}}, {"type": "node", "id": 2244732074, "lat": 13.0734449, "lon": 77.503117, "tags": {"bus": "yes", "name": "Janapriya Apartments", "name:en": "Janapriya Apartments", "network": "BMTC", "operator": "BMTC", "public_transport": "stop_position"}}, {"type": "node", "id": 2244732235, "lat": 13.0769515, "lon": 77.5258623, "tags": {"highway": "bus_stop", "name": "Abbigere", "name:en": "Abbigere", "name:kn": "\u0c85\u0cac\u0ccd\u0cac\u0cbf\u0c97\u0cc6\u0cb0\u0cc6", "network": "BMTC", "operator": "BMTC", "public_transport": "platform"}}, {"type": "node", "id": 2248737969, "lat": 13.00708, "lon": 77.5173404, "tags": {"highway": "bus_stop", "name": "Indira Priyadarshini Nagara"}}, {"type": "node", "id": 2403424173, "lat": 13.015628, "lon": 77.5237044, "tags": {"bus": "yes", "highway": "bus_stop", "name": "Vidhanasoudha Layout", "name:kn": "\u0cb5\u0cbf\u0ca7\u0cbe\u0ca8\u0cb8\u0ccc\u0ca7 \u0cac\u0ca1\u0cbe\u0cb5\u0ca3\u0cc6", "public_transport": "stop_position"}}, {"type": "node", "id": 2425646890, "lat": 12.9973548, "lon": 77.451548, "tags": {"highway": "bus_stop", "name": "Machohalli Colony"}}, {"type": "node", "id": 2425664043, "lat": 13.0109535, "lon": 77.4598985, "tags": {"highway": "bus_stop", "loc_name": "BYLAKONDANAHALLI", "name": "Bylakonenahalli", "name:kn": "\u0cac\u0cc8\u0cb2\u0c95\u0ccb\u0ca8\u0cc7\u0ca8\u0cb9\u0cb3\u0ccd\u0cb3\u0cbf"}}, {"type": "node", "id": 2425683412, "lat": 13.0586246, "lon": 77.4661321, "tags": {"highway": "bus_stop", "loc_name": "Tumkur Road", "name": "TCI", "name:en": "TCI", "network": "BMTC", "operator": "BMTC", "public_transport": "platform"}}, {"type": "node", "id": 2425683415, "lat": 13.0608994, "lon": 77.4612263, "tags": {"bus": "yes", "name": "Madanayakanahalli", "name:en": "Madanayakanahalli", "name:kn": "\u0cae\u0cbe\u0ca6\u0ca8\u0cbe\u0caf\u0c95\u0ca8\u0cb9\u0cb3\u0ccd\u0cb3\u0cbf", "network": "BMTC", "operator": "BMTC", "public_transport": "stop_position"}}, {"type": "node", "id": 2425683438, "lat": 13.060974, "lon": 77.4609941, "tags": {"highway": "bus_stop", "name": "Madanayakanahalli", "name:en": "Madanayakanahalli", "name:kn": "\u0cae\u0cbe\u0ca6\u0ca8\u0cbe\u0caf\u0c95\u0ca8\u0cb9\u0cb3\u0ccd\u0cb3\u0cbf", "network": "BMTC", "operator": "BMTC", "public_transport": "platform"}}, {"type": "node", "id": 2425685002, "lat": 13.0655449, "lon": 77.4533438, "tags": {"highway": "bus_stop", "name": "Makali", "name:en": "Makali", "name:kn": "\u0cae\u0cbe\u0c95\u0cb3\u0cbf", "network": "BMTC", "operator": "BMTC", "public_transport": "platform"}}, {"type": "node", "id": 2425688683, "lat": 13.0703692, "lon": 77.4445812, "tags": {"highway": "bus_stop", "name": "Adakimaranahalli", "name:en": "Adakimaranahalli", "name:kn": "\u0c85\u0ca1\u0c95\u0cbf\u0cae\u0cbe\u0cb0\u0ca8\u0cb9\u0cb3\u0ccd\u0cb3\u0cbf", "network": "BMTC", "operator": "BMTC", "public_transport": "platform", "shelter": "yes"}}, {"type": "node", "id": 2425719964, "lat": 13.0590498, "lon": 77.4659882, "tags": {"highway": "bus_stop", "loc_name": "Tumkur Road", "name": "TCI"}}, {"type": "node", "id": 2425719971, "lat": 13.0708771, "lon": 77.444609, "tags": {"bus": "yes", "highway": "bus_stop", "name": "Adakimaranahalli", "name:en": "Adakimaranahalli", "name:kn": "\u0c85\u0ca1\u0c95\u0cbf\u0cae\u0cbe\u0cb0\u0ca8\u0cb9\u0cb3\u0ccd\u0cb3\u0cbf", "network": "BMTC", "operator": "BMTC", "public_transport": "platform", "shelter": "yes"}}, {"type": "node", "id": 2425720000, "lat": 13.0612674, "lon": 77.4612791, "tags": {"highway": "bus_stop", "name": "Madanayakanahalli", "name:kn": "\u0cae\u0cbe\u0ca6\u0ca8\u0cbe\u0caf\u0c95\u0ca8\u0cb9\u0cb3\u0ccd\u0cb3\u0cbf"}}, {"type": "node", "id": 2425722886, "lat": 13.0659494, "lon": 77.4533884, "tags": {"bus": "yes", "highway": "bus_stop", "name": "Makali", "name:kn": "\u0cae\u0cbe\u0c95\u0cb3\u0cbf", "public_transport": "platform"}}, {"type": "node", "id": 2427682609, "lat": 12.9972668, "lon": 77.4967859, "tags": {"highway": "bus_stop", "name": "Prasanna Layout"}}, {"type": "node", "id": 2427682678, "lat": 12.9992771, "lon": 77.4961909, "tags": {"highway": "bus_stop", "name": "Nagaravale", "name:kn": "\u0ca8\u0c97\u0cb0\u0cb5\u0cbe\u0cb2\u0cc6"}}, {"type": "node", "id": 2430065563, "lat": 13.0047026, "lon": 77.4872663, "tags": {"alt_name": "Acharya College Vidhyamanyanagar", "bus": "yes", "highway": "bus_stop", "name": "Vidyamanyanagar", "name:en": "Vidyamanyanagar", "name:kn": "\u0cb5\u0cbf\u0ca6\u0ccd\u0caf\u0cae\u0cbe\u0ca8\u0ccd\u0caf \u0ca8\u0c97\u0cb0", "network": "BMTC", "operator": "BMTC", "public_transport": "platform"}}, {"type": "node", "id": 2430077524, "lat": 13.0046069, "lon": 77.4874872, "tags": {"alt_name": "Acharya College Vidhyamanyanagar", "bus": "yes", "highway": "bus_stop", "name": "Vidyamanyanagar", "name:en": "Vidyamanyanagar", "name:kn": "\u0cb5\u0cbf\u0ca6\u0ccd\u0caf\u0cae\u0cbe\u0ca8\u0ccd\u0caf \u0ca8\u0c97\u0cb0", "network": "BMTC", "operator": "BMTC", "public_transport": "platform"}}, {"type": "node", "id": 2430080070, "lat": 13.0137744, "lon": 77.4834344, "tags": {"bus": "yes", "highway": "bus_stop", "name": "Anjaneya Temple Thigalarapalya", "name:en": "Anjaneya Temple Thigalarapalya", "name:kn": "\u0ca4\u0cbf\u0c97\u0cb2\u0cbe\u0cb0\u0caa\u0cbe\u0cb3\u0ccd\u0caf", "network": "BMTC", "operator": "BMTC", "public_transport": "platform"}}, {"type": "node", "id": 2430176320, "lat": 13.0000996, "lon": 77.4793945, "tags": {"highway": "bus_stop", "loc_name": "10th Cross Lingadeeranahalli", "name": "Lingadeeranahalli", "name:en": "Lingadeeranahalli", "name:kn": "\u0cb2\u0cbf\u0c82\u0c97\u0ca6\u0cc0\u0cb0\u0ca8\u0cb9\u0cb3\u0ccd\u0cb3\u0cbf", "network": "BMTC", "operator": "BMTC", "public_transport": "platform"}}, {"type": "node", "id": 2430630184, "lat": 13.0070265, "lon": 77.4424779, "tags": {"highway": "bus_stop", "loc_name": "BYANDHALLI", "name": "Bayyandahalli", "name:en": "Bayyandahalli", "network": "BMTC", "operator": "BMTC", "public_transport": "platform"}}, {"type": "node", "id": 2430642458, "lat": 13.0081299, "lon": 77.4349299, "tags": {"highway": "bus_stop", "loc_name": "BETTAHALLI CROSS", "name": "Bettahalli Cross", "name:en": "Bettahalli Cross", "network": "BMTC", "operator": "BMTC", "public_transport": "platform"}}, {"type": "node", "id": 2430805559, "lat": 13.0418661, "lon": 77.4482852, "tags": {"bus": "yes", "highway": "bus_stop", "loc_name": "KADIRENAHALLI", "name": "Kadirenahalli Village", "name:kn": "\u0c95\u0ca6\u0cbf\u0cb0\u0cc7\u0ca8\u0cb9\u0cb3\u0ccd\u0cb3\u0cbf", "public_transport": "platform"}}, {"type": "node", "id": 2430810950, "lat": 13.0346342, "lon": 77.4395654, "tags": {"bus": "yes", "highway": "bus_stop", "name": "Kammasandra", "name:kn": "\u0c95\u0cae\u0ccd\u0cae\u0cb8\u0c82\u0ca6\u0ccd\u0cb0", "public_transport": "platform"}}, {"type": "node", "id": 2430813870, "lat": 13.0298454, "lon": 77.4391367, "tags": {"bus": "yes", "highway": "bus_stop", "name": "Kamadenu Kshetra", "name:kn": "\u0c95\u0cbe\u0cae\u0ca7\u0cc7\u0ca8\u0cc1 \u0c95\u0ccd\u0cb7\u0cc7\u0ca4\u0ccd\u0cb0", "public_transport": "platform"}}, {"type": "node", "id": 2430820088, "lat": 13.0256601, "lon": 77.4476441, "tags": {"bus": "yes", "highway": "bus_stop", "name": "Kamadhenu Kshethra", "name:kn": "\u0c95\u0cbe\u0cae\u0ca7\u0cc7\u0ca8\u0cc1 \u0c95\u0ccd\u0cb7\u0cc7\u0ca4\u0ccd\u0cb0", "public_transport": "platform"}}, {"type": "node", "id": 2430832253, "lat": 13.0201687, "lon": 77.448566, "tags": {"bus": "yes", "highway": "bus_stop", "loc_name": "VADDARAHALLI", "name": "Vaddarahalli BMTC Training Centre", "name:en": "Vaddarahalli BMTC Training Centre", "network": "BMTC", "operator": "BMTC", "public_transport": "platform"}}, {"type": "node", "id": 2430834618, "lat": 13.0150369, "lon": 77.4471027, "tags": {"bus": "yes", "highway": "bus_stop", "loc_name": "VADDARAHALLI", "name": "Vaddarahalli Cross", "name:en": "Vaddarahalli Cross", "network": "BMTC", "operator": "BMTC", "public_transport": "platform"}}, {"type": "node", "id": 2430838346, "lat": 13.0154005, "lon": 77.4434612, "tags": {"highway": "bus_stop", "name": "Bettahalli Cross", "name:en": "Bettahalli Cross", "network": "BMTC", "operator": "BMTC", "public_transport": "platform"}}, {"type": "node", "id": 2431012501, "lat": 13.0168799, "lon": 77.4372605, "tags": {"bus": "yes", "highway": "bus_stop", "name": "Bettenahalli", "name:kn": "\u0cac\u0cc6\u0c9f\u0ccd\u0c9f\u0cc7\u0ca8\u0cb9\u0cb3\u0ccd\u0cb3\u0cbf", "public_transport": "platform"}}, {"type": "node", "id": 2431017789, "lat": 13.0146034, "lon": 77.4496166, "tags": {"highway": "bus_stop", "name": "Vaddarahalli", "name:kn": "\u0cb5\u0ca1\u0ccd\u0ca1\u0cb0\u0cb9\u0cb3\u0ccd\u0cb3\u0cbf"}}, {"type": "node", "id": 2431129752, "lat": 13.0082282, "lon": 77.5056125, "tags": {"highway": "bus_stop", "loc_name": "HEGGANA HALLI", "name": "Dairy Hegganahalli"}}, {"type": "node", "id": 2431129973, "lat": 13.010872, "lon": 77.5068553, "tags": {"bus": "yes", "name": "Peenya 2nd Stage", "name:en": "Peenya 2nd Stage", "network": "BMTC", "operator": "BMTC", "public_transport": "stop_position"}}, {"type": "node", "id": 2431131774, "lat": 13.0164785, "lon": 77.5057386, "tags": {"bus": "yes", "highway": "bus_stop", "loc_name": "PEENYA INDUSTRIAL AREA 2ND STAGE", "name": "Peenya 14th Cross", "name:en": "Peenya 14th Cross", "network": "BMTC", "operator": "BMTC", "public_transport": "platform"}}, {"type": "node", "id": 2431132702, "lat": 13.0202404, "lon": 77.5081111, "tags": {"bus": "yes", "highway": "bus_stop", "loc_name": "PEENYA INDUSTRIAL AREA 2ND STAGE", "name": "Brundavana Peenya 2nd Stage", "name:en": "Brundavana Peenya 2nd Stage", "network": "BMTC", "operator": "BMTC", "public_transport": "platform"}}, {"type": "node", "id": 2431134804, "lat": 13.0246025, "lon": 77.5108657, "tags": {"bus": "yes", "highway": "bus_stop", "loc_name": "N.T.T.F.CROSS", "name": "NTTF", "operator": "BMTC", "public_transport": "platform"}}, {"type": "node", "id": 2431137102, "lat": 13.0265402, "lon": 77.5147174, "tags": {"bus": "yes", "highway": "bus_stop", "loc_name": "PEENYA INDUSTRIAL AREA", "name": "Rolling Mill", "public_transport": "platform"}}, {"type": "node", "id": 2431140121, "lat": 13.0285288, "lon": 77.519548, "tags": {"bus": "yes", "highway": "bus_stop", "loc_name": "PEENYA INDUSTRIAL AREA", "name": "TVS Cross Peenya 2nd Stage", "public_transport": "platform"}}, {"type": "node", "id": 2431140188, "lat": 13.0354412, "lon": 77.5181727, "tags": {"highway": "bus_stop", "loc_name": "PEENYA INDUSTRIAL AREA", "name": "Systems Peenya", "name:en": "Systems Peenya", "network": "BMTC", "operator": "BMTC", "public_transport": "platform"}}, {"type": "node", "id": 2431140189, "lat": 13.0349433, "lon": 77.5179665, "tags": {"highway": "bus_stop", "loc_name": "PEENYA INDUSTRIAL AREA", "name": "System Jalahalli Cross"}}, {"type": "node", "id": 2431141046, "lat": 13.0398186, "lon": 77.5183133, "tags": {"bus": "yes", "highway": "bus_stop", "loc_name": "PEENYA INDUSTRIAL AREA", "name": "Jalahalli Cross", "name:kn": "\u0c9c\u0cbe\u0cb2\u0cb9\u0cb3\u0ccd\u0cb3\u0cbf \u0c95\u0ccd\u0cb0\u0cbe\u0cb8\u0ccd", "public_transport": "platform"}}, {"type": "node", "id": 2431142779, "lat": 13.0430177, "lon": 77.5130488, "tags": {"bus": "yes", "highway": "bus_stop", "name": "T Dasarahalli", "public_transport": "platform"}}, {"type": "node", "id": 2431142785, "lat": 13.0427796, "lon": 77.5129645, "tags": {"bench": "yes", "bus": "yes", "covered": "yes", "highway": "bus_stop", "name": "T Dasarahalli", "name:en": "T Dasarahalli", "name:kn": "\u0c9f\u0cbf \u0ca6\u0cbe\u0cb8\u0cb0\u0cb9\u0cb3\u0ccd\u0cb3\u0cbf", "network": "BMTC", "network:wikidata": "Q3345039", "operator": "BMTC", "public_transport": "platform", "shelter": "yes"}}, {"type": "node", "id": 2431143925, "lat": 13.0455636, "lon": 77.5055104, "tags": {"bus": "yes", "highway": "bus_stop", "loc_name": "Andrahalli Main Road", "name": "8th Mile Dasarahalli", "name:en": "8th Mile Dasarahalli", "network": "BMTC", "operator": "BMTC", "public_transport": "platform"}}, {"type": "node", "id": 2431144562, "lat": 13.0450201, "lon": 77.5076896, "tags": {"bench": "yes", "bus": "yes", "covered": "yes", "highway": "bus_stop", "loc_name": "T Dasarahalli", "name": "8th Mile Dasarahalli", "name:en": "8th Mile Dasarahalli", "name:kn": "\u0cee\u0ca8\u0cc7 \u0cae\u0cc8\u0cb2\u0cbf \u0ca6\u0cbe\u0cb8\u0cb0\u0cb9\u0cb3\u0ccd\u0cb3\u0cbf", "network": "BMTC", "network:wikidata": "Q3345039", "operator": "BMTC", "public_transport": "platform", "shelter": "yes"}}, {"type": "node", "id": 2431146027, "lat": 13.0410361, "lon": 77.5048282, "tags": {"highway": "bus_stop", "name": "Rukmini Nagara", "name:en": "Rukmini Nagara", "name:kn": "\u0cb0\u0cc1\u0c95\u0ccd\u0cae\u0cbf\u0ca8\u0cbf \u0ca8\u0c97\u0cb0", "network": "BMTC", "operator": "BMTC", "public_transport": "platform"}}, {"type": "node", "id": 2431146294, "lat": 13.0385761, "lon": 77.5045157, "tags": {"bus": "yes", "departures_board": "no", "highway": "bus_stop", "name": "Nagasandra Cross Bus Stop", "public_transport": "platform", "shelter": "yes"}}, {"type": "node", "id": 2431146694, "lat": 13.0337754, "lon": 77.5040962, "tags": {"alt_name": "Om timber", "highway": "bus_stop", "loc_name": "H.M.T.LAYOUT CROSS", "name": "HMT Layout", "name:en": "HMT Layout", "network": "BMTC", "operator": "BMTC", "public_transport": "platform"}}, {"type": "node", "id": 2431147069, "lat": 13.0315243, "lon": 77.5034567, "tags": {"highway": "bus_stop", "name": "Nelagedaranahalli", "name:en": "Nelagedaranahalli", "name:kn": "\u0ca8\u0cc6\u0cb2\u0c97\u0cc6\u0ca6\u0cb0\u0ca8\u0cb9\u0cb3\u0ccd\u0cb3\u0cbf", "network": "BMTC", "operator": "BMTC", "public_transport": "platform"}}, {"type": "node", "id": 2431157768, "lat": 13.0298063, "lon": 77.4997531, "tags": {"highway": "bus_stop", "name": "Gruhalaxmi Layout", "name:en": "Gruhalaxmi Layout", "name:kn": "\u0c97\u0cc3\u0cb9\u0cb2\u0c95\u0ccd\u0cb7\u0ccd\u0cae\u0cbf \u0cac\u0ca1\u0cbe\u0cb5\u0ca3\u0cc6", "network": "BMTC", "operator": "BMTC", "public_transport": "platform"}}, {"type": "node", "id": 2431163764, "lat": 13.0277238, "lon": 77.4937718, "tags": {"highway": "bus_stop", "name": "Indiranagara", "name:en": "Indiranagara", "network": "BMTC", "operator": "BMTC", "public_transport": "platform"}}, {"type": "node", "id": 2431163833, "lat": 13.0262298, "lon": 77.4731558, "tags": {"highway": "bus_stop", "loc_name": "SHANTHI NAGARA", "name": "Shanthinagara", "name:kn": "\u0cb6\u0cbe\u0c82\u0ca4\u0cbf\u0ca8\u0c97\u0cb0"}}, {"type": "node", "id": 2431163862, "lat": 13.0293894, "lon": 77.4835383, "tags": {"bus": "yes", "highway": "bus_stop", "loc_name": "TIPPENAHALLI CROSS", "name": "Thippenahalli Cross", "public_transport": "platform"}}, {"type": "node", "id": 2431168829, "lat": 13.024254, "lon": 77.4708342, "tags": {"bus": "yes", "highway": "bus_stop", "name": "Gangondanahalli Colony", "public_transport": "platform"}}, {"type": "node", "id": 2431169974, "lat": 13.0258508, "lon": 77.4596723, "tags": {"highway": "bus_stop", "loc_name": "K.G.LAKKENAHALLI CROSS", "name": "KG Lakkenahalli Cross", "name:en": "KG Lakkenahalli Cross", "name:kn": "\u0c95\u0cae\u0ccd\u0cae\u0cb8\u0c82\u0ca6\u0ccd\u0cb0", "network": "BMTC", "operator": "BMTC", "public_transport": "platform"}}, {"type": "node", "id": 2431170408, "lat": 13.0237039, "lon": 77.4589838, "tags": {"bus": "yes", "highway": "bus_stop", "loc_name": "JYOTHI NAGARA", "name": "Jyothinagar", "public_transport": "platform"}}, {"type": "node", "id": 2431171486, "lat": 13.0161627, "lon": 77.4565858, "tags": {"bus": "yes", "highway": "bus_stop", "loc_name": "K.G.LAKKENAHALLI", "name": "KG Lakkenahalli", "public_transport": "platform"}}, {"type": "node", "id": 2431186739, "lat": 13.0226124, "lon": 77.5235453, "tags": {"highway": "bus_stop", "loc_name": "PEENYA 2ND STAGE, 3RD PHASE", "name": "Laggere Cross"}}, {"type": "node", "id": 2431187264, "lat": 13.0163723, "lon": 77.5203387, "tags": {"highway": "bus_stop", "loc_name": "PARVATHI NAGARA", "name": "Parvathi Nagara", "name:kn": "\u0caa\u0cbe\u0cb0\u0ccd\u0cb5\u0ca4\u0cbf \u0ca8\u0c97\u0cb0"}}, {"type": "node", "id": 2431187361, "lat": 13.0139134, "lon": 77.5208472, "tags": {"highway": "bus_stop", "loc_name": "Laggere", "name": "Laggere", "name:kn": "\u0cb2\u0c97\u0ccd\u0c97\u0cc6\u0cb0\u0cc6"}}, {"type": "node", "id": 2431192369, "lat": 13.0486783, "lon": 77.4967136, "tags": {"bench": "yes", "bus": "yes", "covered": "yes", "highway": "bus_stop", "loc_name": "Tumkur Road", "name": "Widia School", "name:en": "Widia School", "network": "BMTC", "network:wikidata": "Q3345039", "network:wikipedia": "hi:\u092c\u0947\u0902\u0917\u0932\u094b\u0930 \u092e\u0939\u093e\u0928\u0917\u0930 \u092a\u0930\u093f\u0935\u0939\u0928 \u0928\u093f\u0917\u092e", "operator": "BMTC", "public_transport": "platform", "shelter": "yes"}}, {"type": "node", "id": 2431194968, "lat": 13.0507435, "lon": 77.492188, "tags": {"highway": "bus_stop", "loc_name": "Tumkur Road", "name": "Morision Factory"}}, {"type": "node", "id": 2431194972, "lat": 13.0504136, "lon": 77.4918735, "tags": {"bench": "yes", "covered": "yes", "highway": "bus_stop", "loc_name": "Tumkur Road", "name": "Marison Factory", "name:en": "Marison Factory", "network": "BMTC", "operator": "BMTC", "public_transport": "platform", "shelter": "yes"}}, {"type": "node", "id": 2431196213, "lat": 13.0523528, "lon": 77.4877306, "tags": {"highway": "bus_stop", "loc_name": "Tumkur Road", "name": "Chikka Bidarakallu", "name:kn": "\u0c9a\u0cbf\u0c95\u0ccd\u0c95\u0cac\u0cbf\u0ca6\u0cb0\u0c95\u0cb2\u0ccd\u0cb2\u0cc1"}}, {"type": "node", "id": 2431196216, "lat": 13.0519047, "lon": 77.4877084, "tags": {"bench": "yes", "bus": "yes", "covered": "yes", "highway": "bus_stop", "loc_name": "Tumkur Road", "name": "Chikkabidarakallu", "name:en": "Chikkabidarakallu", "name:kn": "\u0c9a\u0cbf\u0c95\u0ccd\u0c95\u0cac\u0cbf\u0ca6\u0cb0\u0c95\u0cb2\u0ccd\u0cb2\u0cc1", "network": "BMTC", "network:wikidata": "Q3345039", "operator": "BMTC", "public_transport": "platform", "shelter": "yes"}}, {"type": "node", "id": 2431197623, "lat": 13.0536615, "lon": 77.4840545, "tags": {"highway": "bus_stop", "loc_name": "Tumkur Road", "name": "Jindal", "name:kn": "\u0c9c\u0cbf\u0c82\u0ca6\u0cbe\u0cb2\u0ccd"}}, {"type": "node", "id": 2431197626, "lat": 13.0532831, "lon": 77.4838143, "tags": {"bench": "yes", "covered": "yes", "highway": "bus_stop", "loc_name": "Tumkur Road", "name": "Jindal", "name:en": "Jindal", "network": "BMTC", "operator": "BMTC", "public_transport": "platform", "shelter": "yes"}}, {"type": "node", "id": 2431198619, "lat": 13.0550002, "lon": 77.4789572, "tags": {"highway": "bus_stop", "loc_name": "Tumkur Road", "name": "Anchepalya", "name:en": "Anchepalya", "name:kn": "\u0c85\u0c82\u0c9a\u0cc7\u0caa\u0cbe\u0cb3\u0ccd\u0caf", "network": "BMTC", "operator": "BMTC", "public_transport": "platform"}}, {"type": "node", "id": 2431206510, "lat": 13.0572169, "lon": 77.4731579, "tags": {"highway": "bus_stop", "loc_name": "Tumkur Road", "name": "Madavara", "name:en": "Madavara", "name:kn": "\u0cae\u0cbe\u0ca6\u0cb5\u0cbe\u0cb0", "network": "BMTC", "operator": "BMTC", "public_transport": "platform"}}, {"type": "node", "id": 2431229855, "lat": 13.0510007, "lon": 77.5077223, "tags": {"highway": "bus_stop", "loc_name": "T.DASARAHALLI", "name": "Widia School Bagalagunte", "name:en": "Widia School Bagalagunte", "network": "BMTC", "operator": "BMTC", "public_transport": "platform"}}, {"type": "node", "id": 2431230945, "lat": 13.0564209, "lon": 77.5072784, "tags": {"highway": "bus_stop", "name": "Bagalagunte", "name:en": "Bagalagunte", "name:kn": "\u0cac\u0cbe\u0c97\u0cb2\u0c97\u0cc1\u0c82\u0c9f\u0cc6", "network": "BMTC", "operator": "BMTC", "public_transport": "platform"}}, {"type": "node", "id": 2431232325, "lat": 13.0640151, "lon": 77.5048674, "tags": {"highway": "bus_stop", "name": "Bone Mill", "name:en": "Bone Mill", "network": "BMTC", "operator": "BMTC", "public_transport": "platform"}}, {"type": "node", "id": 2431234341, "lat": 13.0669701, "lon": 77.5032715, "tags": {"highway": "bus_stop", "loc_name": "Chikka Banawara", "name": "Sapthagiri College", "name:en": "Sapthagiri College", "name:kn": "\u0cb8\u0caa\u0ccd\u0ca4\u0c97\u0cbf\u0cb0\u0cbf \u0c95\u0cbe\u0cb2\u0cc7\u0c9c\u0cc1", "network": "BMTC", "operator": "BMTC", "public_transport": "platform"}}, {"type": "node", "id": 2431237657, "lat": 13.0734812, "lon": 77.5030691, "tags": {"highway": "bus_stop", "name": "Janapriya Apartments", "name:en": "Janapriya Apartments", "name:kn": "\u0c9c\u0ca8\u0caa\u0ccd\u0cb0\u0caf", "network": "BMTC", "operator": "BMTC", "public_transport": "platform"}}, {"type": "node", "id": 2431238702, "lat": 13.0825565, "lon": 77.500118, "tags": {"highway": "bus_stop", "loc_name": "CHIKKA BANAVARA", "name": "Chikkabanawara", "name:kn": "\u0c9a\u0cbf\u0c95\u0ccd\u0c95\u0cac\u0cbe\u0ca3\u0cbe\u0cb5\u0cb0"}}, {"type": "node", "id": 2432071770, "lat": 13.045979, "lon": 77.5222447, "tags": {"bus": "yes", "highway": "bus_stop", "loc_name": "JALAHALLI WEST", "name": "Ayyappa Temple", "name:kn": "\u0c85\u0caf\u0ccd\u0caf\u0caa\u0ccd\u0caa \u0ca6\u0cc7\u0cb5\u0cb8\u0ccd\u0ca5\u0cbe\u0ca8", "public_transport": "platform"}}, {"type": "node", "id": 2432071928, "lat": 13.0502833, "lon": 77.525675, "tags": {"highway": "bus_stop", "loc_name": "INDIAN AIR FORCE JALAHALLI", "name": "Shetty Halli Cross"}}, {"type": "node", "id": 2432467854, "lat": 13.0642011, "lon": 77.4886424, "tags": {"highway": "bus_stop", "name": "Sheshadri Nagara", "name:kn": "\u0cb6\u0cc7\u0cb6\u0cbe\u0ca6\u0ccd\u0cb0\u0cbf \u0ca8\u0c97\u0cb0"}}, {"type": "node", "id": 2432490961, "lat": 13.0673669, "lon": 77.5001184, "tags": {"highway": "bus_stop", "loc_name": "KIRLOSKAR LAYOUT", "name": "Kirloskar Badavane", "name:kn": "\u0c95\u0cbf\u0cb0\u0ccd\u0cb2\u0ccb\u0cb8\u0ccd\u0c95\u0cb0 \u0cac\u0ca1\u0cbe\u0cb5\u0ca3\u0cc6"}}, {"type": "node", "id": 2432492430, "lat": 13.0395465, "lon": 77.4997629, "tags": {"highway": "bus_stop", "loc_name": "NAGASANDRA", "name": "Nagasandra", "name:kn": "\u0ca8\u0cbe\u0c97\u0cb8\u0c82\u0ca6\u0ccd\u0cb0"}}, {"type": "node", "id": 2432493345, "lat": 13.0345127, "lon": 77.4992483, "tags": {"highway": "bus_stop", "loc_name": "H.M.T.LAYOUT", "name": "KRS Gowda Layout"}}, {"type": "node", "id": 2435397326, "lat": 13.0572477, "lon": 77.5098468, "tags": {"bus": "yes", "highway": "bus_stop", "loc_name": "Bagalagunte", "name": "Mallasandra", "name:kn": "\u0cae\u0cb2\u0ccd\u0cb2\u0cb8\u0c82\u0ca6\u0ccd\u0cb0", "public_transport": "platform"}}, {"type": "node", "id": 2435407049, "lat": 13.0720035, "lon": 77.4995979, "tags": {"highway": "bus_stop", "name": "Chimney Hills", "name:kn": "\u0c9a\u0cbf\u0cae\u0ccd\u0ca8\u0cbf \u0cb9\u0cbf\u0cb2\u0ccd\u0cb8\u0ccd"}}, {"type": "node", "id": 2435418425, "lat": 13.0757683, "lon": 77.4726196, "tags": {"highway": "bus_stop", "loc_name": "KUDREGERE", "name": "Kudhurgere Madhanayakanahalli"}}, {"type": "node", "id": 2435445597, "lat": 13.06697, "lon": 77.497335, "tags": {"highway": "bus_stop", "name": "Soundarya Layout"}}, {"type": "node", "id": 2435445618, "lat": 13.0654638, "lon": 77.4948226, "tags": {"highway": "bus_stop", "loc_name": "Soundarya Layout", "name": "Bireshwara Circle", "name:kn": "\u0cac\u0cc0\u0cb0\u0cc7\u0cb6\u0ccd\u0cb5\u0cb0 \u0cb5\u0cc3\u0ca4\u0ccd\u0ca4"}}, {"type": "node", "id": 2435448577, "lat": 13.0791187, "lon": 77.4969976, "tags": {"highway": "bus_stop", "loc_name": "CHIKKA BANAVARA", "name": "Ganapathi Nagara", "name:kn": "\u0c97\u0ca3\u0caa\u0ca4\u0cbf \u0ca8\u0c97\u0cb0"}}, {"type": "node", "id": 2437427536, "lat": 13.0128664, "lon": 77.5178149, "tags": {"highway": "bus_stop", "name": "Rajiv Gandhi Nagara"}}, {"type": "node", "id": 2439333995, "lat": 13.0000654, "lon": 77.5173591, "tags": {"highway": "bus_stop", "name": "Annapurna Nagara", "name:kn": "\u0c85\u0ca3\u0ccd\u0ca3\u0caa\u0cc2\u0cb0\u0ccd\u0ca3 \u0ca8\u0c97\u0cb0"}}, {"type": "node", "id": 2441538919, "lat": 13.0441349, "lon": 77.4906379, "tags": {"highway": "bus_stop", "name": "Muniswamappa Layout"}}, {"type": "node", "id": 2441541261, "lat": 13.0357452, "lon": 77.4844357, "tags": {"highway": "bus_stop", "loc_name": "TIPPENAHALLI", "name": "Anjaneya Temple", "name:kn": "\u0c86\u0c82\u0c9c\u0ca8\u0cc7\u0caf \u0ca6\u0cc7\u0cb5\u0cb8\u0ccd\u0ca5\u0cbe\u0ca8"}}, {"type": "node", "id": 2442559673, "lat": 13.0764541, "lon": 77.4585122, "tags": {"bus": "yes", "highway": "bus_stop", "loc_name": "HEGGADA DEVANAPURA", "name": "Hegde Devanapura", "name:kn": "\u0cb9\u0cc6\u0c97\u0ccd\u0c97\u0ca1\u0ca6\u0cc7\u0cb5\u0ca8\u0caa\u0cc1\u0cb0", "public_transport": "platform"}}, {"type": "node", "id": 2442563202, "lat": 13.0499185, "lon": 77.4454029, "tags": {"bus": "yes", "highway": "bus_stop", "loc_name": "HAROKYATANAHALLI", "name": "Harokyatanahalli", "name:kn": "\u0cb9\u0cbe\u0cb0\u0ccb\u0c95\u0ccd\u0caf\u0cbe\u0ca4\u0ca8\u0cb9\u0cb3\u0ccd\u0cb3\u0cbf", "public_transport": "platform"}}, {"type": "node", "id": 2442563221, "lat": 13.0594664, "lon": 77.4487864, "tags": {"bus": "yes", "highway": "bus_stop", "name": "Shivajyothi Nagara", "name:kn": "\u0cb6\u0cbf\u0cb5\u0c9c\u0ccd\u0caf\u0ccb\u0ca4\u0cbf \u0ca8\u0c97\u0cb0", "public_transport": "platform"}}, {"type": "node", "id": 2442796691, "lat": 13.0648967, "lon": 77.4434208, "tags": {"bus": "yes", "highway": "bus_stop", "name": "Adakimaranahalli", "name:en": "Adakimaranahalli", "name:kn": "\u0c85\u0ca1\u0c95\u0cbf\u0cae\u0cbe\u0cb0\u0ca8\u0cb9\u0cb3\u0ccd\u0cb3\u0cbf", "network": "BMTC", "operator": "BMTC", "public_transport": "platform"}}, {"type": "node", "id": 2446582130, "lat": 13.0406363, "lon": 77.4960981, "tags": {"highway": "bus_stop", "loc_name": "Rajiv Gandhi Nagara", "name": "Rockline Studio"}}, {"type": "node", "id": 2446582139, "lat": 13.0396553, "lon": 77.4940725, "tags": {"highway": "bus_stop", "name": "Venugopala Nagara", "name:kn": "\u0cb5\u0cc7\u0ca3\u0cc1\u0c97\u0ccb\u0caa\u0cbe\u0cb2 \u0ca8\u0c97\u0cb0"}}, {"type": "node", "id": 2446582392, "lat": 13.0379874, "lon": 77.4938686, "tags": {"highway": "bus_stop", "name": "Sri Shaneshwara Swamy Temple", "name:kn": "\u0cb6\u0ccd\u0cb0\u0cc0 \u0cb6\u0ca8\u0cc7\u0cb6\u0ccd\u0cb5\u0cb0 \u0cb8\u0ccd\u0cb5\u0cbe\u0cae\u0cbf \u0ca6\u0cc7\u0cb5\u0cb8\u0ccd\u0ca5\u0cbe\u0ca8"}}, {"type": "node", "id": 2446582393, "lat": 13.0358455, "lon": 77.4937472, "tags": {"bus": "yes", "highway": "bus_stop", "loc_name": "DODDABIDRA KALLU", "name": "Doddabidarakallu", "name:kn": "\u0ca6\u0cca\u0ca1\u0ccd\u0ca1\u0cac\u0cbf\u0ca6\u0cb0\u0c95\u0cb2\u0ccd\u0cb2\u0cc1", "public_transport": "platform"}}, {"type": "node", "id": 2446892712, "lat": 13.0257039, "lon": 77.4550167, "tags": {"highway": "bus_stop", "name": "Ganesh Circle Vaddarahalli", "name:en": "Ganesh Circle Vaddarahalli", "name:kn": "\u0c97\u0ca3\u0cc7\u0cb6 \u0cb5\u0cc3\u0ca4\u0ccd\u0ca4", "network": "BMTC", "operator": "BMTC", "public_transport": "platform"}}, {"type": "node", "id": 2446905480, "lat": 13.0368521, "lon": 77.4884874, "tags": {"highway": "bus_stop", "name": "Maranna Layout", "name:kn": "\u0cae\u0cbe\u0cb0\u0ca3\u0ccd\u0ca3 \u0cac\u0ca1\u0cbe\u0cb5\u0ca3\u0cc6"}}, {"type": "node", "id": 2446911932, "lat": 13.0283303, "lon": 77.4894359, "tags": {"highway": "bus_stop", "loc_name": "Tumkur Road, INDIRA NAGARA", "name": "Indiranagara", "name:kn": "\u0c87\u0c82\u0ca6\u0cbf\u0cb0\u0cbe\u0ca8\u0c97\u0cb0"}}, {"type": "node", "id": 2446920020, "lat": 13.0438902, "lon": 77.4850998, "tags": {"highway": "bus_stop", "loc_name": "CHANNA NAYAKANAPALYA", "name": "Channa Nayakanapalya"}}, {"type": "node", "id": 2446925226, "lat": 13.0360433, "lon": 77.497501, "tags": {"highway": "bus_stop", "name": "Sapthagiri Layout", "name:kn": "\u0cb8\u0caa\u0ccd\u0ca4\u0c97\u0cbf\u0cb0\u0cbf \u0cac\u0ca1\u0cbe\u0cb5\u0ca3\u0cc6"}}, {"type": "node", "id": 2447160900, "lat": 13.0129632, "lon": 77.5036103, "tags": {"highway": "bus_stop", "name": "GCL Factory"}}, {"type": "node", "id": 2447162479, "lat": 13.0144888, "lon": 77.5004995, "tags": {"bus": "yes", "highway": "bus_stop", "name": "Manjushree Garments", "public_transport": "platform"}}, {"type": "node", "id": 2447174548, "lat": 13.0137269, "lon": 77.4892996, "tags": {"highway": "bus_stop", "name": "Shiva Bar"}}, {"type": "node", "id": 2447338470, "lat": 13.0724477, "lon": 77.5235219, "tags": {"highway": "bus_stop", "name": "Abbigere Gate", "name:en": "Abbigere Gate", "name:kn": "\u0c85\u0cac\u0ccd\u0cac\u0cbf\u0c97\u0cc6\u0cb0\u0cc6", "network": "BMTC", "operator": "BMTC", "public_transport": "platform"}}, {"type": "node", "id": 2447345284, "lat": 13.0759197, "lon": 77.5171325, "tags": {"highway": "bus_stop", "loc_name": "KEREGUDDADA HALLI", "name": "RMG"}}, {"type": "node", "id": 2447347638, "lat": 13.0794507, "lon": 77.5155027, "tags": {"highway": "bus_stop", "loc_name": "KEREGUDDADAHALLI", "name": "Kere Guddadahalli", "name:kn": "\u0c95\u0cc6\u0cb0\u0cc6\u0c97\u0cc1\u0ca1\u0ccd\u0ca1\u0ca6\u0cb9\u0cb3\u0ccd\u0cb3\u0cbf"}}, {"type": "node", "id": 2447349005, "lat": 13.0798991, "lon": 77.5124437, "tags": {"highway": "bus_stop", "loc_name": "KEREGUDDADAHALLI", "name": "Gangadhara Kalyana Mantapa", "name:kn": "\u0c97\u0c82\u0c97\u0cbe\u0ca7\u0cbe\u0cb0 \u0c95\u0cb2\u0ccd\u0caf\u0cbe\u0ca3 \u0cae\u0c82\u0c9f\u0caa"}}, {"type": "node", "id": 2447350754, "lat": 13.0793144, "lon": 77.5059746, "tags": {"highway": "bus_stop", "name": "Dasappana Palya", "name:kn": "\u0ca6\u0cbe\u0cb8\u0caa\u0ccd\u0caa\u0ca8 \u0caa\u0cbe\u0cb3\u0ccd\u0caf"}}, {"type": "node", "id": 2447898435, "lat": 13.0025448, "lon": 77.5257484, "tags": {"alt_name": "Laggere Arch", "bus": "yes", "highway": "bus_stop", "name": "Kempegowda Arch", "name:en": "Kempegowda Arch", "network": "BMTC", "operator": "BMTC", "public_transport": "stop_position"}}, {"type": "node", "id": 2447900541, "lat": 13.0110786, "lon": 77.522013, "tags": {"highway": "bus_stop", "loc_name": "Laggere", "name": "Laggere", "name:kn": "\u0cb2\u0c97\u0ccd\u0c97\u0cc6\u0cb0\u0cc6"}}, {"type": "node", "id": 2447905062, "lat": 12.9977242, "lon": 77.5233832, "tags": {"alt_name": "Lourdhubhai Kalyana mantapa", "bench": "yes", "bus": "yes", "highway": "bus_stop", "loc_name": "Prema Nagara", "name": "LB Samudaya Bhavana", "name:en": "LB Samudaya Bhavana", "network": "BMTC", "network:wikidata": "Q3345039", "old_name": "Ludrubayi Samduaya Bhavana", "operator": "BMTC", "public_transport": "platform", "shelter": "yes"}}, {"type": "node", "id": 2447905063, "lat": 12.9972017, "lon": 77.5234883, "tags": {"alt_name": "Lourdhubhai Kalyana mantapa", "bench": "yes", "bus": "yes", "highway": "bus_stop", "loc_name": "Prema Nagara", "name": "LB Samudaya Bhavana", "name:en": "LB Samudaya Bhavana", "network": "BMTC", "network:wikidata": "Q3345039", "old_name": "Ludrubayi Samduaya Bhavana", "operator": "BMTC", "public_transport": "platform", "shelter": "yes"}}, {"type": "node", "id": 3199052003, "lat": 13.0227517, "lon": 77.5242358, "tags": {"bus": "yes", "highway": "bus_stop", "name": "Laggere Cross Bus Stop", "operator": "BMTC", "public_transport": "platform", "shelter": "yes"}}, {"type": "node", "id": 3228461819, "lat": 13.0385564, "lon": 77.5215707}, {"type": "node", "id": 3228461839, "lat": 13.0497448, "lon": 77.495422}, {"type": "node", "id": 3325503523, "lat": 13.0445292, "lon": 77.5268949}, {"type": "node", "id": 3334386393, "lat": 13.0369896, "lon": 77.5245869}, {"type": "node", "id": 3334386394, "lat": 13.0371723, "lon": 77.5240866}, {"type": "node", "id": 3334386395, "lat": 13.0374182, "lon": 77.5236201}, {"type": "node", "id": 3334386397, "lat": 13.0367802, "lon": 77.525075}, {"type": "node", "id": 3334386399, "lat": 13.0362304, "lon": 77.5261401}, {"type": "node", "id": 3334386400, "lat": 13.0437142, "lon": 77.5113763}, {"type": "node", "id": 3334386401, "lat": 13.0389298, "lon": 77.5228433}, {"type": "node", "id": 3334386402, "lat": 13.0386693, "lon": 77.5227759}, {"type": "node", "id": 3334386403, "lat": 13.0368876, "lon": 77.5248539}, {"type": "node", "id": 3334386404, "lat": 13.0369466, "lon": 77.5247111}, {"type": "node", "id": 3379412454, "lat": 13.0330515, "lon": 77.5332233, "tags": {"code": "PEYA", "internet_access:fee": "no", "name": "Peenya", "name:kn": "\u0caa\u0cc0\u0ca3\u0ccd\u0caf", "network": "Namma Metro", "note": "Contributors are requested to not edit the \"network\" and the \"operator\" tags. (2023/11/08)", "operator": "Bangalore Metro Rail Corporation Limited", "public_transport": "stop_position", "public_transport:version": "2", "railway": "stop", "source": "http://www.bmrc.co.in/English/Network.htm", "subway": "yes", "wheelchair": "yes", "wikidata": "Q17082567", "wikipedia": "en:Peenya metro station"}}, {"type": "node", "id": 3639546839, "lat": 13.0566825, "lon": 77.473046, "tags": {"highway": "bus_stop", "loc_name": "TUMKUR ROAD", "name": "Madavara", "name:en": "Madavara", "name:kn": "\u0cae\u0cbe\u0ca6\u0cb5\u0cbe\u0cb0", "network": "BMTC", "operator": "BMTC", "public_transport": "platform"}}, {"type": "node", "id": 3742217248, "lat": 13.0431705, "lon": 77.5249809}, {"type": "node", "id": 3764952341, "lat": 13.0448888, "lon": 77.5391448, "tags": {"railway": "switch"}}, {"type": "node", "id": 3833691730, "lat": 13.0397865, "lon": 77.5184458, "tags": {"highway": "bus_stop", "loc_name": "PEENYA INDUSTRIAL AREA", "name": "Jalahalli Cross", "name:kn": "\u0c9c\u0cbe\u0cb2\u0cb9\u0cb3\u0ccd\u0cb3\u0cbf \u0c95\u0ccd\u0cb0\u0cbe\u0cb8\u0ccd"}}, {"type": "node", "id": 3868501020, "lat": 13.0734442, "lon": 77.5072739, "tags": {"railway": "switch"}}, {"type": "node", "id": 3868567932, "lat": 13.0767333, "lon": 77.5039088}, {"type": "node", "id": 3868567933, "lat": 13.076796, "lon": 77.5039839}, {"type": "node", "id": 3868567934, "lat": 13.0739143, "lon": 77.5067304}, {"type": "node", "id": 3868567935, "lat": 13.0738516, "lon": 77.5066634}, {"type": "node", "id": 3868567936, "lat": 13.0776207, "lon": 77.5033221}, {"type": "node", "id": 3868567937, "lat": 13.0776621, "lon": 77.5033696}, {"type": "node", "id": 3868567938, "lat": 13.0747424, "lon": 77.5061413}, {"type": "node", "id": 3868567939, "lat": 13.0747043, "lon": 77.5060908}, {"type": "node", "id": 3868567940, "lat": 13.0773256, "lon": 77.5032206}, {"type": "node", "id": 3868567941, "lat": 13.0773526, "lon": 77.5032671}, {"type": "node", "id": 3868567942, "lat": 13.0770309, "lon": 77.503534}, {"type": "node", "id": 3868567943, "lat": 13.0764522, "lon": 77.5040787}, {"type": "node", "id": 3868567944, "lat": 13.0758956, "lon": 77.5046145}, {"type": "node", "id": 3868567945, "lat": 13.0756116, "lon": 77.5048834}, {"type": "node", "id": 3868567946, "lat": 13.0751917, "lon": 77.5052758}, {"type": "node", "id": 3868567947, "lat": 13.0749134, "lon": 77.5055477}, {"type": "node", "id": 3868567948, "lat": 13.0744194, "lon": 77.5060113}, {"type": "node", "id": 3868567949, "lat": 13.0743723, "lon": 77.5059609}, {"type": "node", "id": 3868567950, "lat": 13.0755211, "lon": 77.5048547}, {"type": "node", "id": 3868567951, "lat": 13.077134, "lon": 77.5033689}, {"type": "node", "id": 3868567952, "lat": 13.0768615, "lon": 77.5036042}, {"type": "node", "id": 3868567953, "lat": 13.0766747, "lon": 77.5037742}, {"type": "node", "id": 3870399507, "lat": 13.072617, "lon": 77.5079904}, {"type": "node", "id": 3870399508, "lat": 13.0726582, "lon": 77.5080295}, {"type": "node", "id": 3870399509, "lat": 13.07039, "lon": 77.5101366}, {"type": "node", "id": 3870399510, "lat": 13.0701112, "lon": 77.5104243}, {"type": "node", "id": 3870399511, "lat": 13.06954, "lon": 77.5111826}, {"type": "node", "id": 3870399512, "lat": 13.0691453, "lon": 77.5118562}, {"type": "node", "id": 3870399513, "lat": 13.0690057, "lon": 77.5121182}, {"type": "node", "id": 3870399514, "lat": 13.0686403, "lon": 77.5129581}, {"type": "node", "id": 3870399515, "lat": 13.0673029, "lon": 77.5163975}, {"type": "node", "id": 3870399516, "lat": 13.0667323, "lon": 77.5179072}, {"type": "node", "id": 3870399517, "lat": 13.0653903, "lon": 77.5213214}, {"type": "node", "id": 3870399518, "lat": 13.0633974, "lon": 77.5264413}, {"type": "node", "id": 3870399519, "lat": 13.0631654, "lon": 77.5270124}, {"type": "node", "id": 3870399520, "lat": 13.062798, "lon": 77.5278533}, {"type": "node", "id": 3870399521, "lat": 13.0626297, "lon": 77.5281976}, {"type": "node", "id": 3870399522, "lat": 13.062161, "lon": 77.5289586}, {"type": "node", "id": 3870399523, "lat": 13.06233, "lon": 77.5287013}, {"type": "node", "id": 3870399524, "lat": 13.0620151, "lon": 77.529167}, {"type": "node", "id": 3870399525, "lat": 13.0615646, "lon": 77.5297125}, {"type": "node", "id": 3870399526, "lat": 13.0613774, "lon": 77.5299144}, {"type": "node", "id": 3870399527, "lat": 13.0607937, "lon": 77.5304778}, {"type": "node", "id": 3870399528, "lat": 13.0610475, "lon": 77.5302401}, {"type": "node", "id": 3870399529, "lat": 13.060597, "lon": 77.5306407}, {"type": "node", "id": 3870399530, "lat": 13.0599482, "lon": 77.5311145}, {"type": "node", "id": 3870399531, "lat": 13.0588537, "lon": 77.5317268}, {"type": "node", "id": 3870399532, "lat": 13.0592471, "lon": 77.5315297}, {"type": "node", "id": 3870399533, "lat": 13.0577719, "lon": 77.5321469}, {"type": "node", "id": 3870399534, "lat": 13.0574578, "lon": 77.5322332}, {"type": "node", "id": 3870399535, "lat": 13.0553753, "lon": 77.5327841}, {"type": "node", "id": 3870399536, "lat": 13.0548299, "lon": 77.532952}, {"type": "node", "id": 3870399537, "lat": 13.0550674, "lon": 77.5328746}, {"type": "node", "id": 3870399538, "lat": 13.0541165, "lon": 77.5332299}, {"type": "node", "id": 3870399539, "lat": 13.0530841, "lon": 77.5337855}, {"type": "node", "id": 3870399540, "lat": 13.0533684, "lon": 77.5336106}, {"type": "node", "id": 3870399541, "lat": 13.0536407, "lon": 77.5334595}, {"type": "node", "id": 3870399542, "lat": 13.0511174, "lon": 77.5350535}, {"type": "node", "id": 3870399543, "lat": 13.0517571, "lon": 77.5346451}, {"type": "node", "id": 3870399544, "lat": 13.0505081, "lon": 77.5354583}, {"type": "node", "id": 3870399545, "lat": 13.048914, "lon": 77.5364946}, {"type": "node", "id": 3870401198, "lat": 13.0462036, "lon": 77.5382666}, {"type": "node", "id": 3870401199, "lat": 13.0449441, "lon": 77.5391563}, {"type": "node", "id": 3870405064, "lat": 13.0451793, "lon": 77.5390012}, {"type": "node", "id": 3870405065, "lat": 13.0457147, "lon": 77.5386562}, {"type": "node", "id": 3870405066, "lat": 13.0458813, "lon": 77.5385514}, {"type": "node", "id": 3870405067, "lat": 13.0463128, "lon": 77.5382568}, {"type": "node", "id": 3870405068, "lat": 13.0465439, "lon": 77.5381115}, {"type": "node", "id": 3870405069, "lat": 13.0471304, "lon": 77.5377239}, {"type": "node", "id": 3870405070, "lat": 13.0473134, "lon": 77.5376093}, {"type": "node", "id": 3870405071, "lat": 13.0477978, "lon": 77.537287}, {"type": "node", "id": 3870405072, "lat": 13.0480386, "lon": 77.5371318}, {"type": "node", "id": 3870405073, "lat": 13.0485326, "lon": 77.5368085}, {"type": "node", "id": 3870405074, "lat": 13.0488427, "lon": 77.5365999}, {"type": "node", "id": 3870405075, "lat": 13.0492106, "lon": 77.5363577}, {"type": "node", "id": 3870405076, "lat": 13.0494658, "lon": 77.5361887}, {"type": "node", "id": 3870405077, "lat": 13.0499003, "lon": 77.5359203}, {"type": "node", "id": 3870405078, "lat": 13.0501288, "lon": 77.535768}, {"type": "node", "id": 3870405079, "lat": 13.0506599, "lon": 77.5354227}, {"type": "node", "id": 3870405080, "lat": 13.0510734, "lon": 77.5351549}, {"type": "node", "id": 3870405081, "lat": 13.0514286, "lon": 77.5349146}, {"type": "node", "id": 3870405082, "lat": 13.0521064, "lon": 77.5344749}, {"type": "node", "id": 3870405083, "lat": 13.0524157, "lon": 77.5342799}, {"type": "node", "id": 3870405084, "lat": 13.0526633, "lon": 77.5341149}, {"type": "node", "id": 3870405085, "lat": 13.0531068, "lon": 77.533828}, {"type": "node", "id": 3870405086, "lat": 13.0534553, "lon": 77.533621}, {"type": "node", "id": 3870405087, "lat": 13.0538804, "lon": 77.5333942}, {"type": "node", "id": 3870405088, "lat": 13.0541446, "lon": 77.5332646}, {"type": "node", "id": 3870405089, "lat": 13.0543964, "lon": 77.5331663}, {"type": "node", "id": 3870405090, "lat": 13.054815, "lon": 77.5330078}, {"type": "node", "id": 3870405091, "lat": 13.0552367, "lon": 77.5328699}, {"type": "node", "id": 3870405092, "lat": 13.0554715, "lon": 77.5328096}, {"type": "node", "id": 3870405093, "lat": 13.0561932, "lon": 77.5326117}, {"type": "node", "id": 3870405094, "lat": 13.0565105, "lon": 77.5325336}, {"type": "node", "id": 3870405095, "lat": 13.0572307, "lon": 77.5323603}, {"type": "node", "id": 3870405096, "lat": 13.0574299, "lon": 77.5323103}, {"type": "node", "id": 3870405097, "lat": 13.0578122, "lon": 77.5322023}, {"type": "node", "id": 3870405098, "lat": 13.0582033, "lon": 77.53207}, {"type": "node", "id": 3870405099, "lat": 13.058479, "lon": 77.5319522}, {"type": "node", "id": 3870405100, "lat": 13.0589486, "lon": 77.5317422}, {"type": "node", "id": 3870405101, "lat": 13.0592753, "lon": 77.5315745}, {"type": "node", "id": 3870405102, "lat": 13.0595164, "lon": 77.5314409}, {"type": "node", "id": 3870405103, "lat": 13.0597179, "lon": 77.5313155}, {"type": "node", "id": 3870405104, "lat": 13.0599289, "lon": 77.5311836}, {"type": "node", "id": 3870405105, "lat": 13.0601414, "lon": 77.5310338}, {"type": "node", "id": 3870405106, "lat": 13.0604222, "lon": 77.5308303}, {"type": "node", "id": 3870405107, "lat": 13.0607648, "lon": 77.5305535}, {"type": "node", "id": 3870405108, "lat": 13.0610694, "lon": 77.5302815}, {"type": "node", "id": 3870405109, "lat": 13.061339, "lon": 77.5300161}, {"type": "node", "id": 3870405110, "lat": 13.0615897, "lon": 77.5297507}, {"type": "node", "id": 3870405111, "lat": 13.0618831, "lon": 77.5293941}, {"type": "node", "id": 3870405112, "lat": 13.0621639, "lon": 77.5290261}, {"type": "node", "id": 3870405113, "lat": 13.062305, "lon": 77.528816}, {"type": "node", "id": 3870405114, "lat": 13.0624859, "lon": 77.5285262}, {"type": "node", "id": 3870405115, "lat": 13.0626397, "lon": 77.5282689}, {"type": "node", "id": 3870405116, "lat": 13.0628111, "lon": 77.5279432}, {"type": "node", "id": 3870405117, "lat": 13.0629443, "lon": 77.5276501}, {"type": "node", "id": 3870405118, "lat": 13.0630601, "lon": 77.527401}, {"type": "node", "id": 3870405119, "lat": 13.0631987, "lon": 77.5270461}, {"type": "node", "id": 3870405120, "lat": 13.0634503, "lon": 77.5264174}, {"type": "node", "id": 3870405121, "lat": 13.0637358, "lon": 77.5256912}, {"type": "node", "id": 3870405122, "lat": 13.0639928, "lon": 77.5250317}, {"type": "node", "id": 3870405123, "lat": 13.0642513, "lon": 77.5243641}, {"type": "node", "id": 3870405124, "lat": 13.064724, "lon": 77.5231493}, {"type": "node", "id": 3870405125, "lat": 13.0650841, "lon": 77.5222423}, {"type": "node", "id": 3870405126, "lat": 13.0654204, "lon": 77.5213646}, {"type": "node", "id": 3870405127, "lat": 13.0658312, "lon": 77.5203046}, {"type": "node", "id": 3870405128, "lat": 13.0662325, "lon": 77.5193015}, {"type": "node", "id": 3870405129, "lat": 13.0666053, "lon": 77.5183277}, {"type": "node", "id": 3870405130, "lat": 13.0667655, "lon": 77.517932}, {"type": "node", "id": 3870405131, "lat": 13.0670922, "lon": 77.5171016}, {"type": "node", "id": 3870405132, "lat": 13.0673302, "lon": 77.5164714}, {"type": "node", "id": 3870405133, "lat": 13.0676263, "lon": 77.5156858}, {"type": "node", "id": 3870405134, "lat": 13.0679586, "lon": 77.5148327}, {"type": "node", "id": 3870405135, "lat": 13.0682794, "lon": 77.5139977}, {"type": "node", "id": 3870405136, "lat": 13.0684581, "lon": 77.5135521}, {"type": "node", "id": 3870405137, "lat": 13.0685886, "lon": 77.513215}, {"type": "node", "id": 3870405138, "lat": 13.0687214, "lon": 77.5128687}, {"type": "node", "id": 3870405139, "lat": 13.0688613, "lon": 77.5125407}, {"type": "node", "id": 3870405140, "lat": 13.0689931, "lon": 77.5122402}, {"type": "node", "id": 3870405141, "lat": 13.0690921, "lon": 77.5120501}, {"type": "node", "id": 3870405142, "lat": 13.0692187, "lon": 77.5118024}, {"type": "node", "id": 3870405143, "lat": 13.0693624, "lon": 77.5115589}, {"type": "node", "id": 3870405144, "lat": 13.0695152, "lon": 77.5113097}, {"type": "node", "id": 3870405145, "lat": 13.0696803, "lon": 77.5110788}, {"type": "node", "id": 3870405146, "lat": 13.069849, "lon": 77.5108535}, {"type": "node", "id": 3870405147, "lat": 13.0699937, "lon": 77.5106589}, {"type": "node", "id": 3870405148, "lat": 13.0701627, "lon": 77.5104617}, {"type": "node", "id": 3870405149, "lat": 13.0704026, "lon": 77.5101973}, {"type": "node", "id": 3870405150, "lat": 13.0708689, "lon": 77.5097218}, {"type": "node", "id": 3870405151, "lat": 13.0713243, "lon": 77.5092814}, {"type": "node", "id": 3870405152, "lat": 13.0716367, "lon": 77.5089874}, {"type": "node", "id": 3870405153, "lat": 13.0719491, "lon": 77.5086911}, {"type": "node", "id": 3870405154, "lat": 13.0725075, "lon": 77.5081651}, {"type": "node", "id": 3870405155, "lat": 13.0730943, "lon": 77.5075366}, {"type": "node", "id": 3870405156, "lat": 13.0733132, "lon": 77.5073298}, {"type": "node", "id": 3870405157, "lat": 13.073816, "lon": 77.5068478}, {"type": "node", "id": 3870405158, "lat": 13.0740207, "lon": 77.5066524}, {"type": "node", "id": 3870405159, "lat": 13.0742475, "lon": 77.5064309}, {"type": "node", "id": 3870405160, "lat": 13.0743784, "lon": 77.5063853}, {"type": "node", "id": 3870405168, "lat": 13.0745527, "lon": 77.50615}, {"type": "node", "id": 3870405169, "lat": 13.0747742, "lon": 77.5059316}, {"type": "node", "id": 4016362864, "lat": 13.0469642, "lon": 77.501634, "tags": {"bench": "yes", "bus": "yes", "covered": "yes", "highway": "bus_stop", "name": "Deepak Factory", "name:en": "Deepak Factory", "network": "BMTC", "network:wikidata": "Q3345039", "operator": "BMTC", "public_transport": "platform", "shelter": "yes"}}, {"type": "node", "id": 4476081690, "lat": 13.0413227, "lon": 77.5166301, "tags": {"highway": "bus_stop", "name": "KSRTC Pickup Point", "name:en": "KSRTC Pickup Point", "operator": "KSRTC"}}, {"type": "node", "id": 4793687727, "lat": 13.0647807, "lon": 77.5230064}, {"type": "node", "id": 5558684122, "lat": 13.0108926, "lon": 77.5068223, "tags": {"bus": "yes", "highway": "bus_stop", "name": "Peenya 2nd Stage", "name:en": "Peenya 2nd Stage", "name:kn": "\u0caa\u0cc0\u0ca3\u0ccd\u0caf \u0ce8\u0ca8\u0cc7 \u0cb9\u0c82\u0ca4", "network": "BMTC", "operator": "BMTC", "public_transport": "platform"}}, {"type": "node", "id": 5631070491, "lat": 13.0155714, "lon": 77.5237107, "tags": {"bus": "yes", "highway": "bus_stop", "name": "Vidhanasoudha Layout", "name:kn": "\u0cb5\u0cbf\u0ca7\u0cbe\u0ca8\u0cb8\u0ccc\u0ca7 \u0cac\u0ca1\u0cbe\u0cb5\u0ca3\u0cc6", "public_transport": "platform"}}, {"type": "node", "id": 5760198489, "lat": 13.0375474, "lon": 77.5232156}, {"type": "node", "id": 5760198491, "lat": 13.0358697, "lon": 77.5262264}, {"type": "node", "id": 5760198492, "lat": 13.0356901, "lon": 77.5265808}, {"type": "node", "id": 5760198493, "lat": 13.035543, "lon": 77.5269572}, {"type": "node", "id": 5760198494, "lat": 13.0354574, "lon": 77.5272283}, {"type": "node", "id": 5760198495, "lat": 13.0351655, "lon": 77.5283536}, {"type": "node", "id": 5760198496, "lat": 13.0347828, "lon": 77.5297884}, {"type": "node", "id": 5760198497, "lat": 13.0346863, "lon": 77.5300641}, {"type": "node", "id": 5760198498, "lat": 13.0344526, "lon": 77.5305909}, {"type": "node", "id": 5760198499, "lat": 13.0342751, "lon": 77.5309624}, {"type": "node", "id": 5760198620, "lat": 13.0362716, "lon": 77.5254867, "tags": {"code": "PYID", "name": "Peenya Industry", "name:kn": "\u0caa\u0cc0\u0ca3\u0ccd\u0caf \u0c95\u0cc8\u0c97\u0cbe\u0cb0\u0cbf\u0c95", "network": "Namma Metro", "note": "Contributors are requested to not edit the \"network\" and the \"operator\" tags. (2023/11/08)", "operator": "Bangalore Metro Rail Corporation Limited", "public_transport": "stop_position", "public_transport:version": "2", "railway": "stop", "source": "http://www.bmrc.co.in/English/Network.htm", "subway": "yes", "wheelchair": "yes", "wikidata": "Q17082550", "wikipedia": "en:Peenya Industry metro station"}}, {"type": "node", "id": 5760198625, "lat": 13.0329814, "lon": 77.5331801, "tags": {"code": "PEYA", "internet_access:fee": "no", "name": "Peenya", "name:kn": "\u0caa\u0cc0\u0ca3\u0ccd\u0caf", "network": "Namma Metro", "note": "Contributors are requested to not edit the \"network\" and the \"operator\" tags. (2023/11/08)", "operator": "Bangalore Metro Rail Corporation Limited", "public_transport": "stop_position", "public_transport:version": "2", "railway": "stop", "source": "http://www.bmrc.co.in/English/Network.htm", "subway": "yes", "wheelchair": "yes", "wikidata": "Q17082567", "wikipedia": "en:Peenya metro station"}}, {"type": "node", "id": 5954688563, "lat": 13.0497029, "lon": 77.4954053}, {"type": "node", "id": 5954688564, "lat": 13.0479383, "lon": 77.5001342, "tags": {"code": "NGSA", "name": "Nagasandra", "name:kn": "\u0ca8\u0cbe\u0c97\u0cb8\u0c82\u0ca6\u0ccd\u0cb0", "network": "Namma Metro", "note": "Contributors are requested to not edit the \"network\" and the \"operator\" tags. (2023/11/08)", "operator": "Bangalore Metro Rail Corporation Limited", "public_transport": "stop_position", "public_transport:version": "2", "railway": "stop", "source": "http://www.bmrc.co.in/English/Network.htm", "subway": "yes", "wheelchair": "yes"}}, {"type": "node", "id": 5954688565, "lat": 13.0475284, "lon": 77.5012499}, {"type": "node", "id": 5954688566, "lat": 13.0473337, "lon": 77.5017632}, {"type": "node", "id": 5954688567, "lat": 13.0461228, "lon": 77.5051339}, {"type": "node", "id": 5954688568, "lat": 13.0452307, "lon": 77.5082155}, {"type": "node", "id": 5954688569, "lat": 13.0449141, "lon": 77.5088219}, {"type": "node", "id": 5954688570, "lat": 13.0438356, "lon": 77.5109106}, {"type": "node", "id": 5954688571, "lat": 13.0436394, "lon": 77.5113446}, {"type": "node", "id": 5954688572, "lat": 13.0432196, "lon": 77.5125345, "tags": {"code": "DSH", "name": "Dasarahalli", "name:kn": "\u0ca6\u0cbe\u0cb8\u0cb0\u0cb9\u0cb3\u0ccd\u0cb3\u0cbf", "network": "Namma Metro", "note": "Contributors are requested to not edit the \"network\" and the \"operator\" tags. (2023/11/08)", "operator": "Bangalore Metro Rail Corporation Limited", "public_transport": "stop_position", "public_transport:version": "2", "railway": "stop", "source": "http://www.bmrc.co.in/English/Network.htm", "subway": "yes", "wheelchair": "yes"}}, {"type": "node", "id": 5954688573, "lat": 13.0419772, "lon": 77.5161933}, {"type": "node", "id": 5954688574, "lat": 13.0418398, "lon": 77.5164823}, {"type": "node", "id": 5954688575, "lat": 13.0401276, "lon": 77.5183668}, {"type": "node", "id": 5954688576, "lat": 13.0400359, "lon": 77.5184913}, {"type": "node", "id": 5954688577, "lat": 13.0389638, "lon": 77.5206012}, {"type": "node", "id": 5954688578, "lat": 13.0393735, "lon": 77.5197223, "tags": {"code": "JLHL", "name": "Jalahalli", "name:kn": "\u0c9c\u0cbe\u0cb2\u0cb9\u0cb3\u0ccd\u0cb3\u0cbf", "network": "Namma Metro", "note": "Contributors are requested to not edit the \"network\" and the \"operator\" tags. (2023/11/08)", "operator": "Bangalore Metro Rail Corporation Limited", "public_transport": "stop_position", "public_transport:version": "2", "railway": "stop", "source": "http://www.bmrc.co.in/English/Network.htm", "subway": "yes", "wheelchair": "yes"}}, {"type": "node", "id": 5960788723, "lat": 13.0484426, "lon": 77.4997372}, {"type": "node", "id": 5960788724, "lat": 13.0432607, "lon": 77.5125535, "tags": {"code": "DSH", "lit": "yes", "name": "Dasarahalli", "name:kn": "\u0ca6\u0cbe\u0cb8\u0cb0\u0cb9\u0cb3\u0ccd\u0cb3\u0cbf", "name:ml": "\u0d26\u0d3e\u0d38\u0d31\u0d39\u0d33\u0d4d\u0d33\u0d3f", "network": "Namma Metro", "note": "Contributors are requested to not edit the \"network\" and the \"operator\" tags. (2023/11/08)", "operator": "Bangalore Metro Rail Corporation Limited", "public_transport": "station", "public_transport:version": "2", "railway": "station", "shelter": "yes", "station": "subway", "subway": "yes", "website": "https://english.brmc.co.in", "wheelchair": "yes"}}, {"type": "node", "id": 5960788725, "lat": 13.0394104, "lon": 77.5197351, "tags": {"code": "JLHL", "lit": "yes", "name": "Jalahalli", "name:kn": "\u0c9c\u0cbe\u0cb2\u0cb9\u0cb3\u0ccd\u0cb3\u0cbf", "name:ml": "\u0d1c\u0d3e\u0d32\u0d39\u0d33\u0d4d\u0d33\u0d3f", "network": "Namma Metro", "note": "Contributors are requested to not edit the \"network\" and the \"operator\" tags. (2023/11/08)", "operator": "Bangalore Metro Rail Corporation Limited", "parking": "yes", "public_transport": "station", "public_transport:version": "2", "railway": "station", "shelter": "yes", "station": "subway", "subway": "yes", "website": "https://english.brmc.co.in", "wheelchair": "yes", "wikidata": "Q30647031", "wikipedia": "en:Jalahalli metro station"}}, {"type": "node", "id": 6021402053, "lat": 13.0441271, "lon": 77.5396937, "tags": {"railway": "switch"}}, {"type": "node", "id": 6087642388, "lat": 13.0697338, "lon": 77.5109137}, {"type": "node", "id": 6087642389, "lat": 13.0749263, "lon": 77.5058564}, {"type": "node", "id": 6087642390, "lat": 13.091493, "lon": 77.4900859}, {"type": "node", "id": 6087642391, "lat": 13.0989112, "lon": 77.4821934}, {"type": "node", "id": 6087642395, "lat": 13.0981081, "lon": 77.4832309}, {"type": "node", "id": 6087642396, "lat": 13.0964005, "lon": 77.4851369}, {"type": "node", "id": 6087642397, "lat": 13.0949103, "lon": 77.4867704}, {"type": "node", "id": 6087642398, "lat": 13.0946266, "lon": 77.4870754}, {"type": "node", "id": 6087642399, "lat": 13.0934045, "lon": 77.488252}, {"type": "node", "id": 6087642400, "lat": 13.0921402, "lon": 77.4894613}, {"type": "node", "id": 6087642401, "lat": 13.0710439, "lon": 77.5095456}, {"type": "node", "id": 6087642402, "lat": 13.0756954, "lon": 77.5051324}, {"type": "node", "id": 6087642403, "lat": 13.0763764, "lon": 77.5044963}, {"type": "node", "id": 6087642404, "lat": 13.0773189, "lon": 77.5035919}, {"type": "node", "id": 6087642405, "lat": 13.0780769, "lon": 77.5028589}, {"type": "node", "id": 6087642406, "lat": 13.0790875, "lon": 77.5018845}, {"type": "node", "id": 6087642407, "lat": 13.0799377, "lon": 77.5010726}, {"type": "node", "id": 6087642408, "lat": 13.0807747, "lon": 77.5002989}, {"type": "node", "id": 6087642409, "lat": 13.0816294, "lon": 77.4994881, "tags": {"railway": "switch"}}, {"type": "node", "id": 6087642410, "lat": 13.0826224, "lon": 77.4985329}, {"type": "node", "id": 6087642411, "lat": 13.0837428, "lon": 77.4974819}, {"type": "node", "id": 6087642412, "lat": 13.0754161, "lon": 77.5053209}, {"type": "node", "id": 6087642413, "lat": 13.0762518, "lon": 77.5045298}, {"type": "node", "id": 6087642414, "lat": 13.0769509, "lon": 77.5038743}, {"type": "node", "id": 6087642415, "lat": 13.077664, "lon": 77.5031901}, {"type": "node", "id": 6087642416, "lat": 13.0785029, "lon": 77.5023879}, {"type": "node", "id": 6087642417, "lat": 13.0794039, "lon": 77.5015171}, {"type": "node", "id": 6087642418, "lat": 13.0802862, "lon": 77.5006814}, {"type": "node", "id": 6087642419, "lat": 13.0810972, "lon": 77.4999255}, {"type": "node", "id": 6087642420, "lat": 13.0818071, "lon": 77.4992413}, {"type": "node", "id": 6087642421, "lat": 13.0825885, "lon": 77.4984965}, {"type": "node", "id": 6087642422, "lat": 13.0834631, "lon": 77.4976767}, {"type": "node", "id": 6087642423, "lat": 13.0847105, "lon": 77.4964822}, {"type": "node", "id": 6087642424, "lat": 13.0855509, "lon": 77.4956816}, {"type": "node", "id": 6087642425, "lat": 13.0863789, "lon": 77.4948746}, {"type": "node", "id": 6087642426, "lat": 13.0875113, "lon": 77.4938108}, {"type": "node", "id": 6087642427, "lat": 13.0889948, "lon": 77.4923914}, {"type": "node", "id": 6087642428, "lat": 13.0893739, "lon": 77.4920326}, {"type": "node", "id": 6087642429, "lat": 13.0901801, "lon": 77.4912575}, {"type": "node", "id": 6087642430, "lat": 13.0908698, "lon": 77.4906036}, {"type": "node", "id": 6087642431, "lat": 13.0915486, "lon": 77.4899545}, {"type": "node", "id": 6087642432, "lat": 13.0924139, "lon": 77.4891283}, {"type": "node", "id": 6087642433, "lat": 13.0931362, "lon": 77.4884378}, {"type": "node", "id": 6087642434, "lat": 13.0938694, "lon": 77.4877376}, {"type": "node", "id": 6087642435, "lat": 13.0945917, "lon": 77.4870343}, {"type": "node", "id": 6087642436, "lat": 13.0951696, "lon": 77.4864171}, {"type": "node", "id": 6087642437, "lat": 13.0959432, "lon": 77.4855638}, {"type": "node", "id": 6087642438, "lat": 13.0967556, "lon": 77.4846564}, {"type": "node", "id": 6087642439, "lat": 13.0978849, "lon": 77.4834156}, {"type": "node", "id": 6087642440, "lat": 13.099081, "lon": 77.4820743}, {"type": "node", "id": 6087642441, "lat": 13.0997008, "lon": 77.4814061}, {"type": "node", "id": 6087642442, "lat": 13.1003842, "lon": 77.4806565}, {"type": "node", "id": 6087642443, "lat": 13.1011889, "lon": 77.4797729}, {"type": "node", "id": 6087642444, "lat": 13.1018925, "lon": 77.4790026}, {"type": "node", "id": 6087642445, "lat": 13.1030529, "lon": 77.4777842}, {"type": "node", "id": 6087642446, "lat": 13.1042474, "lon": 77.4766072}, {"type": "node", "id": 6087642447, "lat": 13.1048299, "lon": 77.4760123}, {"type": "node", "id": 6087642448, "lat": 13.1056065, "lon": 77.475234}, {"type": "node", "id": 6087642449, "lat": 13.099706, "lon": 77.4810785}, {"type": "node", "id": 6087642450, "lat": 13.0994941, "lon": 77.4814375}, {"type": "node", "id": 6087642451, "lat": 13.0992758, "lon": 77.4817403}, {"type": "node", "id": 6087642452, "lat": 13.0990517, "lon": 77.4820178}, {"type": "node", "id": 6087642453, "lat": 13.0987005, "lon": 77.4824308}, {"type": "node", "id": 6087642454, "lat": 13.0983504, "lon": 77.4828251}, {"type": "node", "id": 6087642455, "lat": 13.0974987, "lon": 77.4837692}, {"type": "node", "id": 6087642456, "lat": 13.0965112, "lon": 77.4848662}, {"type": "node", "id": 6087642457, "lat": 13.0944944, "lon": 77.487079}, {"type": "node", "id": 6087642458, "lat": 13.0931882, "lon": 77.4883236}, {"type": "node", "id": 6087642459, "lat": 13.0919932, "lon": 77.4894305}, {"type": "node", "id": 6087642460, "lat": 13.0914852, "lon": 77.4898867}, {"type": "node", "id": 6087642461, "lat": 13.0901508, "lon": 77.4911562}, {"type": "node", "id": 6087642462, "lat": 13.0896957, "lon": 77.491582}, {"type": "node", "id": 6087642463, "lat": 13.0894704, "lon": 77.4918148}, {"type": "node", "id": 6087642464, "lat": 13.089051, "lon": 77.4922614}, {"type": "node", "id": 6087642465, "lat": 13.0887838, "lon": 77.4925357}, {"type": "node", "id": 6087642466, "lat": 13.0883877, "lon": 77.4929105}, {"type": "node", "id": 6087642467, "lat": 13.087569, "lon": 77.4936952}, {"type": "node", "id": 6087642468, "lat": 13.0869228, "lon": 77.4942964}, {"type": "node", "id": 6087642469, "lat": 13.0862284, "lon": 77.4949583}, {"type": "node", "id": 6087642470, "lat": 13.0855232, "lon": 77.4956361}, {"type": "node", "id": 6087642471, "lat": 13.0847729, "lon": 77.4963522}, {"type": "node", "id": 6087642472, "lat": 13.0840971, "lon": 77.4970029}, {"type": "node", "id": 6087642473, "lat": 13.0833452, "lon": 77.4977206}, {"type": "node", "id": 6087642474, "lat": 13.0826415, "lon": 77.4983761}, {"type": "node", "id": 6087642475, "lat": 13.0820497, "lon": 77.4989422}, {"type": "node", "id": 6087642476, "lat": 13.0813848, "lon": 77.4995834}, {"type": "node", "id": 6087642477, "lat": 13.0811953, "lon": 77.4997716, "tags": {"railway": "switch"}}, {"type": "node", "id": 6087642478, "lat": 13.0804418, "lon": 77.5004749}, {"type": "node", "id": 6087642479, "lat": 13.0802352, "lon": 77.5006711}, {"type": "node", "id": 6087642480, "lat": 13.0794538, "lon": 77.5014047, "tags": {"railway": "switch"}}, {"type": "node", "id": 6087642481, "lat": 13.0793497, "lon": 77.5015036, "tags": {"railway": "switch"}}, {"type": "node", "id": 6087642482, "lat": 13.078632, "lon": 77.5021909}, {"type": "node", "id": 6087642483, "lat": 13.0778273, "lon": 77.5029676}, {"type": "node", "id": 6087642484, "lat": 13.0772564, "lon": 77.5033655}, {"type": "node", "id": 6087642585, "lat": 13.0739827, "lon": 77.5064487}, {"type": "node", "id": 6087642586, "lat": 13.0737897, "lon": 77.5066314, "tags": {"railway": "switch"}}, {"type": "node", "id": 6087642587, "lat": 13.0732186, "lon": 77.5072747, "tags": {"railway": "switch"}}, {"type": "node", "id": 6087642588, "lat": 13.0731611, "lon": 77.5073391, "tags": {"railway": "switch"}}, {"type": "node", "id": 6087642589, "lat": 13.0724799, "lon": 77.5081216, "tags": {"railway": "switch"}}, {"type": "node", "id": 6087642590, "lat": 13.0723793, "lon": 77.5082178, "tags": {"railway": "switch"}}, {"type": "node", "id": 6087642591, "lat": 13.0717721, "lon": 77.508859, "tags": {"railway": "switch"}}, {"type": "node", "id": 6087642592, "lat": 13.0728391, "lon": 77.5077793, "tags": {"railway": "switch"}}, {"type": "node", "id": 6087642593, "lat": 13.0735781, "lon": 77.5071466, "tags": {"railway": "switch"}}, {"type": "node", "id": 6087642594, "lat": 13.0742162, "lon": 77.5066108, "tags": {"railway": "switch"}}, {"type": "node", "id": 6087642595, "lat": 13.0783873, "lon": 77.5023573}, {"type": "node", "id": 6087642596, "lat": 13.078698, "lon": 77.5020654, "tags": {"railway": "switch"}}, {"type": "node", "id": 6087642597, "lat": 13.0794266, "lon": 77.5013781, "tags": {"railway": "buffer_stop"}}, {"type": "node", "id": 6087642598, "lat": 13.0801091, "lon": 77.5008492, "tags": {"railway": "switch"}}, {"type": "node", "id": 6087642599, "lat": 13.0805915, "lon": 77.5003968, "tags": {"railway": "switch"}}, {"type": "node", "id": 6087642600, "lat": 13.0804864, "lon": 77.5004949, "tags": {"railway": "switch"}}, {"type": "node", "id": 6087642601, "lat": 13.0798858, "lon": 77.5011222, "tags": {"railway": "switch"}}, {"type": "node", "id": 6087642602, "lat": 13.0798198, "lon": 77.5011852, "tags": {"railway": "switch"}}, {"type": "node", "id": 6087642603, "lat": 13.0792324, "lon": 77.5018182, "tags": {"railway": "switch"}}, {"type": "node", "id": 6087642604, "lat": 13.080962, "lon": 77.5000515, "tags": {"railway": "switch"}}, {"type": "node", "id": 6087642605, "lat": 13.0798408, "lon": 77.5012502, "tags": {"railway": "buffer_stop"}}, {"type": "node", "id": 6087642606, "lat": 13.0789851, "lon": 77.5020522}, {"type": "node", "id": 6087642607, "lat": 13.0786603, "lon": 77.5023874}, {"type": "node", "id": 6087642608, "lat": 13.0778277, "lon": 77.5032106, "tags": {"railway": "switch"}}, {"type": "node", "id": 6087642609, "lat": 13.0772125, "lon": 77.5038173}, {"type": "node", "id": 6087642610, "lat": 13.0763272, "lon": 77.5046519}, {"type": "node", "id": 6087642611, "lat": 13.0752594, "lon": 77.5056713}, {"type": "node", "id": 6087642612, "lat": 13.0744609, "lon": 77.5063914}, {"type": "node", "id": 6087642613, "lat": 13.0738504, "lon": 77.5069707, "tags": {"railway": "buffer_stop"}}, {"type": "node", "id": 6087642614, "lat": 13.0762459, "lon": 77.5048496, "tags": {"railway": "switch"}}, {"type": "node", "id": 6087642615, "lat": 13.075729, "lon": 77.505223, "tags": {"railway": "switch"}}, {"type": "node", "id": 6087642616, "lat": 13.0774763, "lon": 77.5036343}, {"type": "node", "id": 6087642617, "lat": 13.0772914, "lon": 77.50384}, {"type": "node", "id": 6087642618, "lat": 13.0771656, "lon": 77.5039548}, {"type": "node", "id": 6087642619, "lat": 13.0766716, "lon": 77.5044317}, {"type": "node", "id": 6087642620, "lat": 13.0759492, "lon": 77.5051127, "tags": {"railway": "switch"}}, {"type": "node", "id": 6087642621, "lat": 13.073737, "lon": 77.5072036, "tags": {"railway": "buffer_stop"}}, {"type": "node", "id": 6087642622, "lat": 13.075755, "lon": 77.5053344}, {"type": "node", "id": 6087642623, "lat": 13.0756525, "lon": 77.5054604}, {"type": "node", "id": 6087642624, "lat": 13.0750622, "lon": 77.5060106}, {"type": "node", "id": 6087642625, "lat": 13.0745293, "lon": 77.5065257}, {"type": "node", "id": 6087642626, "lat": 13.0741611, "lon": 77.5068639}, {"type": "node", "id": 6087642627, "lat": 13.0737696, "lon": 77.5072466, "tags": {"railway": "buffer_stop"}}, {"type": "node", "id": 6087642628, "lat": 13.0774952, "lon": 77.5032531}, {"type": "node", "id": 6087642629, "lat": 13.0773414, "lon": 77.5033681}, {"type": "node", "id": 6087642630, "lat": 13.0772008, "lon": 77.5034764}, {"type": "node", "id": 6087642631, "lat": 13.0770382, "lon": 77.5036027}, {"type": "node", "id": 6087642632, "lat": 13.0766801, "lon": 77.503941}, {"type": "node", "id": 6087642633, "lat": 13.0759727, "lon": 77.5046131}, {"type": "node", "id": 6087642634, "lat": 13.0748215, "lon": 77.505698}, {"type": "node", "id": 6087642635, "lat": 13.07398, "lon": 77.5065303}, {"type": "node", "id": 6087642636, "lat": 13.0736649, "lon": 77.5068197}, {"type": "node", "id": 6087642637, "lat": 13.0728447, "lon": 77.5076538, "tags": {"railway": "buffer_stop"}}, {"type": "node", "id": 6118954656, "lat": 13.1007537, "lon": 77.4782054}, {"type": "node", "id": 6118954657, "lat": 13.1005918, "lon": 77.4789655}, {"type": "node", "id": 6118954658, "lat": 13.1002987, "lon": 77.4798663}, {"type": "node", "id": 6118954659, "lat": 13.1001455, "lon": 77.4802232}, {"type": "node", "id": 6141603066, "lat": 13.0929259, "lon": 77.488712, "tags": {"railway": "level_crossing"}}, {"type": "node", "id": 6142972951, "lat": 13.0675054, "lon": 77.5158879}, {"type": "node", "id": 6183030387, "lat": 13.0481601, "lon": 77.4995448}, {"type": "node", "id": 6410706696, "lat": 13.0363176, "lon": 77.5254924, "tags": {"code": "PYID", "name": "Peenya Industry", "name:kn": "\u0caa\u0cc0\u0ca3\u0ccd\u0caf \u0c87\u0c82\u0ca1\u0cb8\u0ccd\u0c9f\u0ccd\u0cb0\u0cbf", "name:ml": "\u0d2a\u0d40\u0d23\u0d4d\u0d2f \u0d07\u0d7b\u0d21\u0d38\u0d4d\u0d1f\u0d4d\u0d30\u0d3f", "network": "Namma Metro", "network:wikidata": "Q279343", "note": "Contributors are requested to not edit the \"network\" and the \"operator\" tags. (2023/11/08)", "operator": "Bangalore Metro Rail Corporation Limited", "public_transport": "station", "public_transport:version": "2", "railway": "station", "shelter": "yes", "station": "subway", "subway": "yes", "website": "https://english.brmc.co.in", "wheelchair": "yes"}}, {"type": "node", "id": 6631824074, "lat": 13.0443229, "lon": 77.5256386, "tags": {"bench": "yes", "covered": "yes", "name": "Peenya Satellite Bus Station (Basaveswara Bus Station)", "network": "BMTC", "operator": "BMTC", "public_transport": "platform", "shelter": "yes"}}, {"type": "node", "id": 6631824075, "lat": 13.0358537, "lon": 77.5256143, "tags": {"bus": "yes", "name": "Peenya Metro Station", "name:kn": "\u0caa\u0cc0\u0ca3\u0ccd\u0caf \u0cae\u0cc6\u0c9f\u0ccd\u0cb0\u0ccb", "network": "BMTC", "operator": "BMTC", "public_transport": "stop_position"}}, {"type": "node", "id": 6631824076, "lat": 13.0358031, "lon": 77.5255837, "tags": {"highway": "bus_stop", "name": "Peenya Metro Station", "name:kn": "\u0caa\u0cc0\u0ca3\u0ccd\u0caf", "network": "BMTC", "operator": "BMTC", "public_transport": "platform"}}, {"type": "node", "id": 6808256113, "lat": 13.0593002, "lon": 77.5078232}, {"type": "node", "id": 6808256115, "lat": 13.0588479, "lon": 77.507563}, {"type": "node", "id": 6808256116, "lat": 13.0588452, "lon": 77.507818}, {"type": "node", "id": 7104383847, "lat": 13.0752231, "lon": 77.4359693, "tags": {"bus": "yes", "name": "Dasanapura", "name:en": "Dasanapura", "name:kn": "\u0ca6\u0cbe\u0cb8\u0ca8\u0caa\u0cc1\u0cb0", "network": "BMTC", "operator": "BMTC", "public_transport": "stop_position"}}, {"type": "node", "id": 7104383848, "lat": 13.0704325, "lon": 77.4446098, "tags": {"bus": "yes", "name": "Adakimaranahalli", "name:en": "Adakimaranahalli", "name:kn": "\u0c85\u0ca1\u0c95\u0cbf\u0cae\u0cbe\u0cb0\u0ca8\u0cb9\u0cb3\u0ccd\u0cb3\u0cbf", "network": "BMTC", "operator": "BMTC", "public_transport": "stop_position"}}, {"type": "node", "id": 7104383849, "lat": 13.0655763, "lon": 77.4533629, "tags": {"bus": "yes", "name": "Makali", "name:en": "Makali", "name:kn": "\u0cae\u0cbe\u0c95\u0cb3\u0cbf", "network": "BMTC", "operator": "BMTC", "public_transport": "stop_position"}}, {"type": "node", "id": 7104383851, "lat": 13.0586556, "lon": 77.4661576, "tags": {"bus": "yes", "name": "TCI", "name:en": "TCI", "network": "BMTC", "operator": "BMTC", "public_transport": "stop_position"}}, {"type": "node", "id": 7104383853, "lat": 13.0533848, "lon": 77.4838733, "tags": {"bus": "yes", "name": "Jindal", "name:en": "Jindal", "name:kn": "\u0c9c\u0cbf\u0c82\u0ca6\u0cbe\u0cb2\u0ccd", "network": "BMTC", "operator": "BMTC", "public_transport": "stop_position"}}, {"type": "node", "id": 7104383854, "lat": 13.0519868, "lon": 77.4877334, "tags": {"bus": "yes", "name": "Chikkabidarakallu", "name:en": "Chikkabidarakallu", "name:kn": "\u0c9a\u0cbf\u0c95\u0ccd\u0c95\u0cac\u0cbf\u0ca6\u0cb0\u0c95\u0cb2\u0ccd\u0cb2\u0cc1", "network": "BMTC", "operator": "BMTC", "public_transport": "stop_position"}}, {"type": "node", "id": 7104383855, "lat": 13.0504696, "lon": 77.4918957, "tags": {"bus": "yes", "name": "Marison Factory", "name:en": "Marison Factory", "network": "BMTC", "operator": "BMTC", "public_transport": "stop_position"}}, {"type": "node", "id": 7104383856, "lat": 13.0487077, "lon": 77.4967246, "tags": {"bus": "yes", "name": "Widia School", "name:en": "Widia School", "network": "BMTC", "operator": "BMTC", "public_transport": "stop_position"}}, {"type": "node", "id": 7104383857, "lat": 13.0470518, "lon": 77.5016669, "tags": {"bus": "yes", "name": "Deepak Factory", "name:en": "Deepak Factory", "network": "BMTC", "operator": "BMTC", "public_transport": "stop_position"}}, {"type": "node", "id": 7104383858, "lat": 13.0450988, "lon": 77.5077129, "tags": {"bus": "yes", "name": "8th Mile Dasarahalli", "name:en": "8th Mile Dasarahalli", "name:kn": "\u0cee\u0ca8\u0cc7 \u0cae\u0cc8\u0cb2\u0cbf \u0ca6\u0cbe\u0cb8\u0cb0\u0cb9\u0cb3\u0ccd\u0cb3\u0cbf", "network": "BMTC", "operator": "BMTC", "public_transport": "stop_position"}}, {"type": "node", "id": 7104383859, "lat": 13.0428164, "lon": 77.5129775, "tags": {"bus": "yes", "name": "T Dasarahalli", "name:en": "T Dasarahalli", "name:kn": "\u0c9f\u0cbf \u0ca6\u0cbe\u0cb8\u0cb0\u0cb9\u0cb3\u0ccd\u0cb3\u0cbf", "network": "BMTC", "operator": "BMTC", "public_transport": "stop_position"}}, {"type": "node", "id": 7104383860, "lat": 13.0385863, "lon": 77.520642, "tags": {"bus": "yes", "name": "Jalahalli Cross", "name:en": "Jalahalli Cross", "name:kn": "\u0c9c\u0cbe\u0cb2\u0cb9\u0cb3\u0ccd\u0cb3\u0cbf \u0c95\u0ccd\u0cb0\u0cbe\u0cb8\u0ccd", "network": "BMTC", "operator": "BMTC", "public_transport": "stop_position"}}, {"type": "node", "id": 7104383861, "lat": 13.0384932, "lon": 77.520588, "tags": {"highway": "bus_stop", "loc_name": "PEENYA INDUSTRIAL AREA", "name": "Jalahalli Cross", "name:en": "Jalahalli Cross", "name:kn": "\u0c9c\u0cbe\u0cb2\u0cb9\u0cb3\u0ccd\u0cb3\u0cbf \u0c95\u0ccd\u0cb0\u0cbe\u0cb8\u0ccd", "network": "BMTC", "operator": "BMTC", "public_transport": "platform"}}, {"type": "node", "id": 7104434958, "lat": 13.0753112, "lon": 77.5046108, "tags": {"bus": "yes", "name": "Chikka Banawara Railway Gate", "name:en": "Chikka Banawara Railway Gate", "name:kn": "\u0c9a\u0cbf\u0c95\u0ccd\u0c95\u0cac\u0cbe\u0ca3\u0cbe\u0cb5\u0cb0", "network": "BMTC", "operator": "BMTC", "public_transport": "stop_position"}}, {"type": "node", "id": 7104434959, "lat": 13.0711347, "lon": 77.5038028, "tags": {"name": "Sapthagiri Hospital", "name:en": "Sapthagiri Hospital", "name:kn": "\u0cb8\u0caa\u0ccd\u0ca4\u0c97\u0cbf\u0cb0\u0cbf \u0c86\u0cb8\u0ccd\u0caa\u0ca4\u0ccd\u0cb0\u0cc6", "network": "BMTC", "operator": "BMTC", "public_transport": "platform"}},