{"version": 0.6, "generator": "Overpass API 0.7.62.8 e802775f", "osm3s": {"timestamp_osm_base": "2026-01-11T09:55:48Z", "copyright": "The data included in this document is from www.openstreetmap.org. The data is made available under ODbL."}, "elements": [{"type": "node", "id": 42428370, "lat": 40.7077691, "lon": -74.0117237, "tags": {"highway": "traffic_signals", "traffic_signals": "signal", "traffic_signals:direction": "forward"}}, {"type": "node", "id": 42436701, "lat": 40.7597325, "lon": -73.974231, "tags": {"highway": "traffic_signals"}}, {"type": "node", "id": 42448838, "lat": 40.7616784, "lon": -73.9498417, "tags": {"bus": "yes", "public_transport": "stop_position"}}, {"type": "node", "id": 42735668, "lat": 40.8108388, "lon": -73.9269606, "tags": {"name": "3rd Avenue\u2013138th Street", "network": "NYC Subway", "operator": "New York City Transit Authority", "public_transport": "stop_position", "railway": "stop", "subway": "yes", "wheelchair": "no"}}, {"type": "node", "id": 42885757, "lat": 40.7431175, "lon": -73.9196503, "tags": {"highway": "traffic_signals", "traffic_signals": "signal"}}, {"type": "node", "id": 66331480, "lat": 40.7347745, "lon": -74.0279703, "tags": {"name": "Hoboken Terminal", "network": "NJ Transit", "public_transport": "stop_position", "railway": "buffer_stop", "train": "yes"}}, {"type": "node", "id": 100515086, "lat": 40.7530803, "lon": -73.9769948, "tags": {"name": "Grand Central Terminal", "network": "Metro-North Railroad", "operator": "Metro-North Commuter Railroad", "operator:wikidata": "Q125908", "public_transport": "stop_position", "railway": "buffer_stop", "train": "yes"}}, {"type": "node", "id": 103856238, "lat": 40.7350962, "lon": -74.0279784, "tags": {"name": "Hoboken Terminal", "network": "NJ Transit", "operator": "New Jersey Transit", "public_transport": "stop_position", "railway": "buffer_stop", "train": "yes"}}, {"type": "node", "id": 103857996, "lat": 40.7340617, "lon": -74.0291615}, {"type": "node", "id": 103858028, "lat": 40.7347369, "lon": -74.0279693, "tags": {"name": "Hoboken Terminal", "network": "NJ Transit", "public_transport": "stop_position", "railway": "buffer_stop", "train": "yes"}}, {"type": "node", "id": 103860550, "lat": 40.7348949, "lon": -74.0279733, "tags": {"name": "Hoboken Terminal", "network": "NJ Transit", "operator": "New Jersey Transit", "operator:wikidata": "Q498553", "public_transport": "stop_position", "railway": "buffer_stop", "train": "yes"}}, {"type": "node", "id": 103885536, "lat": 40.7345383, "lon": -74.0279644, "tags": {"name": "Hoboken Terminal", "network": "NJ Transit", "operator": "New Jersey Transit", "public_transport": "stop_position", "railway": "buffer_stop", "train": "yes"}}, {"type": "node", "id": 103885770, "lat": 40.7353263, "lon": -74.0287397, "tags": {"name": "Hoboken Terminal", "network": "NJ Transit", "operator": "New Jersey Transit", "public_transport": "stop_position", "railway": "buffer_stop", "train": "yes"}}, {"type": "node", "id": 199276809, "lat": 40.7529003, "lon": -74.0225255, "tags": {"amenity": "ferry_terminal", "ferry": "yes", "name": "Hoboken 14th Street", "public_transport": "stop_position"}}, {"type": "node", "id": 246167741, "lat": 40.7573715, "lon": -73.954239, "tags": {"aerialway": "yes", "name": "Roosevelt Island", "network": "Roosevelt Island Tramway", "operator": "Leitner-Poma", "public_transport": "stop_position"}}, {"type": "node", "id": 260302471, "lat": 40.7943793, "lon": -73.9719996, "tags": {"internet_access": "wlan", "internet_access:fee": "no", "level": "-2", "name": "96th Street", "name:en": "96th Street", "name:ru": "96-\u044f \u0441\u0442\u0440\u0438\u0442", "network": "NYC Subway", "opening_hours": "24/7", "operator": "New York City Transit Authority", "public_transport": "station", "railway": "station", "railway:ref": "310", "short_name": "96 St", "station": "subway", "subway": "yes", "wheelchair": "yes", "wikidata": "Q2076201", "wikipedia": "en:96th Street station (IRT Broadway\u2013Seventh Avenue Line)"}}, {"type": "node", "id": 276319410, "lat": 40.7415095, "lon": -73.9569751, "tags": {"addr:city": "Long Island City", "addr:state": "NY", "addr:street": "Borden Avenue", "name": "Long Island City", "network": "LIRR", "operator": "Long Island Railroad", "public_transport": "station", "railway": "station", "railway:ref": "LIC", "train": "yes", "wikidata": "Q6672667", "wikipedia": "en:Long Island City station"}}, {"type": "node", "id": 276319527, "lat": 40.7464555, "lon": -73.9454525, "tags": {"level": "2", "name": "Court Square", "network": "NYC Subway", "opening_hours": "24/7", "operator": "New York City Transit Authority", "public_transport": "station", "railway": "station", "railway:ref": "462", "short_name": "Court Sq", "station": "subway", "subway": "yes", "wheelchair": "yes", "wikidata": "Q2611918", "wikipedia": "en:Court Square\u201323rd Street station"}}, {"type": "node", "id": 277046860, "lat": 40.7446199, "lon": -73.9312304, "tags": {"level": "2", "name": "33rd Street\u2013Rawson Street", "network": "NYC Subway", "opening_hours": "24/7", "operator": "New York City Transit Authority", "public_transport": "station", "railway": "station", "railway:ref": "460", "short_name": "33 St\u2013Rawson St", "station": "subway", "subway": "yes", "wheelchair": "no", "wikidata": "Q2611936", "wikipedia": "en:33rd Street\u2013Rawson Street station"}}, {"type": "node", "id": 277046861, "lat": 40.7438431, "lon": -73.9244296, "tags": {"level": "2", "name": "40th Street\u2013Lowery Street", "network": "NYC Subway", "note": "no in-station transfer between platforms", "opening_hours": "24/7", "operator": "New York City Transit Authority", "public_transport": "station", "railway": "station", "railway:ref": "459", "short_name": "40 St\u2013Lowery St", "station": "subway", "subway": "yes", "wheelchair": "no", "wikidata": "Q1943858", "wikipedia": "en:40th Street\u2013Lowery Street station"}}, {"type": "node", "id": 277046862, "lat": 40.7431184, "lon": -73.9182509, "tags": {"level": "2", "name": "46th Street\u2013Bliss Street", "network": "NYC Subway", "opening_hours": "24/7", "operator": "New York City Transit Authority", "public_transport": "station", "railway": "station", "railway:ref": "458", "short_name": "46 St\u2013Bliss St", "station": "subway", "subway": "yes", "wheelchair": "no", "wikidata": "Q2328273", "wikipedia": "en:46th Street\u2013Bliss Street station"}}, {"type": "node", "id": 277047076, "lat": 40.744065, "lon": -73.949724, "tags": {"addr:city": "New York", "addr:postcode": "11101", "addr:state": "NY", "gtfs_stop_code": "G24", "internet_access": "yes", "level": "-2", "name": "21st Street", "name:es": "Calle 21 (l\u00ednea Crosstown)", "name:nl": "21st Street (Crosstown Line)", "name:pl": "21st Street", "name:ru": "21-\u044f \u0443\u043b\u0438\u0446\u0430 (\u043b\u0438\u043d\u0438\u044f \u041a\u0440\u043e\u0441\u0441\u0442\u0430\u0443\u043d, \u0410\u0439-\u044d\u043d-\u0434\u0438)", "network": "NYC Subway", "opening_hours": "24/7", "operator": "New York City Transit Authority", "public_transport": "station", "railway": "station", "railway:ref": "282", "short_name": "21 St", "source": "http://mta.info/nyct/service/gline.htm", "start_date": "1933-08-19", "station": "subway", "subway": "yes", "wheelchair": "no", "wikidata": "Q2236599", "wikimedia_commons": "Category:21st Street (IND Crosstown Line)", "wikipedia": "en:21st Street station (IND Crosstown Line)"}}, {"type": "node", "id": 280869879, "lat": 40.7065044, "lon": -73.952477, "tags": {"name": "Hewes Street", "network": "NYC Subway", "operator": "New York City Transit Authority", "public_transport": "stop_position", "railway": "stop", "subway": "yes", "wheelchair": "no"}}, {"type": "node", "id": 293337366, "lat": 40.7487716, "lon": -74.0386679, "tags": {"light_rail": "yes", "name": "9th Street\u2013Congress Street", "network": "Hudson-Bergen Light Rail", "network:short": "HBLR", "operator": "New Jersey Transit", "operator:wikidata": "Q498553", "public_transport": "stop_position", "railway": "stop", "wheelchair": "yes"}}, {"type": "node", "id": 294081606, "lat": 40.7415132, "lon": -74.0428684, "tags": {"light_rail": "yes", "name": "2nd Street", "network": "Hudson-Bergen Light Rail", "network:short": "HBLR", "network:wikidata": "Q1357874", "operator": "New Jersey Transit", "operator:wikidata": "Q498553", "public_transport": "stop_position", "railway": "stop", "wheelchair": "yes"}}, {"type": "node", "id": 294081607, "lat": 40.7419969, "lon": -74.0426515}, {"type": "node", "id": 294081609, "lat": 40.7419882, "lon": -74.0426172}, {"type": "node", "id": 294081610, "lat": 40.7414055, "lon": -74.0427808}, {"type": "node", "id": 294081611, "lat": 40.7414101, "lon": -74.0428158}, {"type": "node", "id": 294081612, "lat": 40.7420136, "lon": -74.0427829}, {"type": "node", "id": 294081613, "lat": 40.7420055, "lon": -74.0427433}, {"type": "node", "id": 294081614, "lat": 40.7414233, "lon": -74.0429183}, {"type": "node", "id": 294081617, "lat": 40.7414299, "lon": -74.0429526}, {"type": "node", "id": 295870178, "lat": 40.7194979, "lon": -74.0339995, "tags": {"asset_ref": "30832", "light_rail": "yes", "name": "Harborside Financial Center", "network": "Hudson-Bergen Light Rail", "network:short": "HBLR", "network:wikidata": "Q1357874", "operator": "New Jersey Transit", "operator:short": "NJT", "operator:wikidata": "Q498553", "public_transport": "station", "railway": "station", "station": "light_rail", "wheelchair": "yes", "wikidata": "Q5654755"}}, {"type": "node", "id": 295870180, "lat": 40.7160215, "lon": -74.0341139, "tags": {"asset_ref": "30833", "light_rail": "yes", "name": "Exchange Place", "network": "Hudson-Bergen Light Rail", "network:short": "HBLR", "network:wikidata": "Q1357874", "not:network:wikidata": "Q498553", "operator": "New Jersey Transit", "operator:short": "NJT", "operator:wikidata": "Q498553", "public_transport": "station", "railway": "station", "station": "light_rail", "toilets:wheelchair": "yes", "wheelchair": "yes", "wikidata": "Q5419581"}}, {"type": "node", "id": 295870181, "lat": 40.7128648, "lon": -74.0359523, "tags": {"asset_ref": "30834", "light_rail": "yes", "name": "Essex Street", "network": "Hudson-Bergen Light Rail", "network:short": "HBLR", "network:wikidata": "Q1357874", "operator": "New Jersey Transit", "operator:short": "NJT", "operator:wikidata": "Q498553", "public_transport": "station", "railway": "station", "station": "light_rail", "wheelchair": "yes", "wikidata": "Q5399808"}}, {"type": "node", "id": 295870188, "lat": 40.7144578, "lon": -74.0432714, "tags": {"asset_ref": "30835", "light_rail": "yes", "name": "Marin Boulevard", "network": "Hudson-Bergen Light Rail", "network:short": "HBLR", "network:wikidata": "Q1357874", "operator": "New Jersey Transit", "operator:short": "NJT", "operator:wikidata": "Q498553", "public_transport": "station", "railway": "station", "station": "light_rail", "wheelchair": "yes", "wikidata": "Q6763695"}}, {"type": "node", "id": 295870189, "lat": 40.7150055, "lon": -74.048499, "tags": {"light_rail": "yes", "name": "Jersey Avenue", "network": "Hudson-Bergen Light Rail", "network:short": "HBLR", "network:wikidata": "Q1357874", "operator": "New Jersey Transit", "operator:wikidata": "Q498553", "public_transport": "stop_position", "railway": "stop", "wheelchair": "yes"}}, {"type": "node", "id": 295870191, "lat": 40.7103247, "lon": -74.0559652, "tags": {"asset_ref": "30837", "light_rail": "yes", "name": "Liberty State Park", "network": "Hudson-Bergen Light Rail", "network:short": "HBLR", "network:wikidata": "Q1357874", "operator": "New Jersey Transit", "operator:short": "NJT", "operator:wikidata": "Q498553", "public_transport": "station", "railway": "station", "station": "light_rail", "wheelchair": "yes", "wikidata": "Q6541967"}}, {"type": "node", "id": 295870203, "lat": 40.7616597, "lon": -74.0239144, "tags": {"light_rail": "yes", "name": "Lincoln Harbor", "network": "Hudson-Bergen Light Rail", "network:short": "HBLR", "network:wikidata": "Q1357874", "operator": "New Jersey Transit", "operator:short": "NJT", "operator:wikidata": "Q498553", "public_transport": "stop_position", "railway": "stop", "wheelchair": "yes"}}, {"type": "node", "id": 297112167, "lat": 40.7356775, "lon": -74.0288095}, {"type": "node", "id": 297112168, "lat": 40.7354847, "lon": -74.0287995}, {"type": "node", "id": 297112169, "lat": 40.7354827, "lon": -74.0291925}, {"type": "node", "id": 297112170, "lat": 40.7355904, "lon": -74.0291929}, {"type": "node", "id": 297112171, "lat": 40.7357466, "lon": -74.0291999}, {"type": "node", "id": 297112172, "lat": 40.7357456, "lon": -74.0292102, "tags": {"level": "0", "operator": "PATH", "railway": "subway_entrance", "wheelchair": "no"}}, {"type": "node", "id": 297112173, "lat": 40.7357201, "lon": -74.0290279, "tags": {"level": "0", "operator": "PATH", "railway": "subway_entrance"}}, {"type": "node", "id": 297112174, "lat": 40.7356889, "lon": -74.0292143}, {"type": "node", "id": 297112175, "lat": 40.7353971, "lon": -74.0280997, "tags": {"level": "0", "operator": "PATH", "railway": "subway_entrance", "wheelchair": "no"}}, {"type": "node", "id": 297112176, "lat": 40.7354182, "lon": -74.027737, "tags": {"level": "0", "operator": "PATH", "railway": "subway_entrance"}}, {"type": "node", "id": 297886478, "lat": 40.7188122, "lon": -74.0410855, "tags": {"level": "0", "name": "Grove Street", "railway": "subway_entrance"}}, {"type": "node", "id": 297886480, "lat": 40.7168386, "lon": -74.0325181, "tags": {"level": "0", "railway": "subway_entrance", "wheelchair": "no"}}, {"type": "node", "id": 297886481, "lat": 40.7164854, "lon": -74.0331915, "tags": {"level": "0", "railway": "subway_entrance", "wheelchair": "yes"}}, {"type": "node", "id": 320949338, "lat": 40.7574195, "lon": -73.9539143, "tags": {"bus": "yes", "highway": "bus_stop", "local_ref": "Tram Bus Stop", "name": "Subway Station East", "operator": "Roosevelt Island Operating Corporation", "public_transport": "platform", "shelter": "no"}}, {"type": "node", "id": 348548369, "lat": 40.7634713, "lon": -73.9779776, "tags": {"description": "all F,<F> trains", "level": "0", "name": "6th Avenue & 56th Street at Southwest Corner", "railway": "subway_entrance", "wheelchair": "no"}}, {"type": "node", "id": 348548387, "lat": 40.7633776, "lon": -73.9777285, "tags": {"description": "all F,<F> trains", "level": "0", "name": "6th Avenue & 56th Street at Southeast Corner", "railway": "subway_entrance", "wheelchair": "no"}}, {"type": "node", "id": 371023226, "lat": 40.7611736, "lon": -73.9643815}, {"type": "node", "id": 371023227, "lat": 40.7613365, "lon": -73.9642638}, {"type": "node", "id": 371023228, "lat": 40.7612537, "lon": -73.964064}, {"type": "node", "id": 371023229, "lat": 40.7610916, "lon": -73.9641811}, {"type": "node", "id": 371023428, "lat": 40.7611744, "lon": -73.964122, "tags": {"aerialway": "yes", "layer": "1", "level": "1", "name": "Manhattan", "network": "Roosevelt Island Tramway", "operator": "Leitner-Poma", "public_transport": "stop_position"}}, {"type": "node", "id": 401505767, "lat": 40.7399664, "lon": -74.0026612, "tags": {"description": "all A,C,E,L trains", "level": "0", "railway": "subway_entrance", "wheelchair": "no"}}, {"type": "node", "id": 402612886, "lat": 40.739952, "lon": -74.0027385, "tags": {"description": "all A,C,E,L trains", "highway": "elevator", "level": "-1;0", "railway": "subway_entrance", "wheelchair": "yes"}}, {"type": "node", "id": 402613531, "lat": 40.7397435, "lon": -74.0028109, "tags": {"description": "all A,C,E,L trains", "level": "0", "railway": "subway_entrance", "wheelchair": "no"}}, {"type": "node", "id": 402614163, "lat": 40.7395566, "lon": -74.0023735, "tags": {"description": "all A,C,E,L trains", "level": "0", "railway": "subway_entrance", "wheelchair": "no"}}, {"type": "node", "id": 402614605, "lat": 40.7397798, "lon": -74.0022246, "tags": {"description": "all A,C,E,L trains", "level": "0", "railway": "subway_entrance", "wheelchair": "no"}}, {"type": "node", "id": 410162266, "lat": 40.7045091, "lon": -74.0140946, "tags": {"addr:city": "New York", "addr:postcode": "10004", "addr:state": "NY", "addr:street": "Bowling Green", "check_date": "2023-11-28", "description": "The Bowling Green station is a station on the IRT Lexington Avenue Line of the New York City Subway, located at Broadway and Battery Place (at Bowling Green), in the Financial District of Manhattan. It is served by the 4 and 5 trains.", "level": "-1", "name": "Bowling Green", "network": "NYC Subway", "opening_hours": "24/7", "operator": "New York City Transit Authority", "public_transport": "station", "railway": "station", "railway:ref": "414", "start_date": "1905-07-10", "station": "subway", "subway": "yes", "wheelchair": "yes", "wikidata": "Q2612221", "wikipedia": "en:Bowling Green station"}}, {"type": "node", "id": 419363225, "lat": 40.7185759, "lon": -73.9451412, "tags": {"bench": "yes", "bus": "yes", "covered": "yes", "highway": "bus_stop", "name": "Graham Avenue & Richardson Street", "network": "NYC Transit", "network:wikidata": "Q1325591", "operator": "Metropolitan Transportation Authority", "operator:short": "MTA", "public_transport": "platform", "ref": "305301", "route_ref": "B43", "shelter": "yes"}}, {"type": "node", "id": 419367181, "lat": 40.7454339, "lon": -73.9775952, "tags": {"bench": "no", "bus": "yes", "highway": "bus_stop", "name": "East 34th Street & 3rd Avenue", "public_transport": "platform", "shelter": "no"}}, {"type": "node", "id": 457747471, "lat": 40.706092, "lon": -73.950308, "tags": {"gtfs_stop_code": "G30", "level": "-2", "name": "Broadway", "name:zh": "\u767e\u8001\u6c47", "name:zh-Hans": "\u767e\u8001\u6c47", "network": "NYC Subway", "opening_hours": "24/7", "operator": "New York City Transit Authority", "platforms": "2", "public_transport": "station", "railway": "station", "railway:ref": "286", "source": "http://mta.info/nyct/service/gline.htm", "station": "subway", "subway": "yes", "wheelchair": "no", "wikidata": "Q254416", "wikipedia": "en:Broadway station (IND Crosstown Line)"}}, {"type": "node", "id": 462004948, "lat": 40.7794939, "lon": -73.9555295, "tags": {"internet_access": "wlan", "internet_access:fee": "no", "level": "-2;-1", "name": "86th Street", "network": "NYC Subway", "note": "no in-station transfer between platforms", "opening_hours": "24/7", "operator": "New York City Transit Authority", "public_transport": "station", "railway": "station", "railway:ref": "397", "short_name": "86 St", "station": "subway", "subway": "yes", "wheelchair": "limited", "wikidata": "Q2612205", "wikipedia": "en:86th Street station (IRT Lexington Avenue Line)"}}, {"type": "node", "id": 477284505, "lat": 40.7573846, "lon": -73.9932168}, {"type": "node", "id": 477284535, "lat": 40.7574639, "lon": -73.9931589}, {"type": "node", "id": 477284549, "lat": 40.7575515, "lon": -73.993095}, {"type": "node", "id": 479847988, "lat": 40.7119711, "lon": -73.9406949, "tags": {"level": "-1", "name": "Grand Street", "name:es": "Grand Street (l\u00ednea Canarsie)", "name:nl": "Grand Street (Canarsie Line)", "name:pl": "Grand Street (BMT Canarsie Line)", "name:ru": "\u0413\u0440\u0430\u043d\u0434-\u0441\u0442\u0440\u0438\u0442 (\u043b\u0438\u043d\u0438\u044f \u041a\u0430\u043d\u0430\u0440\u0441\u0438, \u0411\u0438-\u044d\u043c-\u0442\u0438)", "network": "NYC Subway", "note": "no in-station transfer between platforms", "opening_hours": "24/7", "operator": "New York City Transit Authority", "public_transport": "station", "railway": "station", "railway:ref": "123", "short_name": "Grand St", "station": "subway", "subway": "yes", "wheelchair": "no", "wikidata": "Q2617303", "wikipedia": "en:Grand Street station (BMT Canarsie Line)"}}, {"type": "node", "id": 479847989, "lat": 40.7076636, "lon": -73.9398247, "tags": {"level": "-2", "name": "Montrose Avenue", "network": "NYC Subway", "opening_hours": "24/7", "operator": "New York City Transit Authority", "public_transport": "station", "railway": "station", "railway:ref": "124", "short_name": "Montrose Av", "station": "subway", "subway": "yes", "wheelchair": "no", "wikidata": "Q1873173", "wikipedia": "en:Montrose Avenue station"}}, {"type": "node", "id": 494509181, "lat": 40.7239476, "lon": -73.991277, "tags": {"description": "all F,<F> trains", "level": "0", "name": "Second Ave (F,V)", "railway": "subway_entrance", "wheelchair": "no"}}, {"type": "node", "id": 494509182, "lat": 40.7236744, "lon": -73.9916589, "tags": {"description": "all F,<F> trains", "level": "0", "name": "Second Ave (F,V)", "railway": "subway_entrance", "wheelchair": "no"}}, {"type": "node", "id": 519550768, "lat": 40.7339037, "lon": -74.0291506}, {"type": "node", "id": 544355306, "lat": 40.7433137, "lon": -73.9840753, "tags": {"addr:city": "New York", "addr:postcode": "10016", "addr:state": "NY", "internet_access": "wlan", "level": "-1", "name": "28th Street", "network": "NYC Subway", "note": "no in-station transfer between platforms", "opening_hours": "24/7", "operator": "New York City Transit Authority", "public_transport": "station", "railway": "station", "railway:ref": "404", "short_name": "28 St", "start_date": "1904-10-27", "station": "subway", "subway": "yes", "wheelchair": "limited", "wikidata": "Q939753", "wikimedia_commons": "Category:28th Street (IRT Lexington Avenue Line)", "wikipedia": "en:28th Street station (IRT Lexington Avenue Line)"}}, {"type": "node", "id": 544355308, "lat": 40.7433175, "lon": -73.9843613, "tags": {"description": "6,<6> trains Downtown", "level": "0", "railway": "subway_entrance", "wheelchair": "no"}}, {"type": "node", "id": 544355596, "lat": 40.7357611, "lon": -73.9906491, "tags": {"gtfs_stop_code": "R20", "level": "-2", "name": "14th Street\u2013Union Square", "network": "NYC Subway", "opening_hours": "24/7", "operator": "New York City Transit Authority", "public_transport": "station", "railway": "station", "railway:ref": "15", "short_name": "14 St\u2013Union Sq", "station": "subway", "subway": "yes", "wheelchair": "yes", "wikidata": "Q2631031", "wikipedia": "en:14th Street\u2013Union Square station"}}, {"type": "node", "id": 544355768, "lat": 40.745494, "lon": -73.988691, "tags": {"addr:city": "New York", "addr:postcode": "10001", "addr:state": "NY", "gtfs_stop_code": "R18", "internet_access": "wlan", "level": "-1", "name": "28th Street", "network": "NYC Subway", "note": "no in-station transfer between platforms", "opening_hours": "24/7", "operator": "New York City Transit Authority", "public_transport": "station", "railway": "station", "railway:ref": "13", "short_name": "28 St", "start_date": "1918-01-05", "station": "subway", "subway": "yes", "wheelchair": "no", "wikidata": "Q1924691", "wikimedia_commons": "Category:28th Street (BMT Broadway Line)", "wikipedia": "en:28th Street station (BMT Broadway Line)"}}, {"type": "node", "id": 591990185, "lat": 40.7196811, "lon": -74.0433766, "tags": {"name": "Grove Street", "network": "PATH", "operator": "Port Authority of New York and New Jersey", "operator:wikidata": "Q908666", "public_transport": "stop_position", "railway": "stop", "subway": "yes"}}, {"type": "node", "id": 591990356, "lat": 40.725606, "lon": -74.035593, "tags": {"name": "Newport", "network": "PATH", "operator": "Port Authority of New York and New Jersey", "operator:wikidata": "Q908666", "public_transport": "stop_position", "railway": "stop", "subway": "yes"}}, {"type": "node", "id": 591990999, "lat": 40.7558838, "lon": -74.0018288, "tags": {"name": "34th Street\u2013Hudson Yards", "network": "NYC Subway", "operator": "New York City Transit Authority", "public_transport": "stop_position", "railway": "stop", "subway": "yes", "wheelchair": "yes"}}, {"type": "node", "id": 591991023, "lat": 40.7401285, "lon": -74.0032383, "tags": {"name": "8th Avenue", "network": "NYC Subway", "operator": "New York City Transit Authority", "public_transport": "stop_position", "railway": "stop", "subway": "yes", "wheelchair": "yes"}}, {"type": "node", "id": 591995252, "lat": 40.718092, "lon": -73.999892, "tags": {"gtfs_stop_code": "M20", "level": "-1", "name": "Canal Street", "network": "NYC Subway", "opening_hours": "24/7", "operator": "New York City Transit Authority", "public_transport": "station", "railway": "station", "railway:ref": "104", "short_name": "Canal St", "station": "subway", "subway": "yes", "wheelchair": "no", "wikidata": "Q2431462", "wikipedia": "en:Canal Street station (New York City Subway)"}}, {"type": "node", "id": 591995262, "lat": 40.7188749, "lon": -74.0011072, "tags": {"gtfs_stop_code": "Q01", "level": "-3", "name": "Canal Street", "network": "NYC Subway", "operator": "New York City Transit Authority", "public_transport": "stop_position", "railway": "stop", "railway:ref": "19", "short_name": "Canal St", "station": "subway", "subway": "yes", "wheelchair": "no", "wikidata": "Q2431462", "wikipedia": "en:Canal Street station (New York City Subway)#Bridge Line platforms (lower level)"}}, {"type": "node", "id": 591995518, "lat": 40.725297, "lon": -73.996204, "tags": {"gtfs_stop_code": "D21", "level": "-3", "name": "Broadway\u2013Lafayette Street", "network": "NYC Subway", "opening_hours": "24/7", "operator": "New York City Transit Authority", "public_transport": "station", "railway": "station", "railway:ref": "230", "short_name": "B\u2019way\u2013Lafayette St", "station": "subway", "subway": "yes", "wheelchair": "yes", "wikidata": "Q3498651", "wikipedia": "en:Broadway\u2013Lafayette Street/Bleecker Street station"}}, {"type": "node", "id": 591996260, "lat": 40.7324996, "lon": -73.9853429, "tags": {"name": "3rd Avenue", "network": "NYC Subway", "operator": "New York City Transit Authority", "public_transport": "stop_position", "railway": "stop", "subway": "yes", "wheelchair": "no"}}, {"type": "node", "id": 591996634, "lat": 40.7140669, "lon": -73.9510779, "tags": {"name": "Lorimer Street", "network": "NYC Subway", "operator": "New York City Transit Authority", "public_transport": "stop_position", "railway": "stop", "subway": "yes", "wheelchair": "no"}}, {"type": "node", "id": 591996968, "lat": 40.7062248, "lon": -73.9326982, "tags": {"level": "-2", "name": "Morgan Avenue", "network": "NYC Subway", "opening_hours": "24/7", "operator": "New York City Transit Authority", "public_transport": "station", "railway": "station", "railway:ref": "125", "short_name": "Morgan Av", "station": "subway", "subway": "yes", "wheelchair": "no", "wikidata": "Q2227502", "wikipedia": "en:Morgan Avenue station"}}, {"type": "node", "id": 591997164, "lat": 40.717852, "lon": -73.9576483, "tags": {"name": "Bedford Avenue", "network": "NYC Subway", "operator": "New York City Transit Authority", "public_transport": "stop_position", "railway": "stop", "subway": "yes", "wheelchair": "no"}}, {"type": "node", "id": 591997397, "lat": 40.7535241, "lon": -73.9851003, "tags": {"name": "42nd Street\u2013Bryant Park", "network": "NYC Subway", "operator": "New York City Transit Authority", "public_transport": "stop_position", "railway": "stop", "subway": "yes", "wheelchair": "no"}}, {"type": "node", "id": 591997437, "lat": 40.7556963, "lon": -73.9859078, "tags": {"name": "Times Square", "network": "NYC Subway", "opening_hours": "24/7", "operator": "New York City Transit Authority", "public_transport": "stop_position", "railway": "stop", "subway": "yes", "wheelchair": "yes"}}, {"type": "node", "id": 591997500, "lat": 40.755499, "lon": -73.986466, "tags": {"name": "Times Square\u201342nd Street", "network": "NYC Subway", "operator": "New York City Transit Authority", "public_transport": "stop_position", "railway": "stop", "subway": "yes", "wheelchair": "yes"}}, {"type": "node", "id": 591997635, "lat": 40.7537434, "lon": -73.9819002, "tags": {"departures_board": "realtime", "departures_board:speech_output": "no", "gtfs_stop_code": "724", "level": "-4", "name": "5th Avenue", "network": "NYC Subway", "network:wikidata": "Q7733", "opening_hours": "24/7", "operator": "New York City Transit Authority", "operator:wikidata": "Q1146109", "owner": "City of New York", "owner:wikidata": "Q60", "public_transport": "station", "railway": "station", "railway:ref": "466", "short_name": "5 Av", "station": "subway", "subway": "yes", "wheelchair": "no", "wikidata": "Q2982388", "wikipedia": "en:42nd Street\u2013Bryant Park/Fifth Avenue station"}}, {"type": "node", "id": 591997657, "lat": 40.7517716, "lon": -73.9768249, "tags": {"departures_board": "realtime", "departures_board:speech_output": "no", "gtfs_stop_code": "631", "level": "-2", "name": "Grand Central\u201342nd Street", "network": "NYC Subway", "network:wikidata": "Q7733", "opening_hours": "24/7", "operator": "New York City Transit Authority", "operator:wikidata": "Q1146109", "owner": "City of New York", "owner:wikidata": "Q60", "payment:omny": "yes", "public_transport": "station", "railway": "station", "railway:ref": "402", "short_name": "Grand Central\u201342 St", "station": "subway", "subway": "yes", "wheelchair": "yes", "wikidata": "Q2982151", "wikipedia": "en:Grand Central\u201342nd Street station"}}, {"type": "node", "id": 591997974, "lat": 40.7518499, "lon": -73.9759238, "tags": {"name": "Grand Central\u201342nd Street", "network": "NYC Subway", "public_transport": "stop_position", "railway": "stop", "subway": "yes", "wheelchair": "yes"}}, {"type": "node", "id": 591998010, "lat": 40.7581701, "lon": -73.9704002, "tags": {"internet_access": "wlan", "internet_access:fee": "no", "name": "53rd Street\u2013Lexington Avenue", "network": "NYC Subway", "opening_hours": "24/7", "operator": "New York City Transit Authority", "public_transport": "stop_position", "railway": "stop", "subway": "yes", "wheelchair": "yes"}}, {"type": "node", "id": 591998702, "lat": 40.7648269, "lon": -73.9726747, "tags": {"level": "-2", "name": "5th Avenue\u201359th Street", "network": "NYC Subway", "network:wikidata": "Q7733", "opening_hours": "24/7", "operator": "New York City Transit Authority", "operator:wikidata": "Q1146109", "owner": "City of New York", "owner:wikidata": "Q60", "public_transport": "station", "railway": "station", "railway:ref": "8", "short_name": "5 Av\u201359 St", "station": "subway", "subway": "yes", "wheelchair": "no", "wikidata": "Q2159540", "wikipedia": "en:Fifth Avenue\u201359th Street station"}}, {"type": "node", "id": 592002469, "lat": 40.800412, "lon": -73.93529, "tags": {"bus": "yes", "name": "2 Av/E 122 St", "public_transport": "stop_position"}}, {"type": "node", "id": 596775762, "lat": 40.8041896, "lon": -73.9397048, "tags": {"name": "Harlem\u2013125th Street", "network": "Metro-North Railroad", "public_transport": "stop_position", "railway": "stop", "train": "yes"}}, {"type": "node", "id": 597500968, "lat": 40.7420527, "lon": -73.9475584, "tags": {"name": "Hunterspoint Avenue", "network": "LIRR", "public_transport": "station", "railway": "station", "railway:ref": "HPA", "train": "yes", "wheelchair": "no", "wikidata": "Q5944797", "wikipedia": "en:Hunterspoint Avenue station (LIRR)"}}, {"type": "node", "id": 597501120, "lat": 40.7428079, "lon": -73.9456016, "tags": {"name": "Hunterspoint Avenue", "network": "LIRR", "public_transport": "stop_position", "railway": "stop", "train": "yes"}}, {"type": "node", "id": 597928296, "lat": 40.7073629, "lon": -74.01385, "tags": {"addr:city": "New York", "addr:postcode": "10006", "addr:state": "NY", "check_date": "2023-11-02", "description": "The Rector Street station is a station on the IRT Broadway\u2013Seventh Avenue Line of the New York City Subway. Located at the intersection of Rector Street and Greenwich Street in Lower Manhattan, it is served by the 1 train at all times.", "level": "-1", "name": "Rector Street", "name:en": "Rector Street", "name:ru": "\u0420\u0435\u043a\u0442\u043e\u0440-\u0441\u0442\u0440\u0438\u0442", "network": "NYC Subway", "note": "no in-station transfer between platforms", "opening_hours": "24/7", "operator": "New York City Transit Authority", "public_transport": "station", "railway": "station", "railway:ref": "329", "short_name": "Rector St", "start_date": "1918-07-01", "station": "subway", "subway": "yes", "wheelchair": "no", "wikidata": "Q2415223", "wikipedia": "en:Rector Street station (IRT Broadway\u2013Seventh Avenue Line)"}}, {"type": "node", "id": 597928297, "lat": 40.7114324, "lon": -74.0121448, "tags": {"addr:city": "New York", "addr:housenumber": "180", "addr:postcode": "10007", "addr:state": "NY", "addr:street": "Greenwich Street", "air_conditioning": "yes", "check_date": "2023-11-02", "description": "The WTC Cortlandt station (signed as World Trade Center on walls and historically known as Cortlandt Street and Cortlandt Street\u2013World Trade Center) is a station on the IRT Broadway\u2013Seventh Avenue Line of the New York City Subway in Lower Manhattan.", "level": "-1", "name": "WTC Cortlandt", "name:en": "WTC Cortlandt", "name:ru": "\u0414\u0430\u0431\u043b-\u044e-\u0442\u0438-\u0441\u0438 \u041a\u043e\u0440\u0442\u043b\u0430\u043d\u0434\u0442", "network": "NYC Subway", "opening_hours": "24/7", "operator": "New York City Transit Authority", "public_transport": "station", "railway": "station", "railway:ref": "328", "start_date": "1918-07-01", "station": "subway", "subway": "yes", "wheelchair": "yes", "wikidata": "Q2193425", "wikipedia": "en:WTC Cortlandt station"}}, {"type": "node", "id": 597928298, "lat": 40.7155081, "lon": -74.0092451, "tags": {"addr:city": "New York", "addr:postcode": "10013", "addr:state": "NY", "addr:street": "Chambers Street", "check_date": "2023-11-02", "description": "The Chambers Street station is an express station on the IRT Broadway\u2013Seventh Avenue Line of the New York City Subway, located at the intersection of Chambers Street and West Broadway in Lower Manhattan.", "level": "-2", "name": "Chambers Street", "name:en": "Chambers Street", "name:ru": "\u0427\u0435\u0439\u043c\u0431\u0435\u0440\u0441-\u0441\u0442\u0440\u0438\u0442", "network": "NYC Subway", "opening_hours": "24/7", "operator": "New York City Transit Authority", "public_transport": "station", "railway": "station", "railway:ref": "327", "short_name": "Chambers St", "start_date": "1918-07-01", "station": "subway", "subway": "yes", "wheelchair": "yes", "wikidata": "Q2235087", "wikipedia": "en:Chambers Street station (IRT Broadway\u2013Seventh Avenue Line)"}}, {"type": "node", "id": 597928300, "lat": 40.7067241, "lon": -74.0091832, "tags": {"addr:city": "New York", "addr:postcode": "10005", "addr:state": "NY", "addr:street": "William Street", "check_date": "2024-01-14", "description": "The Wall Street station is a station on the IRT Broadway\u2013Seventh Avenue Line of the New York City Subway, located at the intersection of Wall Street and William Street in the Financial District of Manhattan. It is served by the 2 and 3 trains.", "level": "-2", "name": "Wall Street", "network": "NYC Subway", "opening_hours": "24/7", "operator": "New York City Transit Authority", "public_transport": "station", "railway": "station", "railway:ref": "333", "short_name": "Wall St", "start_date": "1918-07-01", "station": "subway", "subway": "yes", "wheelchair": "no", "wikidata": "Q2611956", "wikipedia": "en:Wall Street station (IRT Broadway\u2013Seventh Avenue Line)"}}, {"type": "node", "id": 597928301, "lat": 40.713715, "lon": -73.990173, "tags": {"gtfs_stop_code": "F16", "level": "-4", "name": "East Broadway", "network": "NYC Subway", "opening_hours": "24/7", "operator": "New York City Transit Authority", "public_transport": "station", "railway": "station", "railway:ref": "234", "short_name": "East Broadway", "station": "subway", "subway": "yes", "wheelchair": "no", "wikidata": "Q2379602", "wikipedia": "en:East Broadway station"}}, {"type": "node", "id": 597928302, "lat": 40.7181616, "lon": -73.9937839, "tags": {"level": "-2", "name": "Grand Street", "network": "NYC Subway", "opening_hours": "24/7", "operator": "New York City Transit Authority", "public_transport": "station", "railway": "station", "railway:ref": "231", "short_name": "Grand St", "station": "subway", "subway": "yes", "wheelchair": "no", "wikidata": "Q2612361", "wikipedia": "en:Grand Street station (IND Sixth Avenue Line)"}}, {"type": "node", "id": 597928303, "lat": 40.7202174, "lon": -73.99372, "tags": {"level": "-2", "name": "Bowery", "network": "NYC Subway", "opening_hours": "24/7", "operator": "New York City Transit Authority", "public_transport": "station", "railway": "station", "railway:ref": "103", "station": "subway", "subway": "yes", "wheelchair": "no", "wikidata": "Q2616059", "wikipedia": "en:Bowery station"}}, {"type": "node", "id": 597928305, "lat": 40.7064906, "lon": -74.0110604, "tags": {"addr:city": "New York", "addr:postcode": "10005", "addr:state": "NY", "addr:street": "Broad Street", "check_date": "2023-11-28", "description": "The Broad Street station is a station on the BMT Nassau Street Line of the New York City Subway at the intersection of Broad and Wall Streets in the Financial District of Manhattan. It serves as the southern terminal for J and Z trains.", "level": "-2", "name": "Broad Street", "network": "NYC Subway", "opening_hours": "24/7", "operator": "New York City Transit Authority", "public_transport": "station", "railway": "station", "railway:ref": "107", "short_name": "Broad St", "start_date": "1931-05-29", "station": "subway", "subway": "yes", "wheelchair": "no", "wikidata": "Q768988", "wikipedia": "en:Broad Street station (BMT Nassau Street Line)"}}, {"type": "node", "id": 597928309, "lat": 40.731643, "lon": -74.0009941, "tags": {"alt_name": "West Fourth Street\u2013Washington Square", "gtfs_stop_code": "D19", "internet_access": "wlan", "internet_access:fee": "no", "level": "-4;-2", "name": "West 4th Street\u2013Washington Square", "network": "NYC Subway", "opening_hours": "24/7", "operator": "New York City Transit Authority", "public_transport": "station", "railway": "station", "railway:ref": "167", "short_name": "W 4 St\u2013Wash Sq", "station": "subway", "subway": "yes", "wheelchair": "yes", "wikidata": "Q2343574", "wikipedia": "en:West Fourth Street\u2013Washington Square station"}}, {"type": "node", "id": 597928311, "lat": 40.723402, "lon": -73.989938, "tags": {"gtfs_stop_code": "F14", "level": "-2", "name": "2nd Avenue", "network": "NYC Subway", "old_name": "2nd Avenue\u2013Lower East Side", "opening_hours": "24/7", "operator": "New York City Transit Authority", "public_transport": "station", "railway": "station", "railway:ref": "232", "short_name": "2 Av", "station": "subway", "subway": "yes", "wheelchair": "no", "wikidata": "Q2131874", "wikipedia": "en:Second Avenue station"}}, {"type": "node", "id": 597928312, "lat": 40.7183982, "lon": -73.9874236, "tags": {"gtfs_stop_code": "M18", "level": "-1", "name": "Essex Street", "network": "NYC Subway", "opening_hours": "24/7", "operator": "New York City Transit Authority", "public_transport": "station", "railway": "station", "railway:ref": "102", "short_name": "Essex St", "station": "subway", "subway": "yes", "wheelchair": "no", "wikidata": "Q2612358", "wikipedia": "en:Delancey Street/Essex Street station"}}, {"type": "node", "id": 597928314, "lat": 40.7579057, "lon": -73.9819118, "tags": {"name": "47th\u201350th Streets\u2013Rockefeller Center", "network": "NYC Subway", "opening_hours": "24/7", "operator": "New York City Transit Authority", "public_transport": "stop_position", "railway": "stop", "subway": "yes", "wheelchair": "yes", "wikidata": "Q2555226", "wikipedia": "en:47th\u201350th Streets\u2013Rockefeller Center station"}}, {"type": "node", "id": 597928315, "lat": 40.764629, "lon": -73.966113, "tags": {"gtfs_stop_code": "B08", "level": "-5;-4", "name": "Lexington Avenue\u201363rd Street", "name:es": "Avenida Lexington\u2013Calle 63", "network": "NYC Subway", "network:wikidata": "Q7733", "opening_hours": "24/7", "operator": "New York City Transit Authority", "operator:wikidata": "Q1146109", "owner": "City of New York", "owner:wikidata": "Q60", "public_transport": "station", "railway": "station", "railway:ref": "223", "short_name": "Lexington Av\u201363 St", "station": "subway", "subway": "yes", "wheelchair": "yes", "wikidata": "Q2585850", "wikipedia": "en:Lexington Avenue\u201363rd Street station"}}, {"type": "node", "id": 597928316, "lat": 40.754222, "lon": -73.9845689, "tags": {"gtfs_stop_code": "D16", "level": "-2", "name": "42nd Street\u2013Bryant Park", "network": "NYC Subway", "network:wikidata": "Q7733", "opening_hours": "24/7", "operator": "New York City Transit Authority", "operator:wikidata": "Q1146109", "owner": "City of New York", "owner:wikidata": "Q60", "public_transport": "station", "railway": "station", "railway:ref": "226", "short_name": "42 St\u2013Bryant Pk", "start_date": "1940", "station": "subway", "subway": "yes", "wheelchair": "no", "wikidata": "Q2982388", "wikipedia": "en:42nd Street\u2013Bryant Park/Fifth Avenue station"}}, {"type": "node", "id": 597928318, "lat": 40.7627515, "lon": -73.9674728, "tags": {"level": "-2", "name": "Lexington Avenue\u201359th Street", "network": "NYC Subway", "network:wikidata": "Q7733", "opening_hours": "24/7", "operator": "New York City Transit Authority", "operator:wikidata": "Q1146109", "owner": "City of New York", "owner:wikidata": "Q60", "public_transport": "station", "railway": "station", "railway:ref": "7", "short_name": "Lexington Av\u201359 St", "station": "subway", "subway": "yes", "wheelchair": "no", "wikidata": "Q870982", "wikipedia": "en:Lexington Avenue/59th Street station"}}, {"type": "node", "id": 597928319, "lat": 40.7571102, "lon": -73.9719555, "tags": {"level": "-1", "name": "51st Street", "network": "NYC Subway", "network:wikidata": "Q7733", "opening_hours": "24/7", "operator": "New York City Transit Authority", "operator:wikidata": "Q1146109", "owner": "City of New York", "owner:wikidata": "Q60", "public_transport": "station", "railway": "station", "railway:ref": "401", "short_name": "51 St", "station": "subway", "subway": "yes", "wheelchair": "yes", "wikidata": "Q2981958", "wikipedia": "en:Lexington Avenue/51st Street station"}}, {"type": "node", "id": 597928321, "lat": 40.7605598, "lon": -73.9759537, "tags": {"internet_access": "wlan", "internet_access:fee": "no", "level": "-3;-2", "name": "5th Avenue\u201353rd Street", "network": "NYC Subway", "opening_hours": "24/7", "operator": "New York City Transit Authority", "public_transport": "station", "railway": "station", "railway:ref": "276", "short_name": "5 Av\u201353 St", "station": "subway", "subway": "yes", "wheelchair": "no", "wikidata": "Q2613321", "wikipedia": "en:Fifth Avenue/53rd Street station"}}, {"type": "node", "id": 597928322, "lat": 40.762862, "lon": -73.981637, "tags": {"gtfs_stop_code": "D14", "internet_access": "wlan", "internet_access:fee": "no", "level": "-3;-2", "name": "7th Avenue", "network": "NYC Subway", "network:wikidata": "Q7733", "opening_hours": "24/7", "operator": "New York City Transit Authority", "operator:wikidata": "Q1146109", "owner": "City of New York", "owner:wikidata": "Q60", "public_transport": "station", "railway": "station", "railway:ref": "277", "short_name": "7 Av", "station": "subway", "subway": "yes", "wheelchair": "limited", "wheelchair:description": "same-platform transfer only", "wikidata": "Q2612605", "wikipedia": "en:Seventh Avenue station (IND lines)"}}, {"type": "node", "id": 597928324, "lat": 40.7646501, "lon": -73.9806228, "tags": {"level": "-2", "name": "57th Street\u20137th Avenue", "network": "NYC Subway", "network:wikidata": "Q7733", "opening_hours": "24/7", "operator": "New York City Transit Authority", "operator:wikidata": "Q1146109", "owner": "City of New York", "owner:wikidata": "Q60", "public_transport": "station", "railway": "station", "railway:ref": "9", "short_name": "57 St\u20137 Av", "station": "subway", "subway": "yes", "wheelchair": "no", "wikidata": "Q2614058", "wikipedia": "en:57th Street\u2013Seventh Avenue station"}}, {"type": "node", "id": 597928328, "lat": 40.724329, "lon": -73.997702, "tags": {"gtfs_stop_code": "R22", "level": "-1", "name": "Prince Street", "network": "NYC Subway", "note": "no in-station transfer between platforms", "opening_hours": "24/7", "operator": "New York City Transit Authority", "public_transport": "station", "railway": "station", "railway:ref": "17", "short_name": "Prince St", "station": "subway", "subway": "yes", "wheelchair": "no", "wikidata": "Q2027571", "wikipedia": "en:Prince Street station"}}, {"type": "node", "id": 597928329, "lat": 40.730328, "lon": -73.9926289, "tags": {"gtfs_stop_code": "R21", "level": "-1", "name": "8th Street\u2013New York University", "network": "NYC Subway", "note": "no in-station transfer between platforms", "opening_hours": "24/7", "operator": "New York City Transit Authority", "public_transport": "station", "railway": "station", "railway:ref": "16", "short_name": "8 St\u2013NYU", "station": "subway", "subway": "yes", "wheelchair": "no", "wikidata": "Q2271693", "wikipedia": "en:Eighth Street\u2013New York University station"}}, {"type": "node", "id": 597928332, "lat": 40.7079121, "lon": -74.0115251, "tags": {"name": "Wall Street", "network": "NYC Subway", "opening_hours": "24/7", "operator": "New York City Transit Authority", "public_transport": "stop_position", "railway": "stop", "subway": "yes", "wheelchair": "no"}}, {"type": "node", "id": 597928334, "lat": 40.7184961, "lon": -74.0004678, "tags": {"gtfs_stop_code": "639", "level": "-1", "name": "Canal Street", "network": "NYC Subway", "opening_hours": "24/7", "operator": "New York City Transit Authority", "payment:OMNY": "yes", "public_transport": "station", "railway": "station", "railway:ref": "410", "short_name": "Canal St", "station": "subway", "subway": "yes", "wheelchair": "yes", "wikidata": "Q2431462", "wikipedia": "en:Canal Street station (New York City Subway)"}}, {"type": "node", "id": 597928338, "lat": 40.7401787, "lon": -73.9863823, "tags": {"addr:city": "New York", "addr:postcode": "10010", "addr:state": "NY", "internet_access": "wlan", "level": "-1", "name": "23rd Street", "network": "NYC Subway", "note": "no in-station transfer between platforms", "opening_hours": "24/7", "operator": "New York City Transit Authority", "public_transport": "station", "railway": "station", "railway:ref": "405", "short_name": "23 St", "start_date": "1904-10-27", "station": "subway", "subway": "yes", "wheelchair": "yes", "wikidata": "Q2033264", "wikimedia_commons": "Category:23rd Street (IRT Lexington Avenue Line)", "wikipedia": "en:23rd Street station (IRT Lexington Avenue Line)"}}, {"type": "node", "id": 597928340, "lat": 40.7298497, "lon": -73.9913897, "tags": {"level": "-1", "name": "Astor Place", "network": "NYC Subway", "note": "no in-station transfer between platforms", "opening_hours": "24/7", "operator": "New York City Transit Authority", "public_transport": "station", "railway": "station", "railway:ref": "407", "short_name": "Astor Pl", "station": "subway", "subway": "yes", "wheelchair": "no", "wikidata": "Q2199564", "wikipedia": "en:Astor Place station"}}, {"type": "node", "id": 597928342, "lat": 40.7259471, "lon": -73.9946797, "tags": {"level": "-1", "name": "Bleecker Street", "network": "NYC Subway", "opening_hours": "24/7", "operator": "New York City Transit Authority", "public_transport": "station", "railway": "station", "railway:ref": "408", "short_name": "Bleecker St", "station": "subway", "subway": "yes", "wheelchair": "yes", "wikidata": "Q2612992", "wikipedia": "en:Bleecker Street station"}}, {"type": "node", "id": 597928343, "lat": 40.7223025, "lon": -73.9971855, "tags": {"level": "-1", "name": "Spring Street", "name:es": "Calle Spring", "network": "NYC Subway", "note": "no in-station transfer between platforms", "opening_hours": "24/7", "operator": "New York City Transit Authority", "public_transport": "station", "railway": "station", "railway:ref": "409", "short_name": "Spring St", "station": "subway", "subway": "yes", "wheelchair": "no", "wikidata": "Q2130771", "wikipedia": "en:Spring Street station (IRT Lexington Avenue Line)"}}, {"type": "node", "id": 597928345, "lat": 40.7463947, "lon": -73.9818293, "tags": {"addr:city": "New York", "addr:postcode": "10016", "addr:state": "NY", "internet_access": "wlan", "level": "-1", "name": "33rd Street", "network": "NYC Subway", "note": "no in-station transfer between platforms", "opening_hours": "24/7", "operator": "New York City Transit Authority", "public_transport": "station", "railway": "station", "railway:ref": "403", "short_name": "33 St", "start_date": "1904-10-27", "station": "subway", "subway": "yes", "wheelchair": "no", "wikidata": "Q2224706", "wikimedia_commons": "Category:33rd Street (IRT Lexington Avenue Line)", "wikipedia": "en:33rd Street station (IRT Lexington Avenue Line)"}}, {"type": "node", "id": 597937460, "lat": 40.7066877, "lon": -73.9230698, "tags": {"level": "-2", "name": "Jefferson Street", "network": "NYC Subway", "opening_hours": "24/7", "operator": "New York City Transit Authority", "public_transport": "station", "railway": "station", "railway:ref": "126", "short_name": "Jefferson St", "station": "subway", "subway": "yes", "wheelchair": "no", "wikidata": "Q606657", "wikipedia": "en:Jefferson Street station"}}, {"type": "node", "id": 597937461, "lat": 40.7038749, "lon": -73.9185021, "tags": {"level": "-2", "name": "DeKalb Avenue", "network": "NYC Subway", "opening_hours": "24/7", "operator": "New York City Transit Authority", "public_transport": "station", "railway": "station", "railway:ref": "127", "short_name": "DeKalb Av", "station": "subway", "subway": "yes", "wheelchair": "no", "wikidata": "Q1976258", "wikipedia": "en:DeKalb Avenue station (BMT Canarsie Line)"}}, {"type": "node", "id": 597937470, "lat": 40.7308653, "lon": -73.9814231, "tags": {"level": "-2", "name": "1st Avenue", "network": "NYC Subway", "note": "no in-station transfer between platforms", "opening_hours": "24/7", "operator": "New York City Transit Authority", "public_transport": "station", "railway": "station", "railway:ref": "119", "short_name": "1 Av", "station": "subway", "subway": "yes", "wheelchair": "no", "wikidata": "Q2590604", "wikipedia": "en:First Avenue station (BMT Canarsie Line)"}}, {"type": "node", "id": 597937471, "lat": 40.7140621, "lon": -73.9502126, "tags": {"level": "-2", "name": "Lorimer Street", "network": "NYC Subway", "opening_hours": "24/7", "operator": "New York City Transit Authority", "public_transport": "station", "railway": "station", "railway:ref": "121", "short_name": "Lorimer St", "station": "subway", "subway": "yes", "wheelchair": "no", "wikidata": "Q2350435", "wikipedia": "en:Metropolitan Avenue/Lorimer Street station"}}, {"type": "node", "id": 597937472, "lat": 40.7145231, "lon": -73.9443875, "tags": {"level": "-1", "name": "Graham Avenue", "network": "NYC Subway", "note": "no in-station transfer between platforms", "opening_hours": "24/7", "operator": "New York City Transit Authority", "public_transport": "station", "railway": "station", "railway:ref": "122", "short_name": "Graham Av", "station": "subway", "subway": "yes", "wheelchair": "no", "wikidata": "Q2616988", "wikipedia": "en:Graham Avenue station"}}, {"type": "node", "id": 597937473, "lat": 40.7218493, "lon": -74.0052989, "tags": {"internet_access": "wlan", "internet_access:fee": "no", "level": "-2", "name": "Canal Street", "network": "NYC Subway", "opening_hours": "24/7", "operator": "New York City Transit Authority", "public_transport": "station", "railway": "station", "railway:ref": "169", "short_name": "Canal St", "station": "subway", "subway": "yes", "wheelchair": "no", "wikidata": "Q2612622", "wikipedia": "en:Canal Street station (IND Eighth Avenue Line)"}}, {"type": "node", "id": 597937475, "lat": 40.7380466, "lon": -73.9963408, "tags": {"internet_access": "wlan", "level": "-2", "name": "14th Street", "network": "NYC Subway", "opening_hours": "24/7", "operator": "New York City Transit Authority", "public_transport": "station", "railway": "station", "railway:ref": "229", "short_name": "14 St", "station": "subway", "subway": "yes", "wheelchair": "no", "wikidata": "Q2983355", "wikimedia_commons": "Category:14th Street (IND Sixth Avenue Line)", "wikipedia": "en:14th Street/Sixth Avenue station"}}, {"type": "node", "id": 597937476, "lat": 40.7331529, "lon": -73.986821, "tags": {"level": "-1", "name": "3rd Avenue", "network": "NYC Subway", "note": "no in-station transfer between platforms", "opening_hours": "24/7", "operator": "New York City Transit Authority", "public_transport": "station", "railway": "station", "railway:ref": "118", "short_name": "3 Av", "station": "subway", "subway": "yes", "wheelchair": "no", "wikidata": "Q2181850", "wikipedia": "en:Third Avenue station (BMT Canarsie Line)"}}, {"type": "node", "id": 597937477, "lat": 40.757308, "lon": -73.989735, "tags": {"gtfs_stop_code": "A27", "internet_access": "wlan", "internet_access:fee": "no", "level": "-2", "name": "42nd Street\u2013Port Authority Bus Terminal", "network": "NYC Subway", "network:wikidata": "Q7733", "opening_hours": "24/7", "operator": "New York City Transit Authority", "operator:wikidata": "Q1146109", "owner": "City of New York", "owner:wikidata": "Q60", "public_transport": "station", "railway": "station", "railway:ref": "163", "short_name": "42 St\u2013Port Authority Bus Terminal", "station": "subway", "subway": "yes", "wheelchair": "yes", "wikidata": "Q11265", "wikipedia": "en:42nd Street\u2013Port Authority Bus Terminal (IND Eighth Avenue Line)"}}, {"type": "node", "id": 597937480, "lat": 40.7255399, "lon": -74.0040137, "tags": {"internet_access": "wlan", "internet_access:fee": "no", "level": "-1", "name": "Spring Street", "network": "NYC Subway", "opening_hours": "24/7", "operator": "New York City Transit Authority", "public_transport": "station", "railway": "station", "railway:ref": "168", "short_name": "Spring St", "station": "subway", "subway": "yes", "wheelchair": "no", "wikidata": "Q2430804", "wikipedia": "en:Spring Street station (IND Eighth Avenue Line)"}}, {"type": "node", "id": 597937481, "lat": 40.7440859, "lon": -73.995641, "tags": {"addr:city": "New York", "addr:postcode": "10011", "addr:state": "NY", "internet_access": "wlan", "level": "-1", "name": "23rd Street", "name:en": "23rd Street", "name:ru": "23-\u044f \u0441\u0442\u0440\u0438\u0442", "network": "NYC Subway", "note": "no in-station transfer between platforms", "opening_hours": "24/7", "operator": "New York City Transit Authority", "public_transport": "station", "railway": "station", "railway:ref": "320", "short_name": "23 St", "start_date": "1918-07-01", "station": "subway", "subway": "yes", "wheelchair": "no", "wikidata": "Q2478033", "wikimedia_commons": "Category:23rd Street (IRT Broadway \u2013 Seventh Avenue Line)", "wikipedia": "en:23rd Street station (IRT Broadway\u2013Seventh Avenue Line)"}}, {"type": "node", "id": 597937482, "lat": 40.747217, "lon": -73.9933621, "tags": {"addr:city": "New York", "addr:postcode": "10001", "addr:state": "NY", "internet_access": "yes", "level": "-1", "name": "28th Street", "name:en": "28th Street", "name:ru": "28-\u044f \u0441\u0442\u0440\u0438\u0442", "network": "NYC Subway", "network:wikidata": "Q7733", "note": "no in-station transfer between platforms", "opening_hours": "24/7", "operator": "New York City Transit Authority", "operator:wikidata": "Q1146109", "owner": "City of New York", "owner:wikidata": "Q60", "public_transport": "station", "railway": "station", "railway:ref": "319", "short_name": "28 St", "start_date": "1918-07-01", "station": "subway", "subway": "yes", "wheelchair": "no", "wikidata": "Q2982207", "wikimedia_commons": "Category:28th Street (IRT Broadway \u2013 Seventh Avenue Line)", "wikipedia": "en:28th Street station (IRT Broadway\u2013Seventh Avenue Line)"}}, {"type": "node", "id": 597937484, "lat": 40.7616618, "lon": -73.9838968, "tags": {"internet_access": "wlan", "level": "-1", "name": "50th Street", "name:en": "50th Street", "name:ru": "50-\u044f \u0441\u0442\u0440\u0438\u0442", "network": "NYC Subway", "note": "no in-station transfer between platforms", "opening_hours": "24/7", "operator": "New York City Transit Authority", "public_transport": "station", "railway": "station", "railway:ref": "316", "short_name": "50 St", "start_date": "1904-10-27", "station": "subway", "subway": "yes", "toilets:wheelchair": "no", "wheelchair": "no", "wikidata": "Q2198512", "wikipedia": "en:50th Street station (IRT Broadway\u2013Seventh Avenue Line)"}}, {"type": "node", "id": 597937487, "lat": 40.7285993, "lon": -74.0053077, "tags": {"addr:city": "New York", "addr:postcode": "10014", "addr:state": "NY", "addr:street": "West Houston Street", "check_date": "2024-01-13", "description": "The Houston Street station is a local station on the IRT Broadway\u2013Seventh Avenue Line of the New York City Subway. Located at West Houston and Varick Streets in Greenwich Village, Manhattan, it is served by the 1 train at all times.", "level": "-1", "name": "Houston Street", "name:en": "Houston Street", "name:pronunciation": "\u02c8ha\u028ast\u0259n st\u0279i\u02d0t", "name:ru": "\u0425\u0430\u0443\u0441\u0442\u043e\u043d-\u0441\u0442\u0440\u0438\u0442", "network": "NYC Subway", "note": "no in-station transfer between platforms", "opening_hours": "24/7", "operator": "New York City Transit Authority", "public_transport": "station", "railway": "station", "railway:ref": "324", "short_name": "Houston St", "start_date": "1918-07-01", "station": "subway", "subway": "yes", "wheelchair": "no", "wikidata": "Q2083213", "wikipedia": "en:Houston Street station (IRT Broadway\u2013Seventh Avenue Line)"}}, {"type": "node", "id": 597937489, "lat": 40.7410394, "lon": -73.9978652, "tags": {"internet_access": "wlan", "level": "-1", "name": "18th Street", "name:en": "18th Street", "name:ru": "18-\u044f \u0441\u0442\u0440\u0438\u0442", "network": "NYC Subway", "note": "no in-station transfer between platforms", "opening_hours": "24/7", "operator": "New York City Transit Authority", "public_transport": "station", "railway": "station", "railway:ref": "321", "short_name": "18 St", "start_date": "1918-07-01", "station": "subway", "subway": "yes", "wheelchair": "no", "wikidata": "Q2515468", "wikimedia_commons": "Category:18th Street (IRT Broadway \u2013 Seventh Avenue Line)", "wikipedia": "en:18th Street station (IRT Broadway\u2013Seventh Avenue Line)"}}, {"type": "node", "id": 597937490, "lat": 40.7191802, "lon": -74.0069278, "tags": {"addr:city": "New York", "addr:postcode": "10013", "addr:state": "NY", "check_date": "2023-11-02", "level": "-1", "name": "Franklin Street", "name:en": "Franklin Street", "name:ru": "\u0424\u0440\u0430\u043d\u043a\u043b\u0438\u043d-\u0441\u0442\u0440\u0438\u0442", "network": "NYC Subway", "note": "no in-station transfer between platforms", "opening_hours": "24/7", "operator": "New York City Transit Authority", "public_transport": "station", "railway": "station", "railway:ref": "326", "short_name": "Franklin St", "start_date": "1918-07-01", "station": "subway", "subway": "yes", "wheelchair": "no", "wikidata": "Q1912767", "wikipedia": "en:Franklin Street station (IRT Broadway\u2013Seventh Avenue Line)"}}, {"type": "node", "id": 597981952, "lat": 40.7194685, "lon": -74.002233, "tags": {"description": "all N,Q,R,W trains", "level": "0", "railway": "subway_entrance", "wheelchair": "no"}}, {"type": "node", "id": 597981954, "lat": 40.7196118, "lon": -74.0019453, "tags": {"description": "all N,Q,R,W trains", "level": "0", "railway": "subway_entrance", "wheelchair": "no"}}, {"type": "node", "id": 597981960, "lat": 40.7196393, "lon": -74.0019843, "tags": {"description": "all N,Q,R,W trains", "level": "0", "railway": "subway_entrance", "wheelchair": "no"}}, {"type": "node", "id": 597981962, "lat": 40.7191287, "lon": -74.0017527, "tags": {"description": "all N,Q,R,W trains", "level": "0", "railway": "subway_entrance", "wheelchair": "no"}}, {"type": "node", "id": 597981965, "lat": 40.7194577, "lon": -74.0016524, "tags": {"description": "all N,Q,R,W trains", "level": "0", "railway": "subway_entrance", "wheelchair": "no"}}, {"type": "node", "id": 597981975, "lat": 40.7191753, "lon": -74.0018166, "tags": {"description": "all N,Q,R,W trains", "level": "0", "railway": "subway_entrance", "wheelchair": "no"}}, {"type": "node", "id": 597981978, "lat": 40.7193859, "lon": -74.0021172, "tags": {"description": "all N,Q,R,W trains", "level": "0", "railway": "subway_entrance", "wheelchair": "no"}}, {"type": "node", "id": 598556935, "lat": 40.7084064, "lon": -73.9579142, "tags": {"level": "1", "name": "Marcy Avenue", "network": "NYC Subway", "note": "no in-station transfer between platforms", "opening_hours": "24/7", "operator": "New York City Transit Authority", "public_transport": "station", "railway": "station", "railway:ref": "101", "short_name": "Marcy Av", "station": "subway", "subway": "yes", "wheelchair": "yes", "wikidata": "Q969114", "wikipedia": "en:Marcy Avenue station"}}, {"type": "node", "id": 614006085, "lat": 40.7127313, "lon": -73.9902088, "tags": {"description": "all F,<F> trains", "level": "0", "name": "East Broadway (F)", "railway": "subway_entrance", "wheelchair": "no"}}, {"type": "node", "id": 622035832, "lat": 40.731352, "lon": -73.954449, "tags": {"gtfs_stop_code": "G26", "level": "-2", "name": "Greenpoint Avenue", "name:es": "Avenida Greenpoint (l\u00ednea Crosstown)", "name:nl": "Greenpoint Avenue (Crosstown Line)", "name:pl": "Greenpoint Avenue (stacja metra)", "name:ru": "\u0413\u0440\u0438\u043d\u043f\u043e\u0439\u043d\u0442-\u0430\u0432\u0435\u043d\u044e (\u043b\u0438\u043d\u0438\u044f \u041a\u0440\u043e\u0441\u0441\u0442\u0430\u0443\u043d, \u0410\u0439-\u044d\u043d-\u0434\u0438)", "network": "NYC Subway", "opening_hours": "24/7", "operator": "New York City Transit Authority", "platforms": "2", "public_transport": "station", "railway": "station", "railway:ref": "283", "short_name": "Greenpoint Av", "source": "http://mta.info/nyct/service/gline.htm", "station": "subway", "subway": "yes", "wheelchair": "no", "wikidata": "Q1968287", "wikipedia": "en:Greenpoint Avenue station"}}, {"type": "node", "id": 870320430, "lat": 40.7591449, "lon": -73.95326, "tags": {"gtfs_stop_code": "B06", "level": "-3", "name": "Roosevelt Island", "network": "NYC Subway", "opening_hours": "24/7", "operator": "New York City Transit Authority", "public_transport": "station", "railway": "station", "railway:ref": "222", "station": "subway", "subway": "yes", "wheelchair": "yes", "wikidata": "Q1865158", "wikipedia": "en:Roosevelt Island station"}}, {"type": "node", "id": 886414800, "lat": 40.7305783, "lon": -73.9956415, "tags": {"bench": "no", "bin": "no", "bus": "yes", "highway": "bus_stop", "name": "NYU Trolley Stop", "public_transport": "platform", "shelter": "no", "tactile_paving": "no"}}, {"type": "node", "id": 890565034, "lat": 40.7326168, "lon": -73.9545556, "tags": {"bus": "yes", "highway": "bus_stop", "name": "Manhattan Avenue & India Street", "network": "NYC Transit", "network:wikidata": "Q1325591", "operator": "Metropolitan Transportation Authority", "operator:short": "MTA", "public_transport": "platform", "ref": "308186", "route_ref": "B43;B62"}}, {"type": "node", "id": 895371274, "lat": 40.7502382, "lon": -73.9928111, "tags": {"addr:city": "New York", "addr:housenumber": "234", "addr:postcode": "10001", "addr:state": "NY", "addr:street": "West 31st Street", "iata": "ZYP", "name": "New York Penn Station", "name:en": "New York Penn Station", "name:he": "\u05ea\u05d7\u05e0\u05ea \u05e4\u05e0\u05e1\u05d9\u05dc\u05d1\u05e0\u05d9\u05d4", "name:ja": "\u30da\u30f3\u30b7\u30eb\u30d9\u30cb\u30a2\u99c5", "name:ko": "\ud39c\uc2e4\ubca0\uc774\ub2c8\uc544 \uc5ed", "name:ru": "\u041f\u0435\u043d\u0441\u0438\u043b\u044c\u0432\u0430\u043d\u0441\u043a\u0438\u0439 \u0432\u043e\u043a\u0437\u0430\u043b", "name:zh": "\u5bbe\u5915\u6cd5\u5c3c\u4e9a\u8f66\u7ad9\u8eca\u7ad9", "name:zh-Hans": "\u5bbe\u5915\u6cd5\u5c3c\u4e9a\u8f66\u7ad9", "name:zh-Hant": "\u8cd3\u5915\u6cd5\u5c3c\u4e9e\u8eca\u7ad9", "network": "Amtrak;NJ Transit;LIRR", "official_name": "Pennsylvania Station", "public_transport": "station", "railway": "station", "railway:position": "mi:0.0", "railway:ref": "NYP", "ref:amtrak": "NYP", "ref:via_rail": "NEWY", "toilets:wheelchair": "yes", "train": "yes", "wheelchair": "yes", "wikidata": "Q54451", "wikipedia": "en:New York Penn Station"}}, {"type": "node", "id": 914032237, "lat": 40.7075327, "lon": -74.0344078, "tags": {"amenity": "ferry_terminal", "ferry": "yes", "name": "Liberty State Park", "operator": "Circle Line Cruises", "public_transport": "stop_position"}}, {"type": "node", "id": 1011407261, "lat": 40.7790162, "lon": -73.9818557, "tags": {"level": "-2", "name": "72nd Street", "name:en": "72nd Street", "name:ru": "72-\u044f \u0441\u0442\u0440\u0438\u0442", "network": "NYC Subway", "network:wikidata": "Q7733", "opening_hours": "24/7", "operator": "New York City Transit Authority", "operator:wikidata": "Q1146109", "owner": "City of New York", "owner:wikidata": "Q60", "platforms": "2", "public_transport": "station", "railway": "station", "railway:ref": "313", "short_name": "72 St", "start_date": "1904-10-27", "station": "subway", "subway": "yes", "wheelchair": "yes", "wikidata": "Q2887299", "wikipedia": "en:72nd Street station (IRT Broadway\u2013Seventh Avenue Line)"}}, {"type": "node", "id": 1011407282, "lat": 40.7732766, "lon": -73.9822029, "tags": {"level": "-1", "name": "66th Street\u2013Lincoln Center", "name:en": "66th Street\u2013Lincoln Center", "name:ru": "66-\u044f \u0441\u0442\u0440\u0438\u0442 \u2014 \u041b\u0438\u043d\u043a\u043e\u043b\u044c\u043d-\u0441\u0435\u043d\u0442\u0440", "network": "NYC Subway", "network:wikidata": "Q7733", "opening_hours": "24/7", "operator": "New York City Transit Authority", "operator:wikidata": "Q1146109", "owner": "City of New York", "owner:wikidata": "Q60", "public_transport": "station", "railway": "station", "railway:ref": "314", "short_name": "66 St\u2013Lincoln Center", "start_date": "1904-10-27", "station": "subway", "subway": "yes", "wheelchair": "yes", "wikidata": "Q2042310", "wikipedia": "en:66th Street\u2013Lincoln Center station"}}, {"type": "node", "id": 1012304939, "lat": 40.7566484, "lon": -73.9140858, "tags": {"level": "-1", "name": "46th Street", "network": "NYC Subway", "note": "no in-station transfer between platforms", "opening_hours": "24/7", "operator": "New York City Transit Authority", "public_transport": "station", "railway": "station", "railway:ref": "270", "short_name": "46 St", "station": "subway", "subway": "yes", "wheelchair": "no", "wikidata": "Q2096739", "wikipedia": "en:46th Street station (IND Queens Boulevard Line)"}}, {"type": "node", "id": 1012304941, "lat": 40.7575068, "lon": -73.9201758, "tags": {"level": "-2", "name": "Steinway Street", "network": "NYC Subway", "opening_hours": "24/7", "operator": "New York City Transit Authority", "public_transport": "station", "railway": "station", "railway:ref": "271", "short_name": "Steinway St", "station": "subway", "subway": "yes", "wheelchair": "no", "wikidata": "Q2066987", "wikipedia": "en:Steinway Street station"}}, {"type": "node", "id": 1049087987, "lat": 40.7480335, "lon": -73.9468637, "tags": {"internet_access": "wlan", "internet_access:fee": "no", "name": "Court Square\u201323rd Street", "network": "NYC Subway", "opening_hours": "24/7", "operator": "New York City Transit Authority", "public_transport": "stop_position", "railway": "stop", "subway": "yes", "wheelchair": "no", "wikidata": "Q2611918", "wikipedia": "en:Court Square\u201323rd Street station"}}, {"type": "node", "id": 1049104523, "lat": 40.746554, "lon": -73.943832, "tags": {"level": "-2", "name": "Court Square", "network": "NYC Subway", "opening_hours": "24/7", "operator": "New York City Transit Authority", "public_transport": "station", "railway": "station", "railway:ref": "281", "short_name": "Court Sq", "source": "http://mta.info/nyct/service/gline.htm", "station": "subway", "subway": "yes", "wheelchair": "no", "wikidata": "Q2611918", "wikipedia": "en:Court Square\u201323rd Street station"}}, {"type": "node", "id": 1078335224, "lat": 40.7192583, "lon": -74.0421003, "tags": {"level": "-2", "name": "Grove Street", "network": "PATH", "operator": "Port Authority Trans-Hudson", "public_transport": "station", "railway": "station", "station": "subway", "subway": "yes", "wikidata": "Q5611460", "wikipedia": "en:Grove Street station (PATH)"}}, {"type": "node", "id": 1241337400, "lat": 40.7571569, "lon": -73.9933828}, {"type": "node", "id": 1241337402, "lat": 40.7560875, "lon": -73.9908279}, {"type": "node", "id": 1241337403, "lat": 40.7576387, "lon": -73.9930314}, {"type": "node", "id": 1241337404, "lat": 40.7565693, "lon": -73.9904765}, {"type": "node", "id": 1241864778, "lat": 40.7576643, "lon": -73.9548433, "tags": {"bench": "no", "bus": "yes", "highway": "bus_stop", "local_ref": "Kiosk Bus Stop", "name": "West Road & Road 5", "public_transport": "platform", "route_ref": "Q102, Roosevelt Island Bus", "shelter": "no"}}, {"type": "node", "id": 1241864782, "lat": 40.7586348, "lon": -73.9525915, "tags": {"bus": "yes", "highway": "bus_stop", "local_ref": "Riverwalk Bus Stop", "name": "Subway Station East", "operator": "Roosevelt Island Operating Corporation", "public_transport": "platform", "shelter": "yes"}}, {"type": "node", "id": 1241864785, "lat": 40.7576851, "lon": -73.9549216, "tags": {"bus": "yes", "public_transport": "stop_position"}}, {"type": "node", "id": 1241864799, "lat": 40.759294, "lon": -73.9533405, "tags": {"bench": "no", "bin": "yes", "bus": "yes", "highway": "bus_stop", "local_ref": "Subway Bus Stop", "name": "Subway Station West", "operator": "Roosevelt Island Operating Corporation", "public_transport": "platform", "route_ref": "Q102", "shelter": "no", "tactile_paving": "yes", "wheelchair": "limited"}}, {"type": "node", "id": 1242830435, "lat": 40.7617063, "lon": -73.949943, "tags": {"bench": "no", "bus": "yes", "highway": "bus_stop", "name": "543 Main Street (Good Shepherd Chapel)", "network": "NYC Transit", "network:wikidata": "Q1325591", "network:wikipedia": "en:New York City Transit Authority", "operator": "Roosevelt Island Operating Corporation", "public_transport": "platform", "route_ref": "Q102", "shelter": "yes"}}, {"type": "node", "id": 1242838938, "lat": 40.7973389, "lon": -73.9273715}, {"type": "node", "id": 1242838965, "lat": 40.7973839, "lon": -73.9273907}, {"type": "node", "id": 1242838979, "lat": 40.7972308, "lon": -73.9276616}, {"type": "node", "id": 1242838992, "lat": 40.7973093, "lon": -73.9276951}, {"type": "node", "id": 1242838994, "lat": 40.7973053, "lon": -73.9273571}, {"type": "node", "id": 1261183473, "lat": 40.7736528, "lon": -73.9598437, "tags": {"internet_access": "wlan", "internet_access:fee": "no", "level": "-1", "name": "77th Street", "network": "NYC Subway", "note": "no in-station transfer between platforms", "opening_hours": "24/7", "operator": "New York City Transit Authority", "public_transport": "station", "railway": "station", "railway:ref": "398", "short_name": "77 St", "station": "subway", "subway": "yes", "wheelchair": "no", "wikidata": "Q2070847", "wikipedia": "en:77th Street station (IRT Lexington Avenue Line)"}}, {"type": "node", "id": 1261183479, "lat": 40.7685128, "lon": -73.9635707, "tags": {"name": "68th Street\u2013Hunter College", "network": "NYC Subway", "operator": "MTA New York City Transit", "public_transport": "stop_position", "railway": "stop", "subway": "yes", "wheelchair": "no"}}, {"type": "node", "id": 1261183482, "lat": 40.7858647, "lon": -73.9508992, "tags": {"internet_access": "wlan", "internet_access:fee": "no", "level": "-1", "name": "96th Street", "network": "NYC Subway", "opening_hours": "24/7", "operator": "New York City Transit Authority", "public_transport": "station", "railway": "station", "railway:ref": "396", "short_name": "96 St", "station": "subway", "subway": "yes", "wheelchair": "no", "wikidata": "Q2982555", "wikipedia": "en:96th Street station (IRT Lexington Avenue Line)"}}, {"type": "node", "id": 1262585257, "lat": 40.7096231, "lon": -74.0399336, "tags": {"amenity": "ferry_terminal", "ferry": "yes", "name": "Liberty Harbor", "public_transport": "station"}}, {"type": "node", "id": 1262585259, "lat": 40.7350368, "lon": -74.0265592, "tags": {"amenity": "ferry_terminal", "ferry": "yes", "name": "Hoboken NJ Transit Terminal", "public_transport": "stop_position", "survey:date": "2021-08-15"}}, {"type": "node", "id": 1262585260, "lat": 40.7587924, "lon": -74.0228186, "tags": {"addr:city": "Weehawken", "addr:postcode": "07086", "addr:state": "NJ", "addr:street": "Harbor Boulevard", "amenity": "ferry_terminal", "ferry": "yes", "name": "Lincoln Harbor", "network": "NY Waterway", "network:wikidata": "Q6956135", "network:wikipedia": "en:NY Waterway", "operator": "NY Waterway", "public_transport": "stop_position", "website": "https://www.nywaterway.com/LincolnHarborWeehawkenTerminal.aspx", "wheelchair": "yes"}}, {"type": "node", "id": 1262585261, "lat": 40.726036, "lon": -74.0344862, "tags": {"amenity": "ferry_terminal", "ferry": "yes", "name": "Newport", "public_transport": "station"}}, {"type": "node", "id": 1272674971, "lat": 40.7524321, "lon": -73.9936934, "tags": {"description": "all A,C,E trains", "level": "0", "railway": "subway_entrance", "wheelchair": "no"}}, {"type": "node", "id": 1272674972, "lat": 40.7519816, "lon": -73.9932642, "tags": {"description": "all A,C,E trains", "level": "0", "railway": "subway_entrance", "wheelchair": "yes"}}, {"type": "node", "id": 1272674974, "lat": 40.752222, "lon": -73.9938532, "tags": {"check_date:wheelchair": "2024-07-18", "description": "all A,C,E trains", "level": "0", "railway": "subway_entrance", "wheelchair": "no"}}, {"type": "node", "id": 1279255043, "lat": 40.7080815, "lon": -74.013472, "tags": {"description": "1 trains Uptown & The Bronx", "level": "0", "railway": "subway_entrance", "wheelchair": "no"}}, {"type": "node", "id": 1279255045, "lat": 40.7081826, "lon": -74.0135796, "tags": {"description": "1 trains Downtown", "level": "0", "railway": "subway_entrance", "wheelchair": "no"}}, {"type": "node", "id": 1279255047, "lat": 40.7065392, "lon": -74.0142949, "tags": {"description": "1 trains Downtown", "level": "0", "railway": "subway_entrance", "wheelchair": "no"}}, {"type": "node", "id": 1279255048, "lat": 40.7065783, "lon": -74.0141191, "tags": {"description": "1 trains Uptown & The Bronx", "level": "0", "railway": "subway_entrance", "wheelchair": "no"}}, {"type": "node", "id": 1279312396, "lat": 40.7145245, "lon": -74.0084424, "tags": {"description": "all A,C,E trains", "level": "0", "railway": "subway_entrance", "wheelchair": "no"}}, {"type": "node", "id": 1279312411, "lat": 40.7143288, "lon": -74.0085908, "tags": {"description": "all A,C,E trains", "level": "0", "railway": "subway_entrance", "wheelchair": "no"}}, {"type": "node", "id": 1279337143, "lat": 40.7057919, "lon": -74.0115419, "tags": {"description": "all J,Z trains", "level": "0", "railway": "subway_entrance", "wheelchair": "no"}}, {"type": "node", "id": 1279337146, "lat": 40.7119004, "lon": -74.012527, "tags": {"level": "-4", "name": "World Trade Center", "name:lt": "Pasaulio prekybos centras", "network": "PATH", "network:wikidata": "Q1055811", "opening_hours": "24/7", "operator": "Port Authority Trans-Hudson", "operator:wikidata": "Q908666", "public_transport": "station", "railway": "station", "station": "subway", "subway": "yes", "wheelchair": "yes", "wikidata": "Q2001751", "wikipedia": "en:World Trade Center station (PATH)"}}, {"type": "node", "id": 1279337155, "lat": 40.7062498, "lon": -74.0109413, "tags": {"description": "all J,Z trains", "level": "0", "railway": "subway_entrance", "wheelchair": "no"}}, {"type": "node", "id": 1280340166, "lat": 40.7167341, "lon": -74.0324551, "tags": {"level": "-2", "name": "Exchange Place", "network": "PATH", "operator": "Port Authority Trans-Hudson", "public_transport": "station", "railway": "station", "station": "subway", "subway": "yes", "wheelchair": "yes", "wikidata": "Q5419580", "wikipedia": "en:Exchange Place station (PATH)"}}, {"type": "node", "id": 1280340170, "lat": 40.708076, "lon": -74.0097494, "tags": {"description": "all 2,3,4,5,J,Z trains", "level": "0", "railway": "subway_entrance", "wheelchair": "no"}}, {"type": "node", "id": 1280340171, "lat": 40.7065047, "lon": -74.0095223, "tags": {"description": "all 2,3 trains", "level": "0", "railway": "subway_entrance", "wheelchair": "no"}}, {"type": "node", "id": 1280340172, "lat": 40.7063689, "lon": -74.0096712, "tags": {"description": "all 2,3 trains", "level": "0", "railway": "subway_entrance", "wheelchair": "no"}}, {"type": "node", "id": 1280340175, "lat": 40.7064062, "lon": -74.009358, "tags": {"description": "all 2,3 trains", "level": "0", "railway": "subway_entrance", "wheelchair": "no"}}, {"type": "node", "id": 1280340190, "lat": 40.7075069, "lon": -74.0086262, "tags": {"description": "all 2,3 trains", "level": "0", "railway": "subway_entrance", "wheelchair": "no"}}, {"type": "node", "id": 1280340205, "lat": 40.7066718, "lon": -74.0086345, "tags": {"description": "all 2,3 trains", "level": "0", "railway": "subway_entrance", "wheelchair": "no"}}, {"type": "node", "id": 1280366089, "lat": 40.7040462, "lon": -74.0145424, "tags": {"description": "all 4,5 trains", "entrance": "main", "level": "0", "railway": "subway_entrance", "wheelchair": "no"}}, {"type": "node", "id": 1280366096, "lat": 40.7046354, "lon": -74.0134784, "tags": {"description": "all 4,5 trains", "level": "0", "railway": "subway_entrance", "wheelchair": "no"}}, {"type": "node", "id": 1286793883, "lat": 40.7764397, "lon": -74.0126196, "tags": {"highway": "elevator"}}, {"type": "node", "id": 1286793910, "lat": 40.775528, "lon": -74.0129561}, {"type": "node", "id": 1286793927, "lat": 40.7759912, "lon": -74.0126805}, {"type": "node", "id": 1288901362, "lat": 40.7594546, "lon": -73.9810578, "tags": {"description": "all B,D,F,<F>,M trains", "level": "0", "railway": "subway_entrance", "wheelchair": "yes"}}, {"type": "node", "id": 1288901364, "lat": 40.7579772, "lon": -73.9815321, "tags": {"description": "all B,D,F,<F>,M trains", "level": "0", "railway": "subway_entrance", "wheelchair": "no"}}, {"type": "node", "id": 1288901368, "lat": 40.7580259, "lon": -73.982098, "tags": {"description": "all B,D,F,<F>,M trains", "level": "0", "railway": "subway_entrance", "wheelchair": "no"}}, {"type": "node", "id": 1288901369, "lat": 40.7601465, "lon": -73.9804859, "tags": {"description": "all B,D,F,<F>,M trains", "level": "0", "railway": "subway_entrance", "wheelchair": "no"}}, {"type": "node", "id": 1288901373, "lat": 40.7586021, "lon": -73.981061, "tags": {"description": "all B,D,F,<F>,M trains", "level": "0", "railway": "subway_entrance", "wheelchair": "no"}}, {"type": "node", "id": 1288901374, "lat": 40.759065, "lon": -73.9813235, "tags": {"description": "all B,D,F,<F>,M trains", "level": "-1", "railway": "subway_entrance", "wheelchair": "no"}}, {"type": "node", "id": 1288901377, "lat": 40.7590038, "lon": -73.9808596, "tags": {"description": "all B,D,F,<F>,M trains", "level": "0", "railway": "subway_entrance", "wheelchair": "no"}}, {"type": "node", "id": 1288901379, "lat": 40.7578755, "lon": -73.9816038, "tags": {"description": "all B,D,F,<F>,M trains", "level": "0", "railway": "subway_entrance", "wheelchair": "no"}}, {"type": "node", "id": 1288901380, "lat": 40.7593671, "lon": -73.9806037, "tags": {"description": "all B,D,F,<F>,M trains", "level": "0", "railway": "subway_entrance", "wheelchair": "no"}}, {"type": "node", "id": 1288901381, "lat": 40.7584789, "lon": -73.9811365, "tags": {"description": "all B,D,F,<F>,M trains", "level": "0", "railway": "subway_entrance", "wheelchair": "no"}}, {"type": "node", "id": 1288901382, "lat": 40.7600316, "lon": -73.9801089, "tags": {"description": "all B,D,F,<F>,M trains", "level": "0", "railway": "subway_entrance", "wheelchair": "yes"}}, {"type": "node", "id": 1289004355, "lat": 40.7735257, "lon": -73.9597626, "tags": {"check_date:wheelchair": "2024-08-10", "description": "6,<6> trains Uptown & The Bronx", "level": "0", "name": "East 77th Street & Lexington Avenue at Southeast Corner", "railway": "subway_entrance", "wheelchair": "no"}}, {"type": "node", "id": 1289004364, "lat": 40.7736393, "lon": -73.960033, "tags": {"check_date:wheelchair": "2024-08-10", "description": "6,<6> trains Downtown", "level": "0", "name": "East 77th Street & Lexington Avenue at Southwest Corner", "railway": "subway_entrance", "wheelchair": "no"}}, {"type": "node", "id": 1289004372, "lat": 40.7737636, "lon": -73.9599474, "tags": {"check_date:wheelchair": "2024-08-10", "description": "6,<6> trains Downtown", "level": "0", "name": "East 77th Street & Lexington Avenue at Northwest Corner", "railway": "subway_entrance", "wheelchair": "no"}}, {"type": "node", "id": 1289004378, "lat": 40.7736568, "lon": -73.9596842, "tags": {"description": "6,<6> trains Uptown & The Bronx", "level": "0", "name": "East 77th Street & Lexington Avenue at Northeast Corner", "railway": "subway_entrance", "wheelchair": "no"}}, {"type": "node", "id": 1289014879, "lat": 40.7793372, "lon": -73.955543, "tags": {"description": "6,<6> trains Uptown & The Bronx", "level": "0", "name": "East 86th Street & Lexington Avenue at Southeast Corner", "railway": "subway_entrance", "wheelchair": "no"}}, {"type": "node", "id": 1289014880, "lat": 40.7794494, "lon": -73.9557919, "tags": {"description": "6,<6> trains Downtown", "level": "0", "name": "East 86th Street & Lexington Avenue at Southwest Corner", "railway": "subway_entrance", "wheelchair": "no"}}, {"type": "node", "id": 1289044024, "lat": 40.7203086, "lon": -73.9934091, "tags": {"check_date:wheelchair": "2025-04-17", "description": "all J,Z trains", "level": "0", "railway": "subway_entrance", "wheelchair": "no"}}, {"type": "node", "id": 1289044031, "lat": 40.7200045, "lon": -73.9935448, "tags": {"description": "all J,Z trains", "level": "0", "railway": "subway_entrance", "wheelchair": "no"}}, {"type": "node", "id": 1289044035, "lat": 40.7242189, "lon": -73.9975833, "tags": {"description": "R,W trains Uptown & Queens", "level": "0", "railway": "subway_entrance", "wheelchair": "no"}}, {"type": "node", "id": 1289044036, "lat": 40.7243693, "lon": -73.9979071, "tags": {"description": "R,W trains Downtown & Brooklyn", "level": "0", "railway": "subway_entrance", "wheelchair": "no"}}, {"type": "node", "id": 1289044046, "lat": 40.7241108, "lon": -73.9976536, "tags": {"description": "R,W trains Uptown & Queens", "level": "0", "railway": "subway_entrance", "wheelchair": "no"}}, {"type": "node", "id": 1289044048, "lat": 40.7242719, "lon": -73.9979764, "tags": {"description": "R,W trains Downtown & Brooklyn", "level": "0", "railway": "subway_entrance", "wheelchair": "no"}}, {"type": "node", "id": 1289069581, "lat": 40.7040035, "lon": -74.013307, "tags": {"description": "all R,W trains", "level": "0", "railway": "subway_entrance", "wheelchair": "no"}}, {"type": "node", "id": 1289069587, "lat": 40.7041164, "lon": -74.0129901, "tags": {"description": "all R,W trains", "level": "0", "railway": "subway_entrance", "wheelchair": "no"}}, {"type": "node", "id": 1290043789, "lat": 40.7576482, "lon": -73.9696296, "tags": {"description": "all E,M,6,<6> trains", "level": "0", "name": "East 53rd Street & 3rd Avenue at Southwest Corner", "railway": "subway_entrance", "wheelchair": "no"}}, {"type": "node", "id": 1290043797, "lat": 40.7576869, "lon": -73.9690974, "tags": {"description": "all E,M,6,<6> trains", "level": "0", "name": "East 53rd Street & 3rd Avenue at Northeast Corner", "railway": "subway_entrance", "wheelchair": "no"}}, {"type": "node", "id": 1290043800, "lat": 40.757005, "lon": -73.9718218, "tags": {"description": "6,<6> trains Uptown & The Bronx", "level": "0", "name": "East 51st Street & Lexington Avenue at Southeast Corner", "railway": "subway_entrance", "wheelchair": "no"}}, {"type": "node", "id": 1290043804, "lat": 40.7573046, "lon": -73.9721322, "tags": {"description": "6,<6> trains Downtown", "level": "0", "name": "East 51st Street & Lexington Avenue at Northwest Corner", "railway": "subway_entrance", "wheelchair": "no"}}, {"type": "node", "id": 1290043807, "lat": 40.7571421, "lon": -73.9721262, "tags": {"description": "6,<6> trains Downtown", "level": "0", "name": "East 51st Street & Lexington Avenue at Southwest Corner", "railway": "subway_entrance", "wheelchair": "no"}}, {"type": "node", "id": 1290043838, "lat": 40.7578359, "lon": -73.9695297, "tags": {"description": "all E,M,6,<6> trains", "level": "0", "name": "East 53rd Street & 3rd Avenue at Northwest Corner", "railway": "subway_entrance", "wheelchair": "no"}}, {"type": "node", "id": 1291420905, "lat": 40.7560002, "lon": -73.9767287, "tags": {"entrance": "yes", "name": "Grand Central - 47th Street Entrance", "railway": "subway_entrance"}}, {"type": "node", "id": 1293095286, "lat": 40.7267989, "lon": -74.0347553, "tags": {"level": "-2", "name": "Newport", "network": "PATH", "operator": "Port Authority Trans-Hudson", "platforms": "2", "public_transport": "station", "railway": "station", "station": "subway", "subway": "yes", "wheelchair": "yes", "wikidata": "Q7018740", "wikipedia": "en:Newport station (PATH)"}}, {"type": "node", "id": 1298209384, "lat": 40.7837737, "lon": -73.9802789, "tags": {"description": "1 trains Downtown", "level": "0", "railway": "subway_entrance", "wheelchair": "no", "wikidata": "Q2524318", "wikipedia": "en:79th Street station (IRT Broadway\u2013Seventh Avenue Line)"}}, {"type": "node", "id": 1298209385, "lat": 40.7840733, "lon": -73.9800576, "tags": {"description": "1 trains Downtown", "level": "0", "railway": "subway_entrance", "wheelchair": "no"}}, {"type": "node", "id": 1298209392, "lat": 40.7839916, "lon": -73.97966, "tags": {"description": "1 trains Uptown & The Bronx", "level": "0", "railway": "subway_entrance", "wheelchair": "no"}}, {"type": "node", "id": 1298209393, "lat": 40.7836386, "lon": -73.9799168, "tags": {"description": "1 trains Uptown & The Bronx", "level": "0", "railway": "subway_entrance", "wheelchair": "no"}}, {"type": "node", "id": 1299532748, "lat": 40.7761973, "lon": -73.9762472, "tags": {"level": "0", "railway": "subway_entrance", "wheelchair": "no"}}, {"type": "node", "id": 1299532753, "lat": 40.7764556, "lon": -73.9759622, "tags": {"level": "0", "railway": "subway_entrance", "wheelchair": "no"}}, {"type": "node", "id": 1299532756, "lat": 40.7749358, "lon": -73.9771489, "tags": {"level": "0", "railway": "subway_entrance", "wheelchair": "no"}}, {"type": "node", "id": 1299563709, "lat": 40.781966, "lon": -73.9719824, "tags": {"level": "0", "railway": "subway_entrance", "wheelchair": "no"}}, {"type": "node", "id": 1299563711, "lat": 40.7861294, "lon": -73.9690189, "tags": {"level": "0", "railway": "subway_entrance", "wheelchair": "no"}}, {"type": "node", "id": 1299563718, "lat": 40.7854912, "lon": -73.9694521, "tags": {"level": "0", "railway": "subway_entrance", "wheelchair": "no"}}, {"type": "node", "id": 1299563722, "lat": 40.7867768, "lon": -73.9684439, "tags": {"level": "0", "railway": "subway_entrance", "wheelchair": "no"}}, {"type": "node", "id": 1299563736, "lat": 40.7852044, "lon": -73.9695885, "tags": {"level": "0", "railway": "subway_entrance", "wheelchair": "no"}}, {"type": "node", "id": 1299563738, "lat": 40.7926144, "lon": -73.9643149, "tags": {"level": "0", "railway": "subway_entrance", "wheelchair": "no"}}, {"type": "node", "id": 1299563741, "lat": 40.7922908, "lon": -73.9644187, "tags": {"check_date:wheelchair": "2025-08-05", "level": "0", "railway": "subway_entrance", "wheelchair": "no"}}, {"type": "node", "id": 1299563743, "lat": 40.7822557, "lon": -73.9717385, "tags": {"level": "0", "railway": "subway_entrance", "wheelchair": "no"}}, {"type": "node", "id": 1299563747, "lat": 40.7852911, "lon": -73.9696701, "tags": {"level": "0", "railway": "subway_entrance", "wheelchair": "no"}}, {"type": "node", "id": 1329122515, "lat": 40.757077, "lon": -73.9916893}, {"type": "node", "id": 1383925627, "lat": 40.7669314, "lon": -73.9829274, "tags": {"description": "all A,B,C,D,1 trains", "level": "0", "railway": "subway_entrance", "wheelchair": "no"}}, {"type": "node", "id": 1423440756, "lat": 40.724635, "lon": -73.951277, "tags": {"gtfs_stop_code": "G28", "level": "-2", "name": "Nassau Avenue", "network": "NYC Subway", "opening_hours": "24/7", "operator": "New York City Transit Authority", "platforms": "2", "public_transport": "station", "railway": "station", "railway:ref": "284", "short_name": "Nassau Av", "source": "http://mta.info/nyct/service/gline.htm", "station": "subway", "subway": "yes", "wheelchair": "no", "wikidata": "Q2985519", "wikipedia": "en:Nassau Avenue station"}}, {"type": "node", "id": 1427285944, "lat": 40.7511635, "lon": -73.9756027, "tags": {"bench": "yes", "bus": "yes", "highway": "bus_stop", "kerb": "raised", "kerb:approach_aid": "no", "lit": "yes", "name": "East 42nd Street & Lexington Avenue", "network": "NYC Transit", "network:wikidata": "Q1325591", "network:wikipedia": "en:New York City Transit Authority", "passenger_information_display": "no", "public_transport": "platform", "route_ref": "M42", "shelter": "yes", "tactile_paving": "no"}}, {"type": "node", "id": 1427499826, "lat": 40.7517, "lon": -73.9799727, "tags": {"bench": "no", "bus": "yes", "highway": "bus_stop", "kerb": "raised", "kerb:approach_aid": "no", "lit": "yes", "name": "Madison Avenue & East 40th Street", "passenger_information_display": "no", "public_transport": "platform", "shelter": "no", "tactile_paving": "no"}}, {"type": "node", "id": 1428427574, "lat": 40.7589051, "lon": -73.9771709, "tags": {"bench": "no", "bin": "no", "bus": "yes", "highway": "bus_stop", "lit": "yes", "public_transport": "platform", "ref": "450123", "shelter": "no", "tactile_paving": "no"}}, {"type": "node", "id": 1437051216, "lat": 40.7087612, "lon": -73.9702653, "tags": {"amenity": "ferry_terminal", "ferry": "yes", "name": "Schaefer Landing/South Williamsburg", "public_transport": "stop_position"}}, {"type": "node", "id": 1437051266, "lat": 40.7209266, "lon": -73.9648885, "tags": {"amenity": "ferry_terminal", "ferry": "yes", "name": "North 6th Street/North Williamsburg", "public_transport": "stop_position"}}, {"type": "node", "id": 1437051302, "lat": 40.7313641, "lon": -73.9636871, "tags": {"amenity": "ferry_terminal", "bicycle": "yes", "ferry": "yes", "foot": "yes", "name": "India Street/Greenpoint", "network": "NYC Ferry", "note": "Construction expected to last until September 2022", "operator": "Lendlease", "public_transport": "stop_position", "start_date": "2022-09", "website": "https://www.lendlease.com/us/media-center/lendlease-responds/ferry-service-anticipated-to-resume-in-september-2022/"}}, {"type": "node", "id": 1437051359, "lat": 40.7418457, "lon": -73.9613465, "tags": {"amenity": "ferry_terminal", "ferry": "yes", "name": "Hunters Point South/Long Island City", "public_transport": "stop_position"}}, {"type": "node", "id": 1437051378, "lat": 40.7435089, "lon": -73.9710005, "tags": {"amenity": "ferry_terminal", "cargo": "passengers;bicycle", "ferry": "yes", "name": "East 34th Street/Midtown", "public_transport": "stop_position", "wheelchair": "yes", "wikidata": "Q5327624", "wikipedia": "en:East 34th Street Ferry Landing"}}, {"type": "node", "id": 1497330165, "lat": 40.7616651, "lon": -73.984143, "tags": {"check_date:wheelchair": "2025-06-12", "description": "1 trains Downtown", "level": "-1", "railway": "subway_entrance", "wheelchair": "no"}}, {"type": "node", "id": 1497330168, "lat": 40.7612735, "lon": -73.9838104, "tags": {"description": "1 trains Uptown & The Bronx", "level": "0", "railway": "subway_entrance", "wheelchair": "no"}}, {"type": "node", "id": 1497330170, "lat": 40.7613695, "lon": -73.9837587, "tags": {"description": "1 trains Uptown & The Bronx", "level": "0", "railway": "subway_entrance", "wheelchair": "no"}}, {"type": "node", "id": 1497346119, "lat": 40.7059561, "lon": -74.0112159, "tags": {"description": "all J,Z trains", "level": "0", "railway": "subway_entrance", "wheelchair": "no"}}, {"type": "node", "id": 1581645067, "lat": 40.7464612, "lon": -73.9748069, "tags": {"bench": "no", "bus": "yes", "highway": "bus_stop", "name": "NYC Airporter, JFK and LGA Airports", "public_transport": "platform", "shelter": "no", "source": "survey"}}, {"type": "node", "id": 1690448975, "lat": 40.7538682, "lon": -73.9757996}, {"type": "node", "id": 1690448992, "lat": 40.7537714, "lon": -73.9757979}, {"type": "node", "id": 1695334034, "lat": 40.7055764, "lon": -74.0133652, "tags": {"name": "Bowling Green", "network": "NYC Subway", "operator": "New York City Transit Authority", "public_transport": "stop_position", "railway": "stop", "subway": "yes", "wheelchair": "yes"}}, {"type": "node", "id": 1695334044, "lat": 40.7233276, "lon": -73.9966481, "tags": {"name": "Spring Street", "network": "NYC Subway", "operator": "New York City Transit Authority", "public_transport": "stop_position", "railway": "stop", "subway": "yes", "wheelchair": "no"}}, {"type": "node", "id": 1695334087, "lat": 40.7110085, "lon": -74.0090018, "tags": {"name": "Fulton Street", "network": "NYC Subway", "opening_hours": "24/7", "operator": "New York City Transit Authority", "public_transport": "stop_position", "railway": "stop", "subway": "yes", "wheelchair": "yes"}}, {"type": "node", "id": 1740704823, "lat": 40.8077529, "lon": -73.9455416, "tags": {"internet_access": "wlan", "internet_access:fee": "no", "level": "-1", "name": "125th Street", "network": "NYC Subway", "note": "no in-station transfer between platforms", "opening_hours": "24/7", "operator": "New York City Transit Authority", "public_transport": "station", "railway": "station", "railway:ref": "439", "short_name": "125 St", "start_date": "1904-11-23", "station": "subway", "subway": "yes", "wheelchair": "no", "wikidata": "Q729394", "wikimedia_commons": "Category:125th Street (IRT Lenox Avenue Line)", "wikipedia": "en:125th Street station (IRT Lenox Avenue Line)"}}, {"type": "node", "id": 1763147323, "lat": 40.7038293, "lon": -73.9473618, "tags": {"level": "2", "name": "Lorimer Street", "network": "NYC Subway", "opening_hours": "24/7", "operator": "New York City Transit Authority", "public_transport": "station", "railway": "station", "railway:ref": "99", "short_name": "Lorimer St", "station": "subway", "subway": "yes", "wheelchair": "no", "wikidata": "Q920773", "wikipedia": "en:Lorimer Street station (BMT Jamaica Line)"}}, {"type": "node", "id": 1763147324, "lat": 40.7068552, "lon": -73.9533503, "tags": {"level": "2", "name": "Hewes Street", "network": "NYC Subway", "opening_hours": "24/7", "operator": "New York City Transit Authority", "public_transport": "station", "railway": "station", "railway:ref": "100", "short_name": "Hewes St", "station": "subway", "subway": "yes", "wheelchair": "no", "wikidata": "Q594076", "wikipedia": "en:Hewes Street station"}}, {"type": "node", "id": 1793478711, "lat": 40.7838618, "lon": -73.9799918, "tags": {"internet_access": "wlan", "internet_access:fee": "no", "level": "-1", "location": "underground", "name": "79th Street", "name:en": "79th Street", "name:ru": "79-\u044f \u0441\u0442\u0440\u0438\u0442", "network": "NYC Subway", "note": "no in-station transfer between platforms", "opening_hours": "24/7", "operator": "New York City Transit Authority", "public_transport": "station", "railway": "station", "railway:ref": "312", "short_name": "79 St", "start_date": "1904-10-27", "station": "subway", "subway": "yes", "wheelchair": "no", "wikidata": "Q2524318", "wikipedia": "en:79th Street station (IRT Broadway\u2013Seventh Avenue Line)"}}, {"type": "node", "id": 1793478712, "lat": 40.7883389, "lon": -73.9765049, "tags": {"internet_access": "wlan", "internet_access:fee": "no", "level": "-1", "location": "underground", "name": "86th Street", "name:en": "86th Street", "name:ru": "86-\u044f \u0441\u0442\u0440\u0438\u0442", "network": "NYC Subway", "note": "no in-station transfer between platforms", "opening_hours": "24/7", "operator": "New York City Transit Authority", "public_transport": "station", "railway": "station", "railway:ref": "311", "short_name": "86 St", "station": "subway", "subway": "yes", "wheelchair": "no", "wikidata": "Q1884273", "wikipedia": "en:86th Street station (IRT Broadway\u2013Seventh Avenue Line)"}}, {"type": "node", "id": 1821015970, "lat": 40.7881216, "lon": -73.9762914, "tags": {"description": "1 trains Uptown & The Bronx", "level": "0", "railway": "subway_entrance", "wheelchair": "no"}}, {"type": "node", "id": 1821015971, "lat": 40.7883722, "lon": -73.9768763, "tags": {"description": "1 trains Downtown", "level": "0", "name": "Broadway & 86th St", "railway": "subway_entrance", "wheelchair": "no"}}, {"type": "node", "id": 1825841695, "lat": 40.7684277, "lon": -73.9818156}, {"type": "node", "id": 1825848835, "lat": 40.7991329, "lon": -73.968326, "tags": {"level": "0", "railway": "subway_entrance", "wheelchair": "no"}}, {"type": "node", "id": 1825848836, "lat": 40.7992455, "lon": -73.9682694, "tags": {"level": "0", "railway": "subway_entrance", "wheelchair": "no"}}, {"type": "node", "id": 1825848837, "lat": 40.7992897, "lon": -73.9686779, "tags": {"level": "0", "railway": "subway_entrance", "wheelchair": "yes"}}, {"type": "node", "id": 1825848838, "lat": 40.799421, "lon": -73.9686137, "tags": {"level": "0", "railway": "subway_entrance", "wheelchair": "no"}}, {"type": "node", "id": 1825853552, "lat": 40.7868478, "lon": -73.9779755, "tags": {"bench": "yes", "bin": "no", "bus": "yes", "highway": "bus_stop", "lit": "yes", "name": "Broadway & West 84 Street", "public_transport": "platform", "ref": "403163", "shelter": "yes", "tactile_paving": "no"}}, {"type": "node", "id": 1825853570, "lat": 40.7979619, "lon": -73.9691461, "tags": {"bench": "yes", "bus": "yes", "highway": "bus_stop", "name": "Broadway & West 101st Street", "network": "NYC Transit", "network:wikidata": "Q1325591", "network:wikipedia": "en:New York City Transit Authority", "operator": "MTA", "public_transport": "platform", "route_ref": "M104", "shelter": "yes"}}, {"type": "node", "id": 1825853574, "lat": 40.7983086, "lon": -73.9693616, "tags": {"bench": "yes", "bus": "yes", "highway": "bus_stop", "name": "Broadway & West 102nd Street", "network": "NYC Transit", "network:wikidata": "Q1325591", "network:wikipedia": "en:New York City Transit Authority", "operator": "MTA", "public_transport": "platform", "route_ref": "M104", "shelter": "yes"}}, {"type": "node", "id": 1825853598, "lat": 40.7883945, "lon": -73.9769221, "tags": {"bench": "yes", "bus": "yes", "highway": "bus_stop", "name": "86th St / Broadway", "network": "NYC Transit", "network:wikidata": "Q1325591", "network:wikipedia": "en:New York City Transit Authority", "operator": "MTA", "public_transport": "platform", "route_ref": "M86", "shelter": "yes"}}, {"type": "node", "id": 1834885364, "lat": 40.7970221, "lon": -73.9702911, "tags": {"bench": "yes", "bus": "yes", "highway": "bus_stop", "name": "Broadway & West 100th Street", "network": "NYC Transit", "network:wikidata": "Q1325591", "network:wikipedia": "en:New York City Transit Authority", "operator": "MTA", "public_transport": "platform", "route_ref": "M104", "shelter": "yes"}}, {"type": "node", "id": 1853451278, "lat": 40.7400232, "lon": -74.0029242, "tags": {"bench": "yes", "bus": "yes", "highway": "bus_stop", "name": "West 14th Street & 8th Avenue", "network": "NYC Transit", "network:wikidata": "Q1325591", "public_transport": "platform", "ref": "403897", "ref:signed": "no", "route_ref": "M12;M14A-SBS;M14D-SBS", "shelter": "yes", "tactile_paving": "no"}}, {"type": "node", "id": 1888233683, "lat": 40.7810862, "lon": -73.9762549, "tags": {"bench": "yes", "bin": "no", "bus": "yes", "highway": "bus_stop", "lit": "yes", "name": "Columbus Avenue & West 78th Street", "network": "NYC Transit", "network:wikidata": "Q1325591", "network:wikipedia": "en:New York City Transit Authority", "operator": "MTA", "public_transport": "platform", "route_ref": "M7;M11", "shelter": "yes"}},