{"version": 0.6, "generator": "Overpass API 0.7.62.8 e802775f", "osm3s": {"timestamp_osm_base": "2026-01-15T09:21:33Z", "copyright": "The data included in this document is from www.openstreetmap.org. The data is made available under ODbL."}, "elements": [{"type": "node", "id": 4377032452, "lat": 41.6071341, "lon": -0.8245402}, {"type": "node", "id": 4377032453, "lat": 41.6080025, "lon": -0.8234271}, {"type": "node", "id": 4377032454, "lat": 41.6080566, "lon": -0.8234995}, {"type": "node", "id": 4377032455, "lat": 41.6080586, "lon": -0.8238267}, {"type": "node", "id": 4377032456, "lat": 41.6079844, "lon": -0.8241781}, {"type": "node", "id": 4377032457, "lat": 41.6073527, "lon": -0.8250042}, {"type": "node", "id": 4377032458, "lat": 41.6073126, "lon": -0.8249988}, {"type": "way", "id": 440001736, "nodes": [4377032452, 4377032453, 4377032454, 4377032455, 4377032456, 4377032457, 4377032458, 4377032452], "tags": {"addr:city": "Zaragoza", "addr:housenumber": "8", "addr:postcode": "50720", "addr:street": "Calle de Juan de las Vi\u00f1as", "amenity": "school", "education": "school", "fence_type": "bars", "name": "Colegio P\u00fablico \u00c1ngel Escoriaza"}}]}