{"version": 0.6, "generator": "Overpass API 0.7.62.8 e802775f", "osm3s": {"timestamp_osm_base": "2026-01-15T07:08:30Z", "copyright": "The data included in this document is from www.openstreetmap.org. The data is made available under ODbL."}, "elements": [{"type": "node", "id": 3521390394, "lat": 45.0792917, "lon": 7.60426, "tags": {"addr:city": "Collegno", "addr:housenumber": "4", "addr:postcode": "10993", "addr:street": "Via Umberto Terracini", "amenity": "hospital", "contact:phone": "+390114153523", "healthcare": "hospital", "healthcare:speciality": "general", "name": "Guardia Medica", "opening_hours": "Mo-Fr 20:00-8:00; Sa 00:00-08:00,10:00-24:00; PH,Su 00:00-24:00", "operator": "ASL", "operator:wikidata": "Q3631467", "operator:wikipedia": "it:Azienda sanitaria locale"}}, {"type": "node", "id": 7867736221, "lat": 45.0802221, "lon": 7.604022}, {"type": "node", "id": 7867736222, "lat": 45.0802197, "lon": 7.6055332}, {"type": "node", "id": 7867736223, "lat": 45.0794522, "lon": 7.6054841}, {"type": "node", "id": 7867736224, "lat": 45.079217, "lon": 7.6052211}, {"type": "node", "id": 7867736225, "lat": 45.079165, "lon": 7.6050704}, {"type": "node", "id": 7867736226, "lat": 45.0793432, "lon": 7.6039308}, {"type": "node", "id": 8839623104, "lat": 45.0792917, "lon": 7.60426}, {"type": "node", "id": 11640646342, "lat": 45.1089063, "lon": 7.6425359, "tags": {"amenity": "hospital", "emergency": "yes", "healthcare": "hospital", "healthcare:speciality": "emergency", "operator": "ANPAS", "operator:type": "private", "website": "https://www.anpas.org/", "wikipedia": "it:ANPAS"}}, {"type": "way", "id": 843447029, "nodes": [7867736221, 7867736222, 7867736223, 7867736224, 7867736225, 8839623104, 7867736226, 7867736221], "tags": {"addr:city": "Collegno", "addr:housenumber": "4", "addr:postcode": "10093", "addr:street": "Via Umberto Terracini", "amenity": "hospital", "healthcare": "hospital", "name": "Clinica della Memoria \"Giovanni Paolo II\"", "operator": "Fondazione San Secondo per la Ricerca sull\u2019Alzheimer Onlus"}}]}