{"version": 0.6, "generator": "Overpass API 0.7.62.8 e802775f", "osm3s": {"timestamp_osm_base": "2026-01-09T11:27:02Z", "copyright": "The data included in this document is from www.openstreetmap.org. The data is made available under ODbL."}, "elements": [{"type": "node", "id": 289582012, "lat": 17.4245107, "lon": 78.4626514, "tags": {"name": "Necklace Road", "name:te": "\u0c28\u0c46\u0c15\u0c4d\u0c32\u0c46\u0c38\u0c4d \u0c30\u0c4b\u0c21\u0c4d\u0c21\u0c41", "public_transport": "stop_position", "railway": "stop", "ref": "1", "train": "yes"}}, {"type": "node", "id": 289582025, "lat": 17.4129744, "lon": 78.4610582, "tags": {"internet_access": "no", "name": "Khairatabad", "name:te": "\u0c16\u0c48\u0c30\u0c24\u0c3e\u0c2c\u0c3e\u0c26\u0c4d", "name:ur": "\u062e\u06cc\u0631\u062a \u0622\u0628\u0627\u062f", "network": "IR", "operator": "SCR", "platforms": "2", "public_transport": "station", "railway": "station", "ref": "KQD", "train": "yes", "wikidata": "Q6399082", "wikipedia": "en:Khairatabad railway station"}}, {"type": "node", "id": 289582401, "lat": 17.4233355, "lon": 78.4631857, "tags": {"internet_access": "no", "name": "Necklace Road", "name:te": "\u0c28\u0c46\u0c15\u0c4d\u0c32\u0c46\u0c38\u0c4d \u0c30\u0c4b\u0c21\u0c4d\u0c21\u0c41", "name:ur": "\u0646\u06a9\u0644\u06cc\u0633 \u0631\u0648\u0688", "network": "IR", "operator": "SCR", "platforms": "2", "public_transport": "station", "railway": "station", "ref": "NLRD", "train": "yes", "wikidata": "Q6985575", "wikipedia": "en:Necklace Road railway station"}}, {"type": "node", "id": 289656763, "lat": 17.3924223, "lon": 78.4675956, "tags": {"internet_access": "no", "name": "Hyderabad Deccan Nampally", "name:fa": "\u062d\u06cc\u062f\u0631\u0622\u0628\u0627\u062f \u062f\u06a9\u0646", "name:te": "\u0c39\u0c48\u0c26\u0c30\u0c3e\u0c2c\u0c3e\u0c26\u0c4d \u0c26\u0c15\u0c4d\u0c15\u0c28\u0c4d \u0c28\u0c3e\u0c02\u0c2a\u0c32\u0c4d\u0c32\u0c3f", "name:ur": "\u062d\u06cc\u062f\u0631\u0622\u0628\u0627\u062f \u062f\u06a9\u0646", "network": "IR", "operator": "SCR", "platforms": "6", "railway": "station", "ref": "HYB", "train": "yes", "wheelchair": "limited", "wikidata": "Q3633967", "wikipedia": "en:Hyderabad Deccan railway station"}}, {"type": "node", "id": 307015337, "lat": 17.3765035, "lon": 78.4948263, "tags": {"alt_name:ur": "\u0645\u0644\u06a9 \u067e\u06cc\u0679", "internet_access": "no", "name": "Malakpet", "name:ar": "\u0645\u0627\u0644\u0643 \u0628\u064a\u062a", "name:fa": "\u0645\u0644\u06a9 \u067e\u06cc\u062a", "name:ur": "\u0645\u0627\u0644\u06a9 \u067e\u06cc\u0679", "network": "IR", "operator": "SCR", "platforms": "2", "public_transport": "station", "railway": "station", "ref": "MXT", "train": "yes", "wikidata": "Q6741191", "wikipedia": "en:Malakpet railway station"}}, {"type": "node", "id": 307015338, "lat": 17.3758726, "lon": 78.494705, "tags": {"name": "Malakpet", "public_transport": "stop_position", "ref": "1", "train": "yes"}}, {"type": "node", "id": 307015360, "lat": 17.3661232, "lon": 78.4904751, "tags": {"name": "Dabirpura", "public_transport": "stop_position", "ref": "1", "train": "yes"}}, {"type": "node", "id": 307015407, "lat": 17.3413828, "lon": 78.4825938, "tags": {"name": "Huppuguda", "public_transport": "stop_position", "ref": "1", "train": "yes"}}, {"type": "node", "id": 307018576, "lat": 17.3230489, "lon": 78.436567, "tags": {"internet_access": "no", "name": "NPA Shivaram Pally", "network": "Indian Railways", "operator": "South Central Railway", "public_transport": "halt", "railway": "halt", "ref": "NSVP", "train": "yes", "wikidata": "Q63369765"}}, {"type": "node", "id": 307023348, "lat": 17.389311, "lon": 78.4992403, "tags": {"historic": "yes", "internet_access": "wlan", "name": "Kacheguda", "name:ml": "\u0d15\u0d3e\u0d1a\u0d4d\u0d1a\u0d3f\u0d17\u0d41\u0d21", "name:te": "\u0c15\u0c3e\u0c1a\u0c3f\u0c17\u0c42\u0c21", "name:ur": "\u06a9\u0627\u0686\u06cc \u06af\u0648\u0691\u06c1", "network": "IR", "operator": "SCR", "public_transport": "station", "railway": "station", "ref": "KCG", "train": "yes", "wikidata": "Q6344674", "wikipedia": "en:Kacheguda railway station"}}, {"type": "node", "id": 308586608, "lat": 17.4116226, "lon": 78.5181614, "tags": {"internet_access": "no", "name": "Jamai Osmania", "name:te": "\u0c1c\u0c3e\u0c2e\u0c48 \u0c09\u0c38\u0c4d\u0c2e\u0c3e\u0c28\u0c3f\u0c2f\u0c3e", "name:ur": "\u062c\u0627\u0645\u0639\u06c1 \u0639\u062b\u0645\u0627\u0646\u06cc\u06c1", "network": "IR", "operator": "SCR", "platforms": "2", "public_transport": "halt", "railway": "halt", "ref": "JOO", "train": "yes", "wikidata": "Q6146443", "wikipedia": "en:Jamia Osmania railway station"}}, {"type": "node", "id": 308586614, "lat": 17.417977, "lon": 78.5200383, "tags": {"internet_access": "no", "name": "Arts College", "name:te": "\u0c06\u0c30\u0c4d\u0c1f\u0c4d\u0c38\u0c4d \u0c15\u0c3e\u0c32\u0c47\u0c1c\u0c4d", "network": "IR", "operator": "SCR", "platforms": "2", "public_transport": "halt", "railway": "halt", "ref": "ATC", "train": "yes", "wikidata": "Q4801441", "wikipedia": "en:Arts College railway station"}}, {"type": "node", "id": 308586674, "lat": 17.4408124, "lon": 78.5247765, "tags": {"internet_access": "no", "name": "Lalaguda Gate", "network": "IR", "operator": "SCR", "public_transport": "halt", "railway": "halt", "ref": "LGDH", "train": "yes", "wikidata": "Q16938297", "wikipedia": "en:Lallaguda railway station"}}, {"type": "node", "id": 308937020, "lat": 17.4407394, "lon": 78.5506697, "tags": {"internet_access": "no", "name": "Moula Ali", "name:fa": "\u0645\u0648\u0644\u0627 \u0639\u0644\u06cc", "name:te": "\u0c2e\u0c4c\u0c32\u0c3e \u0c05\u0c32\u0c3f", "name:ur": "\u0645\u0648\u0644\u0627 \u0639\u0644\u06cc", "network": "IR", "operator": "SCR", "public_transport": "station", "railway": "station", "ref": "MLY", "train": "yes", "wikidata": "Q62004881", "wikipedia": "en:Moula Ali railway station"}}, {"type": "node", "id": 310444224, "lat": 17.4560428, "lon": 78.5315843, "tags": {"name": "Dayanand Nagar", "public_transport": "stop_position", "railway": "stop", "train": "yes"}}, {"type": "node", "id": 315063655, "lat": 17.4102472, "lon": 78.4865248, "tags": {"bus": "yes", "highway": "bus_stop", "name": "Domalguada Bus top", "public_transport": "platform"}}, {"type": "node", "id": 324858173, "lat": 17.4263175, "lon": 78.5313258, "tags": {"amenity": "bus_station", "bus": "yes", "highway": "bus_stop", "name": "Tarnaka Bus Stop", "public_transport": "station"}}, {"type": "node", "id": 324859710, "lat": 17.4259908, "lon": 78.5302396, "tags": {"highway": "bus_stop", "name": "TGSRTC Hospital Bus Stop"}}, {"type": "node", "id": 324859997, "lat": 17.4238103, "lon": 78.5274645, "tags": {"highway": "bus_stop", "name": "Old Dairy Farm"}}, {"type": "node", "id": 324870018, "lat": 17.4060326, "lon": 78.5169959, "tags": {"created_by": "Potlatch 0.10f", "highway": "bus_stop", "name": "NCC"}}, {"type": "node", "id": 324870393, "lat": 17.4091039, "lon": 78.5201029, "tags": {"created_by": "Potlatch 0.10f", "highway": "bus_stop", "name": "Engineering College"}}, {"type": "node", "id": 324870748, "lat": 17.4148776, "lon": 78.5250554, "tags": {"created_by": "Potlatch 0.10f", "highway": "bus_stop", "name": "Law College"}}, {"type": "node", "id": 324871124, "lat": 17.4118475, "lon": 78.5218367, "tags": {"created_by": "Potlatch 0.10f", "highway": "bus_stop", "name": "Ladies Hostel"}}, {"type": "node", "id": 324871542, "lat": 17.4203646, "lon": 78.527347, "tags": {"created_by": "Potlatch 0.10f", "highway": "bus_stop", "name": "Arts College"}}, {"type": "node", "id": 343319245, "lat": 17.4456571, "lon": 78.4521487, "tags": {"internet_access": "no", "name": "Nature Cure Hospital", "name:te": "\u0c2a\u0c4d\u0c30\u0c15\u0c43\u0c24\u0c3f \u0c1a\u0c3f\u0c15\u0c3f\u0c24\u0c4d\u0c38\u0c3e\u0c32\u0c2f \u0c30\u0c48\u0c32\u0c4d\u0c35\u0c47 \u0c38\u0c4d\u0c1f\u0c47\u0c37\u0c28\u0c4d", "network": "IR", "operator": "SCR", "platforms": "2", "public_transport": "station", "railway": "station", "ref": "NCHS", "train": "yes", "wikidata": "Q6980906", "wikipedia": "en:Nature Cure Hospital railway station"}}, {"type": "node", "id": 343641073, "lat": 17.4386951, "lon": 78.4580969, "tags": {"internet_access": "no", "name": "Begumpet", "name:te": "\u0c2c\u0c47\u0c17\u0c02\u0c2a\u0c47\u0c1f\u0c4d", "name:ur": "\u0628\u06cc\u06af\u0645 \u067e\u06cc\u0679", "network": "IR", "operator": "SCR", "platforms": "2", "public_transport": "station", "railway": "station", "ref": "BMT", "train": "yes", "wikidata": "Q4880629", "wikipedia": "en:Begumpet railway station"}}, {"type": "node", "id": 349177449, "lat": 17.4430816, "lon": 78.4404626, "tags": {"created_by": "Merkaartor 0.12", "highway": "bus_stop", "shelter": "yes"}}, {"type": "node", "id": 353027468, "lat": 17.4374277, "lon": 78.443449, "tags": {"bus": "yes", "highway": "bus_stop", "name": "S.R.Nagar Bus Stop", "operator": "A.P.S.R.T.C", "public_transport": "platform", "shelter": "yes", "wheelchair": "no"}}, {"type": "node", "id": 354662996, "lat": 17.4364999, "lon": 78.4440447, "tags": {"bus": "yes", "highway": "bus_stop", "public_transport": "platform"}}, {"type": "node", "id": 355690053, "lat": 17.4106114, "lon": 78.5180213}, {"type": "node", "id": 355690055, "lat": 17.4113069, "lon": 78.5181881}, {"type": "node", "id": 355690056, "lat": 17.4130034, "lon": 78.5185949}, {"type": "node", "id": 355690061, "lat": 17.4105938, "lon": 78.518092}, {"type": "node", "id": 355690064, "lat": 17.4129184, "lon": 78.5186478}, {"type": "node", "id": 359998894, "lat": 17.4337667, "lon": 78.5040002}, {"type": "node", "id": 582824401, "lat": 17.4566, "lon": 78.4900888, "tags": {"highway": "bus_stop", "name": "Sikh Village"}}, {"type": "node", "id": 582824402, "lat": 17.456317, "lon": 78.4840993, "tags": {"highway": "bus_stop", "local_ref": "Tarbund", "name": "Tarbund"}}, {"type": "node", "id": 582824403, "lat": 17.4451266, "lon": 78.4871598, "tags": {"check_date:shelter": "2022-12-13", "highway": "bus_stop", "name": "Paradise", "shelter": "yes"}}, {"type": "node", "id": 626897247, "lat": 17.3665277, "lon": 78.4901244, "tags": {"alt_name": "Dabirpura", "internet_access": "no", "name": "Dabirpura", "name:fa": "\u062f\u0628\u06cc\u0631\u067e\u0648\u0631\u06c1", "network": "IR", "operator": "SCR", "platforms": "2", "public_transport": "halt", "railway": "halt", "ref": "DQR", "train": "yes", "wikidata": "Q5207493", "wikipedia": "en:Dabirpura railway station"}}, {"type": "node", "id": 626897367, "lat": 17.3744556, "lon": 78.4753984, "tags": {"highway": "bus_stop"}}, {"type": "node", "id": 626897410, "lat": 17.3730067, "lon": 78.4766562, "tags": {"amenity": "bus_station", "bus": "yes", "name": "Afzalgunj", "public_transport": "station"}}, {"type": "node", "id": 626897415, "lat": 17.3738598, "lon": 78.4779838, "tags": {"bench": "yes", "check_date:shelter": "2023-04-23", "highway": "bus_stop", "name": "Public Library", "shelter": "yes"}}, {"type": "node", "id": 634123581, "lat": 17.4107475, "lon": 78.5075901, "tags": {"bus": "yes", "highway": "bus_stop", "name": "Ramnagar Cross Roads Bus Stop", "public_transport": "platform"}}, {"type": "node", "id": 634123955, "lat": 17.4077286, "lon": 78.5120765, "tags": {"highway": "bus_stop", "name": "Ramnagar Gundu Bus Stop"}}, {"type": "node", "id": 634132021, "lat": 17.4018362, "lon": 78.5108121, "tags": {"internet_access": "no", "name": "Vidyanagar", "network": "IR", "operator": "SCR", "platforms": "2", "public_transport": "halt", "railway": "halt", "ref": "VAR", "train": "yes", "wikidata": "Q7928208", "wikipedia": "en:Vidyanagar railway station"}}, {"type": "node", "id": 660916060, "lat": 17.4235017, "lon": 78.4276065, "tags": {"bench": "yes", "bus": "yes", "highway": "bus_stop", "name": "L V Prasad", "name:te": "\u0c0e\u0c32\u0c4d \u0c35\u0c40 \u0c2a\u0c4d\u0c30\u0c38\u0c3e\u0c26\u0c4d \u0c2c\u0c38\u0c4d\u0c38\u0c41 \u0c38\u0c4d\u0c1f\u0c3e\u0c2a\u0c4d", "public_transport": "platform", "shelter": "yes"}}, {"type": "node", "id": 675646786, "lat": 17.4048294, "lon": 78.5022525, "tags": {"highway": "bus_stop", "name": "VST Bus Stop"}}, {"type": "node", "id": 675647348, "lat": 17.4073169, "lon": 78.5033717, "tags": {"highway": "bus_stop", "name": "TSRTC BUS DEPOT, MUSHEERABAD 1"}}, {"type": "node", "id": 677300443, "lat": 17.3959051, "lon": 78.4909681, "tags": {"highway": "bus_stop", "name": "YMCA Bus Stop"}}, {"type": "node", "id": 682874256, "lat": 17.4116181, "lon": 78.4824323, "tags": {"highway": "bus_stop", "name": "Indira Park", "shelter": "yes"}}, {"type": "node", "id": 703544296, "lat": 17.4244708, "lon": 78.5472919, "tags": {"highway": "bus_stop", "name": "HMT Bus stop"}}, {"type": "node", "id": 722273943, "lat": 17.4231252, "lon": 78.4546595, "tags": {"highway": "bus_stop", "name": "NIMS"}}, {"type": "node", "id": 726161087, "lat": 17.4072432, "lon": 78.4663365, "tags": {"highway": "bus_stop", "name": "Telephone Bhavan"}}, {"type": "node", "id": 726170683, "lat": 17.4034111, "lon": 78.4652115, "tags": {"bench": "yes", "bin": "no", "highway": "bus_stop", "lit": "yes", "name": "Lakdikapul Bus Stop", "shelter": "yes"}}, {"type": "node", "id": 727278310, "lat": 17.4022136, "lon": 78.4836242, "tags": {"highway": "bus_stop", "name": "Himayathnagar Bus stop", "name:te": "\u0c39\u0c3f\u0c2e\u0c3e\u0c2f\u0c24\u0c4d \u0c28\u0c17\u0c30\u0c4d \u0c2c\u0c38\u0c4d \u0c38\u0c4d\u0c1f\u0c3e\u0c2a\u0c4d"}}, {"type": "node", "id": 728331506, "lat": 17.4046345, "lon": 78.4676224, "tags": {"highway": "bus_stop", "name": "Birla Mandir", "name:te": "\u0c2c\u0c3f\u0c30\u0c4d\u0c32\u0c3e \u0c2e\u0c02\u0c26\u0c3f\u0c30\u0c4d"}}, {"type": "node", "id": 728919366, "lat": 17.39038, "lon": 78.4686267, "tags": {"highway": "bus_stop", "name": "Latha Talkies", "name:en": "Bus to Golcanda Fort"}}, {"type": "node", "id": 752496454, "lat": 17.4234932, "lon": 78.5465945, "tags": {"highway": "bus_stop", "name": "HMT"}}, {"type": "node", "id": 813570709, "lat": 17.4269784, "lon": 78.4396869, "tags": {"bus": "yes", "highway": "bus_stop", "name": "TV9 Bus Stop", "name:te": "\u0c1f\u0c40\u0c35\u0c40 9 \u0c2c\u0c38\u0c4d\u0c38\u0c41 \u0c38\u0c4d\u0c1f\u0c3e\u0c2a\u0c4d", "public_transport": "platform", "shelter": "yes"}}, {"type": "node", "id": 817353604, "lat": 17.4351205, "lon": 78.5142111, "tags": {"bus": "yes", "highway": "bus_stop", "public_transport": "platform"}}, {"type": "node", "id": 817354364, "lat": 17.4422852, "lon": 78.4584347, "tags": {"highway": "bus_stop"}}, {"type": "node", "id": 817354374, "lat": 17.4421395, "lon": 78.4585964, "tags": {"highway": "bus_stop", "name": "Begumpet"}}, {"type": "node", "id": 817354391, "lat": 17.4439888, "lon": 78.4612656, "tags": {"highway": "bus_stop"}}, {"type": "node", "id": 817354410, "lat": 17.4443551, "lon": 78.4610365, "tags": {"highway": "bus_stop"}}, {"type": "node", "id": 817354457, "lat": 17.4448332, "lon": 78.4656108, "tags": {"highway": "bus_stop", "name": "Shoppers Stop"}}, {"type": "node", "id": 817354636, "lat": 17.434104, "lon": 78.520881, "tags": {"bus": "yes", "highway": "bus_stop", "name": "\u0c2e\u0c46\u0c1f\u0c4d\u0c1f\u0c41\u0c17\u0c41\u0c21", "public_transport": "platform"}}, {"type": "node", "id": 817354660, "lat": 17.4278269, "lon": 78.5292938, "tags": {"highway": "bus_stop"}}, {"type": "node", "id": 854960917, "lat": 17.4430219, "lon": 78.4945643, "tags": {"bus": "yes", "highway": "bus_stop", "name": "Patny Bus Stop", "public_transport": "platform", "shelter": "yes"}}, {"type": "node", "id": 886347465, "lat": 17.4388713, "lon": 78.5047987, "tags": {"bus": "yes", "highway": "bus_stop", "name": "Keyes High School", "public_transport": "platform", "shelter": "yes"}}, {"type": "node", "id": 886347477, "lat": 17.4390044, "lon": 78.5048952, "tags": {"bus": "yes", "description": "Airport Shuttle Terminus", "highway": "bus_stop", "name": "Airport Liner", "public_transport": "platform"}}, {"type": "node", "id": 893170355, "lat": 17.4329515, "lon": 78.4873218, "tags": {"internet_access": "no", "name": "James Street", "name:te": "\u0c1c\u0c47\u0c2e\u0c4d\u0c38\u0c4d \u0c38\u0c4d\u0c1f\u0c4d\u0c30\u0c40\u0c1f\u0c4d", "name:ur": "\u062c\u06cc\u0645\u0632 \u0627\u0633\u0679\u0631\u06cc\u0679", "network": "IR", "operator": "SCR", "platforms": "2", "public_transport": "station", "railway": "station", "ref": "JET", "train": "yes", "wikidata": "Q6143758", "wikipedia": "en:James Street railway station, Hyderabad"}}, {"type": "node", "id": 945061357, "lat": 17.407861, "lon": 78.4389668, "tags": {"highway": "bus_stop", "name": "Kaman"}}, {"type": "node", "id": 945064796, "lat": 17.4077258, "lon": 78.4509789, "tags": {"highway": "bus_stop", "name": "Pension Office Bus Stop"}}, {"type": "node", "id": 1038396446, "lat": 17.4303516, "lon": 78.4879985, "tags": {"highway": "bus_stop", "name": "Ranigunj"}}, {"type": "node", "id": 1118754390, "lat": 17.3326604, "lon": 78.4751984, "tags": {"alt_name:ur": "\u0641\u0644\u06a9 \u0646\u0645\u0627", "internet_access": "no", "name": "Falaknuma", "name:fa": "\u0641\u0644\u06a9 \u0646\u0645\u0627", "name:ur": "\u0641\u0644\u06a9 \u0646\u0645\u0627\u0621", "network": "IR", "operator": "SCR", "public_transport": "station", "railway": "station", "ref": "FM", "train": "yes", "wikidata": "Q5431641", "wikipedia": "en:Falaknuma railway station"}}, {"type": "node", "id": 1118754452, "lat": 17.3910429, "lon": 78.4672901}, {"type": "node", "id": 1118754466, "lat": 17.3912162, "lon": 78.4673762}, {"type": "node", "id": 1118754578, "lat": 17.3930214, "lon": 78.4675638}, {"type": "node", "id": 1118754593, "lat": 17.3353179, "lon": 78.4683887, "tags": {"construction": "station", "disused": "yes", "name": "Jungametta (u/c)", "name:te": "\u0c1c\u0c02\u0c17\u0c02\u0c2e\u0c47\u0c1f", "network": "Hyderabad Metro", "note": "Contributors are requested to not edit the \"network\" and the \"operator\" tags. (2023/11/08)", "operator": "Hyderabad Metro Rail Limited", "railway": "station", "station": "subway", "subway": "yes"}}, {"type": "node", "id": 1118754600, "lat": 17.3619252, "lon": 78.4799909, "tags": {"construction": "station", "disused": "yes", "name": "Charminar (u/c)", "name:te": "\u0c1a\u0c3e\u0c30\u0c4d\u0c2e\u0c3f\u0c28\u0c3e\u0c30\u0c4d", "network": "Hyderabad Metro", "note": "Contributors are requested to not edit the \"network\" and the \"operator\" tags. (2023/11/08)", "operator": "Hyderabad Metro Rail Limited", "railway": "station", "station": "subway", "subway": "yes"}}, {"type": "node", "id": 1118754606, "lat": 17.3912086, "lon": 78.4674641}, {"type": "node", "id": 1118754617, "lat": 17.3408101, "lon": 78.4683869, "tags": {"construction": "station", "disused:railway": "station", "name": "Shamserganj (u/c)", "name:te": "\u0c37\u0c02\u0c37\u0c47\u0c30\u0c4d\u0c17\u0c02\u0c1c\u0c4d", "network": "Hyderabad Metro", "note": "Contributors are requested to not edit the \"network\" and the \"operator\" tags. (2023/11/08)", "operator": "Hyderabad Metro Rail Limited", "public_transport": "station", "railway": "station", "station": "subway", "subway": "yes"}}, {"type": "node", "id": 1118754623, "lat": 17.3507744, "lon": 78.4723504, "tags": {"addr:city": "Hyderabad", "addr:district": "Hyderabad", "addr:postcode": "500065", "addr:street": "Shah Ali Banda", "construction": "station", "disused:railway": "station", "name": "Shah Ali Banda (u/c)", "name:te": "\u0c37\u0c3e \u0c05\u0c32\u0c40 \u0c2c\u0c02\u0c21\u0c3e", "name:ur": "\u0634\u0627\u06c1 \u0639\u0644\u06cc \u0628\u0646\u062f\u06c1", "network": "Hyderabad Metro", "note": "Contributors are requested to not edit the \"network\" and the \"operator\" tags. (2023/11/08)", "operator": "Hyderabad Metro Rail Limited", "public_transport": "station", "railway": "station", "station": "subway", "subway": "yes"}}, {"type": "node", "id": 1118754628, "lat": 17.3912005, "lon": 78.4669488}, {"type": "node", "id": 1118754666, "lat": 17.3317141, "lon": 78.4699981, "tags": {"construction": "station", "disused": "yes", "name": "Falaknuma Terminal (u/c)", "name:te": "\u0c2b\u0c32\u0c15\u0c4d\u0c28\u0c41\u0c2e\u0c3e \u0c1f\u0c46\u0c30\u0c4d\u0c2e\u0c3f\u0c28\u0c32\u0c4d", "network": "Hyderabad Metro", "note": "Contributors are requested to not edit the \"network\" and the \"operator\" tags. (2023/11/08)", "operator": "Hyderabad Metro Rail Limited", "railway": "station", "station": "subway", "subway": "yes"}}, {"type": "node", "id": 1118754671, "lat": 17.3717823, "lon": 78.4822609, "tags": {"construction": "station", "disused": "yes", "name": "Salar Jung Museum (u/c)", "name:te": "\u0c38\u0c3e\u0c32\u0c3e\u0c30\u0c4d \u0c1c\u0c02\u0c17\u0c4d \u0c2e\u0c4d\u0c2f\u0c42\u0c1c\u0c3f\u0c2f\u0c02", "network": "Hyderabad Metro", "note": "Contributors are requested to not edit the \"network\" and the \"operator\" tags. (2023/11/08)", "operator": "Hyderabad Metro Rail Limited", "railway": "station", "station": "subway", "subway": "yes"}}, {"type": "node", "id": 1118773825, "lat": 17.4488218, "lon": 78.4964407, "tags": {"alt_name": "Jubilee Bus Station", "name": "JBS", "network": "Hyderabad Metro", "note": "Contributors are requested to not edit the \"network\" and the \"operator\" tags. (2023/11/08)", "operator": "Hyderabad Metro Rail Limited", "public_transport": "stop_position", "subway": "yes"}}, {"type": "node", "id": 1142735841, "lat": 17.4564424, "lon": 78.4839007, "tags": {"highway": "bus_stop", "local_ref": "Tarbund", "name": "Tarbund"}}, {"type": "node", "id": 1152749054, "lat": 17.3920701, "lon": 78.5164734, "tags": {"highway": "bus_stop", "name": "amberpet bus stop"}}, {"type": "node", "id": 1152749067, "lat": 17.3915758, "lon": 78.5123889, "tags": {"highway": "bus_stop", "name": "chey number stop"}}, {"type": "node", "id": 1271924369, "lat": 17.395501, "lon": 78.5024402, "tags": {"highway": "bus_stop", "name": "Fever Hospital"}}, {"type": "node", "id": 1333764623, "lat": 17.4451251, "lon": 78.4655312, "tags": {"highway": "bus_stop", "name": "Shoppers Stop"}}, {"type": "node", "id": 1435327658, "lat": 17.4483438, "lon": 78.5289727, "tags": {"internet_access": "no", "name": "Malkajgiri", "name:te": "\u0c2e\u0c32\u0c4d\u0c15\u0c3e\u0c1c\u0c3f\u0c17\u0c3f\u0c30\u0c3f", "name:ur": "\u0645\u0644\u06a9\u0627 \u062c\u06af\u0631\u06cc", "network": "IR", "operator": "SCR", "public_transport": "station", "railway": "station", "ref": "MJF", "train": "yes", "wikidata": "Q6743861", "wikipedia": "en:Malkajgiri railway station"}}, {"type": "node", "id": 1435327660, "lat": 17.4559393, "lon": 78.5314333, "tags": {"internet_access": "no", "name": "Dayanand Nagar", "network": "IR", "operator": "SCR", "public_transport": "halt", "railway": "halt", "ref": "DYE", "train": "yes", "wikidata": "Q5243054"}}, {"type": "node", "id": 1435328905, "lat": 17.4498327, "lon": 78.5366468, "tags": {"highway": "bus_stop", "name": "Malkajgiri Bus Stop"}}, {"type": "node", "id": 1437395352, "lat": 17.4553192, "lon": 78.5298879, "tags": {"highway": "bus_stop", "local_ref": "38EX, 38X, 38S", "name": "SubStation"}}, {"type": "node", "id": 1437398683, "lat": 17.446169, "lon": 78.5265298, "tags": {"highway": "bus_stop", "local_ref": "38EX, 38X, 38S, 38s/47V", "name": "Hanumanpet"}}, {"type": "node", "id": 1437398685, "lat": 17.4431803, "lon": 78.5247917, "tags": {"highway": "bus_stop", "local_ref": "38EX, 38X, 38S, 38s/47V", "name": "Jyothi Nagar"}}, {"type": "node", "id": 1437398688, "lat": 17.4495057, "lon": 78.5274203, "tags": {"highway": "bus_stop", "local_ref": "38EX, 38X, 38S, 38s/47V", "name": "Mallikarjuna Nagar"}}, {"type": "node", "id": 1437398690, "lat": 17.4410718, "lon": 78.5222061, "tags": {"highway": "bus_stop", "local_ref": "38EX, 38X, 38S, 38s/47V, 38T", "name": "Tukaram Gate"}}, {"type": "node", "id": 1499692385, "lat": 17.4141424, "lon": 78.423745, "tags": {"bench": "yes", "bin": "yes", "highway": "bus_stop", "lit": "yes", "name": "VLCC Bus Stop", "shelter": "yes"}}, {"type": "node", "id": 1594518972, "lat": 17.3754928, "lon": 78.5579136, "tags": {"highway": "bus_stop", "local_ref": "Nagole", "name": "Nagole X Road", "name_1": "Nagole Cross Road", "operator": "APSRTC Hyderabad", "shelter": "no"}}, {"type": "node", "id": 1598136849, "lat": 17.3685468, "lon": 78.5329092, "tags": {"bus": "yes", "highway": "bus_stop", "name": "Chaitanyapuri Bus Stop", "public_transport": "platform", "shelter": "yes"}}, {"type": "node", "id": 1725150606, "lat": 17.3897353, "lon": 78.4986692, "tags": {"highway": "bus_stop", "name": "Kacheguda Railway Station Bus Stop"}}, {"type": "node", "id": 1779029051, "lat": 17.4070738, "lon": 78.4606872, "tags": {"highway": "bus_stop", "name": "Chintal Basti"}}, {"type": "node", "id": 1779502577, "lat": 17.4428937, "lon": 78.5039242, "tags": {"bench": "yes", "bus": "yes", "highway": "bus_stop", "public_transport": "platform", "shelter": "yes"}}, {"type": "node", "id": 1779552114, "lat": 17.4366218, "lon": 78.5195776, "tags": {"bus": "yes", "highway": "bus_stop", "public_transport": "platform"}}, {"type": "node", "id": 1883412881, "lat": 17.4272928, "lon": 78.4450291, "tags": {"bench": "yes", "highway": "bus_stop", "name": "Nagarjuna Circle Bus Stop", "name:te": "\u0c28\u0c3e\u0c17\u0c3e\u0c30\u0c4d\u0c1c\u0c41\u0c28 \u0c38\u0c30\u0c4d\u0c15\u0c3f\u0c32\u0c4d \u0c2c\u0c38\u0c4d\u0c38\u0c41 \u0c38\u0c4d\u0c1f\u0c3e\u0c2a\u0c4d", "shelter": "yes"}}, {"type": "node", "id": 1883412973, "lat": 17.4301846, "lon": 78.442438, "tags": {"highway": "bus_stop", "name": "Sri Nagar Colony Bus Stop"}}, {"type": "node", "id": 1883488178, "lat": 17.4258368, "lon": 78.4359253, "tags": {"bus": "yes", "highway": "bus_stop", "name": "Banjara Hills Road No.2 Lumbini Mall", "public_transport": "platform", "shelter": "yes"}}, {"type": "node", "id": 2003244260, "lat": 17.4035699, "lon": 78.495308, "tags": {"highway": "bus_stop", "name": "Chikkadpally"}}, {"type": "node", "id": 2003244265, "lat": 17.4020317, "lon": 78.4951256, "tags": {"highway": "bus_stop", "name": "Chikkadpally"}}, {"type": "node", "id": 2084119296, "lat": 17.4170924, "lon": 78.5196749}, {"type": "node", "id": 2084119297, "lat": 17.4271151, "lon": 78.5206417}, {"type": "node", "id": 2084119301, "lat": 17.4281607, "lon": 78.5195217}, {"type": "node", "id": 2084119302, "lat": 17.4272381, "lon": 78.5203127}, {"type": "node", "id": 2084119303, "lat": 17.4270321, "lon": 78.5204951}, {"type": "node", "id": 2084119304, "lat": 17.4272947, "lon": 78.5207231, "tags": {"alt_name": "Sitaphal Mandi", "internet_access": "no", "name": "Sitaphalmandi", "name:te": "\u0c38\u0c40\u0c24\u0c3e\u0c2b\u0c32\u0c4d\u200c\u0c2e\u0c02\u0c21\u0c3f", "name:ur": "\u0633\u06cc\u062a\u0627 \u067e\u06be\u0644 \u0645\u0646\u0688\u06cc", "network": "IR", "operator": "SCR", "public_transport": "station", "railway": "station", "ref": "STPD", "train": "yes", "wikidata": "Q7531662", "wikipedia": "en:Sitaphalmandi railway station"}}, {"type": "node", "id": 2084119305, "lat": 17.4270256, "lon": 78.5204775}, {"type": "node", "id": 2084119306, "lat": 17.4273246, "lon": 78.5203044}, {"type": "node", "id": 2084119307, "lat": 17.4200688, "lon": 78.5202471}, {"type": "node", "id": 2084119308, "lat": 17.4288778, "lon": 78.5189955}, {"type": "node", "id": 2084119309, "lat": 17.4284183, "lon": 78.519656}, {"type": "node", "id": 2084119310, "lat": 17.4170793, "lon": 78.5197346}, {"type": "node", "id": 2084119311, "lat": 17.4274813, "lon": 78.520193}, {"type": "node", "id": 2084119313, "lat": 17.4278642, "lon": 78.5198811}, {"type": "node", "id": 2084119314, "lat": 17.4199668, "lon": 78.5203647}, {"type": "node", "id": 2084119316, "lat": 17.4171481, "lon": 78.5196141}, {"type": "node", "id": 2084119319, "lat": 17.4285873, "lon": 78.519133}, {"type": "node", "id": 2084119321, "lat": 17.4284788, "lon": 78.5192398}, {"type": "node", "id": 2084119323, "lat": 17.4199539, "lon": 78.5204238}, {"type": "node", "id": 2084119324, "lat": 17.4171626, "lon": 78.5195476}, {"type": "node", "id": 2084119325, "lat": 17.4285896, "lon": 78.5194597}, {"type": "node", "id": 2084119327, "lat": 17.4273051, "lon": 78.5205569}, {"type": "node", "id": 2084119328, "lat": 17.42819, "lon": 78.5195737}, {"type": "node", "id": 2084119329, "lat": 17.4270824, "lon": 78.5205767}, {"type": "node", "id": 2084119330, "lat": 17.4276601, "lon": 78.5199332}, {"type": "node", "id": 2084119331, "lat": 17.4285996, "lon": 78.5191522}, {"type": "node", "id": 2084119333, "lat": 17.4271684, "lon": 78.520368}, {"type": "node", "id": 2084119335, "lat": 17.4272252, "lon": 78.5204887}, {"type": "node", "id": 2084119339, "lat": 17.4275368, "lon": 78.520287}, {"type": "node", "id": 2084119340, "lat": 17.4289007, "lon": 78.5190255}, {"type": "node", "id": 2084119341, "lat": 17.4287001, "lon": 78.5193084}, {"type": "node", "id": 2084119342, "lat": 17.4200543, "lon": 78.5203131}, {"type": "node", "id": 2084119344, "lat": 17.4279652, "lon": 78.5199284}, {"type": "node", "id": 2084119345, "lat": 17.4279955, "lon": 78.5196482}, {"type": "node", "id": 2084119346, "lat": 17.4276659, "lon": 78.520322}, {"type": "node", "id": 2084119347, "lat": 17.4281756, "lon": 78.5197344}, {"type": "node", "id": 2084119348, "lat": 17.4280412, "lon": 78.5200346}, {"type": "node", "id": 2134524343, "lat": 17.4569355, "lon": 78.4948998, "tags": {"highway": "bus_stop", "name": "Mudfort"}}, {"type": "node", "id": 2166591605, "lat": 17.3959377, "lon": 78.4270188, "tags": {"alt_name": "Rethibowli", "highway": "bus_stop", "name": "Nanalnagar"}}, {"type": "node", "id": 2166591609, "lat": 17.3960184, "lon": 78.4307445, "tags": {"bus": "yes", "highway": "bus_stop", "name": "Rethibowli", "public_transport": "platform"}}, {"type": "node", "id": 2166591623, "lat": 17.3986352, "lon": 78.4168535, "tags": {"bus": "yes", "highway": "bus_stop", "name": "Tolichowki", "public_transport": "platform"}}, {"type": "node", "id": 2166591647, "lat": 17.3969305, "lon": 78.4223255, "tags": {"highway": "bus_stop", "name": "Salarjung Colony"}}, {"type": "node", "id": 2166591660, "lat": 17.4028251, "lon": 78.4100567, "tags": {"highway": "bus_stop", "name": "Galaxy"}}, {"type": "node", "id": 2166591663, "lat": 17.3989449, "lon": 78.4154157, "tags": {"bus": "yes", "highway": "bus_stop", "name": "Tolichowki", "public_transport": "platform"}}, {"type": "node", "id": 2166591667, "lat": 17.3957045, "lon": 78.4308438, "tags": {"highway": "bus_stop", "name": "Rethibowli"}}, {"type": "node", "id": 2166591675, "lat": 17.3966902, "lon": 78.422105, "tags": {"highway": "bus_stop", "name": "Salarjung Colony"}}, {"type": "node", "id": 2166591685, "lat": 17.3962507, "lon": 78.4270607, "tags": {"alt_name": "Rethibowli", "bus": "yes", "highway": "bus_stop", "name": "Nanalnagar", "public_transport": "platform"}}, {"type": "node", "id": 2166860256, "lat": 17.3947601, "lon": 78.437989, "tags": {"highway": "bus_stop", "name": "Mehdipatnam"}}, {"type": "node", "id": 2174747672, "lat": 17.3978696, "lon": 78.4434153, "tags": {"highway": "bus_stop", "name": "Sarojini Devi Eye Hospital"}}, {"type": "node", "id": 2174747675, "lat": 17.3987911, "lon": 78.4448449, "tags": {"highway": "bus_stop", "name": "Sarojini Devi Eye Hospital"}}, {"type": "node", "id": 2174747679, "lat": 17.3956739, "lon": 78.4412338, "tags": {"highway": "bus_stop", "name": "Mehdipatnam"}}, {"type": "node", "id": 2174747680, "lat": 17.3946168, "lon": 78.4392847, "tags": {"highway": "bus_stop", "name": "Mehdipatnam"}}, {"type": "node", "id": 2174747681, "lat": 17.4047659, "lon": 78.4627335, "tags": {"name": "Lakdi-ka-pul", "public_transport": "stop_position", "railway": "stop", "ref": "1", "train": "yes"}}, {"type": "node", "id": 2177311051, "lat": 17.40478, "lon": 78.4610966, "tags": {"highway": "bus_stop", "name": "Lakdi-ka-pool"}}, {"type": "node", "id": 2181332979, "lat": 17.377189, "lon": 78.4945743}, {"type": "node", "id": 2181369994, "lat": 17.3773493, "lon": 78.4939991, "tags": {"highway": "bus_stop", "name": "Chaderghat"}}, {"type": "node", "id": 2181370040, "lat": 17.3772086, "lon": 78.4924782, "tags": {"highway": "bus_stop", "name": "Chaderghat"}}, {"type": "node", "id": 2183029318, "lat": 17.3696562, "lon": 78.516472, "tags": {"alt_name": "TV Tower", "bus": "yes", "highway": "bus_stop", "name": "Moosarambagh", "public_transport": "platform"}}, {"type": "node", "id": 2183029321, "lat": 17.3729311, "lon": 78.5055031, "tags": {"bus": "yes", "highway": "bus_stop", "name": "Chermas", "public_transport": "platform"}}, {"type": "node", "id": 2183029322, "lat": 17.3687814, "lon": 78.5240908, "tags": {"bus": "yes", "highway": "bus_stop", "name": "Dilsukhnagar", "public_transport": "platform"}}, {"type": "node", "id": 2183029324, "lat": 17.3486646, "lon": 78.5490541, "tags": {"bus": "yes", "highway": "bus_stop", "name": "LB Nagar City Bus Stop", "public_transport": "platform"}}, {"type": "node", "id": 2183029325, "lat": 17.3684307, "lon": 78.5234283, "tags": {"bus": "yes", "highway": "bus_stop", "name": "Dilsukhnagar", "public_transport": "platform"}}, {"type": "node", "id": 2183029326, "lat": 17.3753647, "lon": 78.4985746, "tags": {"bus": "yes", "highway": "bus_stop", "name": "Nalgonda X Roads", "public_transport": "platform"}}, {"type": "node", "id": 2183029331, "lat": 17.3462745, "lon": 78.5516485, "tags": {"highway": "bus_stop", "name": "LB Nagar Bus Stop"}}, {"type": "node", "id": 2183029333, "lat": 17.3682899, "lon": 78.5302921, "tags": {"bus": "yes", "fixme": "name", "highway": "bus_stop", "name": "Chaitanyapuri", "operator": "APSRTC Hyderabad", "public_transport": "platform", "shelter": "yes"}}, {"type": "node", "id": 2183029334, "lat": 17.3687195, "lon": 78.5371176, "tags": {"bus": "yes", "fixme": "name", "highway": "bus_stop", "name": "Fruit Market Bus Stop", "public_transport": "platform", "shelter": "yes"}}, {"type": "node", "id": 2183029335, "lat": 17.3743569, "lon": 78.5032335, "tags": {"alt_name": "Chermas", "bus": "yes", "highway": "bus_stop", "name": "Malakpet Market", "public_transport": "platform"}}, {"type": "node", "id": 2183029336, "lat": 17.3740315, "lon": 78.499935, "tags": {"bus": "yes", "fixme": "name", "highway": "bus_stop", "name": "Malakpet Bus Stop", "public_transport": "platform", "shelter": "no"}}, {"type": "node", "id": 2183029337, "lat": 17.3684129, "lon": 78.5245602, "tags": {"bus": "yes", "highway": "bus_stop", "name": "Dilsukhnagar", "public_transport": "platform"}}, {"type": "node", "id": 2183029338, "lat": 17.3458535, "lon": 78.5521977, "tags": {"highway": "bus_stop", "name": "LB Nagar"}}, {"type": "node", "id": 2183029341, "lat": 17.3700425, "lon": 78.5139933, "tags": {"bus": "yes", "fixme": "name", "highway": "bus_stop", "public_transport": "platform"}}, {"type": "node", "id": 2185005230, "lat": 17.3772034, "lon": 78.4865157, "tags": {"bus": "yes", "highway": "bus_stop", "name": "Imlibun", "name:te": "\u0c07\u0c2e\u0c4d\u0c32\u0c3f\u0c2c\u0c28\u0c4d", "public_transport": "platform"}}, {"type": "node", "id": 2185005241, "lat": 17.3766708, "lon": 78.4862341, "tags": {"bus": "yes", "highway": "bus_stop", "name": "Imlibun", "name:te": "\u0c07\u0c2e\u0c4d\u0c32\u0c3f\u0c2c\u0c28\u0c4d", "public_transport": "platform"}}, {"type": "node", "id": 2185045487, "lat": 17.3784864, "lon": 78.4817136, "tags": {"bus": "yes", "highway": "bus_stop", "name": "TSRTC CBS BUS STAND", "public_transport": "platform"}}, {"type": "node", "id": 2185045507, "lat": 17.3779509, "lon": 78.4813912, "tags": {"bus": "yes", "highway": "bus_stop", "name": "TSRTC CBS BUS STAND", "public_transport": "platform"}}, {"type": "node", "id": 2192962547, "lat": 17.3954587, "lon": 78.4705909, "tags": {"highway": "bus_stop", "name": "Nampally"}}, {"type": "node", "id": 2192962558, "lat": 17.3968067, "lon": 78.4708596, "tags": {"amenity": "toilets", "highway": "bus_stop", "name": "Public Gardens"}}, {"type": "node", "id": 2192962566, "lat": 17.400341, "lon": 78.469852, "tags": {"bench": "yes", "highway": "bus_stop", "shelter": "yes"}}, {"type": "node", "id": 2192962626, "lat": 17.4058277, "lon": 78.4674199, "tags": {"highway": "bus_stop", "name": "RBI", "name:te": "\u0c06\u0c30\u0c4d \u0c2c\u0c40 \u0c10"}}, {"type": "node", "id": 2192962685, "lat": 17.4127086, "lon": 78.4712086, "tags": {"highway": "bus_stop"}}, {"type": "node", "id": 2197048423, "lat": 17.3850259, "lon": 78.4884201, "tags": {"highway": "bus_stop", "name": "Koti Women's College", "name:te": "\u0c15\u0c4b\u0c1f\u0c3f \u0c09\u0c2e\u0c46\u0c28\u0c4d\u0c38\u0c4d \u0c15\u0c3e\u0c32\u0c47\u0c1c\u0c4d"}}, {"type": "node", "id": 2199466758, "lat": 17.3982153, "lon": 78.4437748, "tags": {"highway": "bus_stop", "name": "Sarojini Devi Eye Hospital"}}, {"type": "node", "id": 2199466759, "lat": 17.4032751, "lon": 78.4564939, "tags": {"highway": "bus_stop", "name": "Masab Tank JNTU"}}, {"type": "node", "id": 2199476224, "lat": 17.398973, "lon": 78.4495254, "tags": {"highway": "bus_stop", "name": "NMDC"}}, {"type": "node", "id": 2199476226, "lat": 17.3855251, "lon": 78.4816314, "tags": {"highway": "bus_stop", "name": "Bank Street", "name:te": "\u0c2c\u0c3e\u0c02\u0c15\u0c4d \u0c38\u0c4d\u0c1f\u0c4d\u0c30\u0c40\u0c1f\u0c4d"}}, {"type": "node", "id": 2199476229, "lat": 17.4019366, "lon": 78.4691377, "tags": {"highway": "bus_stop", "name": "All India Radio", "name:te": "\u0c06\u0c32\u0c4d \u0c07\u0c02\u0c21\u0c3f\u0c2f\u0c3e \u0c30\u0c47\u0c21\u0c3f\u0c2f\u0c4b"}}, {"type": "node", "id": 2199508157, "lat": 17.3724345, "lon": 78.5092099, "tags": {"alt_name": "Malakpet Super Bazaar", "bus": "yes", "highway": "bus_stop", "name": "Super Bazaar", "public_transport": "platform"}}, {"type": "node", "id": 2199508159, "lat": 17.3628066, "lon": 78.5438533, "tags": {"alt_name": "Asta Lakshmi", "highway": "bus_stop", "name": "Dwaraka Nagar"}}, {"type": "node", "id": 2199508171, "lat": 17.3548831, "lon": 78.5458945, "tags": {"highway": "bus_stop", "name": "NTR Nagar Bus Stop", "shelter": "yes"}}, {"type": "node", "id": 2199524801, "lat": 17.3425656, "lon": 78.5564492, "tags": {"highway": "bus_stop", "name": "Check Post"}}, {"type": "node", "id": 2199524804, "lat": 17.3627858, "lon": 78.5435264, "tags": {"alt_name": "Asta Lakshmi", "highway": "bus_stop", "name": "Dwaraka Nagar"}}, {"type": "node", "id": 2212520219, "lat": 17.4241182, "lon": 78.5019947, "tags": {"highway": "bus_stop", "name": "Gandhi Hospital"}}, {"type": "node", "id": 2212573644, "lat": 17.4332387, "lon": 78.5028861, "tags": {"name": "Secunderabad Junction", "name:hi": "\u0938\u093f\u0915\u0902\u0926\u0930\u093e\u092c\u093e\u0926 \u091c\u0902\u0915\u094d\u0936\u0928", "name:kn": "\u0cb8\u0cbf\u0c95\u0c82\u0ca6\u0cb0\u0cbe\u0cac\u0cbe\u0ca6\u0ccd \u0c9c\u0c82\u0c95\u0ccd\u0cb7\u0ca8\u0ccd", "name:ml": "\u0d38\u0d46\u0d15\u0d4d\u0d15\u0d28\u0d4d\u0d24\u0d30\u0d3e\u0d2c\u0d3e\u0d26\u0d4d \u0d1c\u0d02\u0d17\u0d4d\u0d37\u0d7b", "name:ta": "\u0b9a\u0bc6\u0b95\u0ba8\u0bcd\u0ba4\u0bbf\u0bb0\u0bbe\u0baa\u0bbe\u0ba4\u0bcd \u0b9a\u0ba8\u0bcd\u0ba4\u0bbf\u0baa\u0bcd\u0baa\u0bc1", "name:te": "\u0c38\u0c3f\u0c15\u0c3f\u0c02\u0c26\u0c4d\u0c30\u0c3e\u0c2c\u0c3e\u0c26\u0c4d \u0c1c\u0c02\u0c15\u0c4d\u0c37\u0c28\u0c4d", "name:ur": "\u0633\u06a9\u0646\u062f\u0631\u0622\u0628\u0627\u062f \u062c\u0646\u06a9\u0634\u0646", "public_transport": "stop_position", "railway": "stop", "ref": "7", "train": "yes"}}, {"type": "node", "id": 2212573646, "lat": 17.433424, "lon": 78.5028185, "tags": {"name": "Secunderabad Junction", "name:hi": "\u0938\u093f\u0915\u0902\u0926\u0930\u093e\u092c\u093e\u0926 \u091c\u0902\u0915\u094d\u0936\u0928", "name:kn": "\u0cb8\u0cbf\u0c95\u0c82\u0ca6\u0cb0\u0cbe\u0cac\u0cbe\u0ca6\u0ccd \u0c9c\u0c82\u0c95\u0ccd\u0cb7\u0ca8\u0ccd", "name:ml": "\u0d38\u0d46\u0d15\u0d4d\u0d15\u0d28\u0d4d\u0d24\u0d30\u0d3e\u0d2c\u0d3e\u0d26\u0d4d \u0d1c\u0d02\u0d17\u0d4d\u0d37\u0d7b", "name:ta": "\u0b9a\u0bc6\u0b95\u0ba8\u0bcd\u0ba4\u0bbf\u0bb0\u0bbe\u0baa\u0bbe\u0ba4\u0bcd \u0b9a\u0ba8\u0bcd\u0ba4\u0bbf\u0baa\u0bcd\u0baa\u0bc1", "name:te": "\u0c38\u0c3f\u0c15\u0c3f\u0c02\u0c26\u0c4d\u0c30\u0c3e\u0c2c\u0c3e\u0c26\u0c4d \u0c1c\u0c02\u0c15\u0c4d\u0c37\u0c28\u0c4d", "name:ur": "\u0633\u06a9\u0646\u062f\u0631\u0622\u0628\u0627\u062f \u062c\u0646\u06a9\u0634\u0646", "public_transport": "stop_position", "railway": "stop", "ref": "5", "train": "yes"}}, {"type": "node", "id": 2212573685, "lat": 17.4333878, "lon": 78.5028476, "tags": {"name": "Secunderabad Junction", "name:hi": "\u0938\u093f\u0915\u0902\u0926\u0930\u093e\u092c\u093e\u0926 \u091c\u0902\u0915\u094d\u0936\u0928", "name:kn": "\u0cb8\u0cbf\u0c95\u0c82\u0ca6\u0cb0\u0cbe\u0cac\u0cbe\u0ca6\u0ccd \u0c9c\u0c82\u0c95\u0ccd\u0cb7\u0ca8\u0ccd", "name:ml": "\u0d38\u0d46\u0d15\u0d4d\u0d15\u0d28\u0d4d\u0d24\u0d30\u0d3e\u0d2c\u0d3e\u0d26\u0d4d \u0d1c\u0d02\u0d17\u0d4d\u0d37\u0d7b", "name:ta": "\u0b9a\u0bc6\u0b95\u0ba8\u0bcd\u0ba4\u0bbf\u0bb0\u0bbe\u0baa\u0bbe\u0ba4\u0bcd \u0b9a\u0ba8\u0bcd\u0ba4\u0bbf\u0baa\u0bcd\u0baa\u0bc1", "name:te": "\u0c38\u0c3f\u0c15\u0c3f\u0c02\u0c26\u0c4d\u0c30\u0c3e\u0c2c\u0c3e\u0c26\u0c4d \u0c1c\u0c02\u0c15\u0c4d\u0c37\u0c28\u0c4d", "name:ur": "\u0633\u06a9\u0646\u062f\u0631\u0622\u0628\u0627\u062f \u062c\u0646\u06a9\u0634\u0646", "public_transport": "stop_position", "railway": "stop", "ref": "6", "train": "yes"}}, {"type": "node", "id": 2212573687, "lat": 17.4330215, "lon": 78.502945, "tags": {"name": "Secunderabad Junction", "name:hi": "\u0938\u093f\u0915\u0902\u0926\u0930\u093e\u092c\u093e\u0926 \u091c\u0902\u0915\u094d\u0936\u0928", "name:kn": "\u0cb8\u0cbf\u0c95\u0c82\u0ca6\u0cb0\u0cbe\u0cac\u0cbe\u0ca6\u0ccd \u0c9c\u0c82\u0c95\u0ccd\u0cb7\u0ca8\u0ccd", "name:ml": "\u0d38\u0d46\u0d15\u0d4d\u0d15\u0d28\u0d4d\u0d24\u0d30\u0d3e\u0d2c\u0d3e\u0d26\u0d4d \u0d1c\u0d02\u0d17\u0d4d\u0d37\u0d7b", "name:ta": "\u0b9a\u0bc6\u0b95\u0ba8\u0bcd\u0ba4\u0bbf\u0bb0\u0bbe\u0baa\u0bbe\u0ba4\u0bcd \u0b9a\u0ba8\u0bcd\u0ba4\u0bbf\u0baa\u0bcd\u0baa\u0bc1", "name:te": "\u0c38\u0c3f\u0c15\u0c3f\u0c02\u0c26\u0c4d\u0c30\u0c3e\u0c2c\u0c3e\u0c26\u0c4d \u0c1c\u0c02\u0c15\u0c4d\u0c37\u0c28\u0c4d", "name:ur": "\u0633\u06a9\u0646\u062f\u0631\u0622\u0628\u0627\u062f \u062c\u0646\u06a9\u0634\u0646", "public_transport": "stop_position", "railway": "stop", "ref": "9", "train": "yes"}}, {"type": "node", "id": 2212573719, "lat": 17.4329748, "lon": 78.5029553, "tags": {"name": "Secunderabad Junction", "name:hi": "\u0938\u093f\u0915\u0902\u0926\u0930\u093e\u092c\u093e\u0926 \u091c\u0902\u0915\u094d\u0936\u0928", "name:kn": "\u0cb8\u0cbf\u0c95\u0c82\u0ca6\u0cb0\u0cbe\u0cac\u0cbe\u0ca6\u0ccd \u0c9c\u0c82\u0c95\u0ccd\u0cb7\u0ca8\u0ccd", "name:ml": "\u0d38\u0d46\u0d15\u0d4d\u0d15\u0d28\u0d4d\u0d24\u0d30\u0d3e\u0d2c\u0d3e\u0d26\u0d4d \u0d1c\u0d02\u0d17\u0d4d\u0d37\u0d7b", "name:ta": "\u0b9a\u0bc6\u0b95\u0ba8\u0bcd\u0ba4\u0bbf\u0bb0\u0bbe\u0baa\u0bbe\u0ba4\u0bcd \u0b9a\u0ba8\u0bcd\u0ba4\u0bbf\u0baa\u0bcd\u0baa\u0bc1", "name:te": "\u0c38\u0c3f\u0c15\u0c3f\u0c02\u0c26\u0c4d\u0c30\u0c3e\u0c2c\u0c3e\u0c26\u0c4d \u0c1c\u0c02\u0c15\u0c4d\u0c37\u0c28\u0c4d", "name:ur": "\u0633\u06a9\u0646\u062f\u0631\u0622\u0628\u0627\u062f \u062c\u0646\u06a9\u0634\u0646", "public_transport": "stop_position", "railway": "stop", "ref": "10", "train": "yes"}}, {"type": "node", "id": 2212573760, "lat": 17.4335955, "lon": 78.5027936, "tags": {"name": "Secunderabad Junction", "name:hi": "\u0938\u093f\u0915\u0902\u0926\u0930\u093e\u092c\u093e\u0926 \u091c\u0902\u0915\u094d\u0936\u0928", "name:kn": "\u0cb8\u0cbf\u0c95\u0c82\u0ca6\u0cb0\u0cbe\u0cac\u0cbe\u0ca6\u0ccd \u0c9c\u0c82\u0c95\u0ccd\u0cb7\u0ca8\u0ccd", "name:ml": "\u0d38\u0d46\u0d15\u0d4d\u0d15\u0d28\u0d4d\u0d24\u0d30\u0d3e\u0d2c\u0d3e\u0d26\u0d4d \u0d1c\u0d02\u0d17\u0d4d\u0d37\u0d7b", "name:ta": "\u0b9a\u0bc6\u0b95\u0ba8\u0bcd\u0ba4\u0bbf\u0bb0\u0bbe\u0baa\u0bbe\u0ba4\u0bcd \u0b9a\u0ba8\u0bcd\u0ba4\u0bbf\u0baa\u0bcd\u0baa\u0bc1", "name:te": "\u0c38\u0c3f\u0c15\u0c3f\u0c02\u0c26\u0c4d\u0c30\u0c3e\u0c2c\u0c3e\u0c26\u0c4d \u0c1c\u0c02\u0c15\u0c4d\u0c37\u0c28\u0c4d", "name:ur": "\u0633\u06a9\u0646\u062f\u0631\u0622\u0628\u0627\u062f \u062c\u0646\u06a9\u0634\u0646", "public_transport": "stop_position", "railway": "stop", "ref": "3", "train": "yes"}}, {"type": "node", "id": 2212573769, "lat": 17.4337432, "lon": 78.5027517, "tags": {"name": "Secunderabad Junction", "name:hi": "\u0938\u093f\u0915\u0902\u0926\u0930\u093e\u092c\u093e\u0926 \u091c\u0902\u0915\u094d\u0936\u0928", "name:kn": "\u0cb8\u0cbf\u0c95\u0c82\u0ca6\u0cb0\u0cbe\u0cac\u0cbe\u0ca6\u0ccd \u0c9c\u0c82\u0c95\u0ccd\u0cb7\u0ca8\u0ccd", "name:ml": "\u0d38\u0d46\u0d15\u0d4d\u0d15\u0d28\u0d4d\u0d24\u0d30\u0d3e\u0d2c\u0d3e\u0d26\u0d4d \u0d1c\u0d02\u0d17\u0d4d\u0d37\u0d7b", "name:ta": "\u0b9a\u0bc6\u0b95\u0ba8\u0bcd\u0ba4\u0bbf\u0bb0\u0bbe\u0baa\u0bbe\u0ba4\u0bcd \u0b9a\u0ba8\u0bcd\u0ba4\u0bbf\u0baa\u0bcd\u0baa\u0bc1", "name:te": "\u0c38\u0c3f\u0c15\u0c3f\u0c02\u0c26\u0c4d\u0c30\u0c3e\u0c2c\u0c3e\u0c26\u0c4d \u0c1c\u0c02\u0c15\u0c4d\u0c37\u0c28\u0c4d", "name:ur": "\u0633\u06a9\u0646\u062f\u0631\u0622\u0628\u0627\u062f \u062c\u0646\u06a9\u0634\u0646", "public_transport": "stop_position", "railway": "stop", "ref": "1", "train": "yes"}}, {"type": "node", "id": 2212573771, "lat": 17.4331516, "lon": 78.5029134, "tags": {"name": "Secunderabad Junction", "name:hi": "\u0938\u093f\u0915\u0902\u0926\u0930\u093e\u092c\u093e\u0926 \u091c\u0902\u0915\u094d\u0936\u0928", "name:kn": "\u0cb8\u0cbf\u0c95\u0c82\u0ca6\u0cb0\u0cbe\u0cac\u0cbe\u0ca6\u0ccd \u0c9c\u0c82\u0c95\u0ccd\u0cb7\u0ca8\u0ccd", "name:ml": "\u0d38\u0d46\u0d15\u0d4d\u0d15\u0d28\u0d4d\u0d24\u0d30\u0d3e\u0d2c\u0d3e\u0d26\u0d4d \u0d1c\u0d02\u0d17\u0d4d\u0d37\u0d7b", "name:ta": "\u0b9a\u0bc6\u0b95\u0ba8\u0bcd\u0ba4\u0bbf\u0bb0\u0bbe\u0baa\u0bbe\u0ba4\u0bcd \u0b9a\u0ba8\u0bcd\u0ba4\u0bbf\u0baa\u0bcd\u0baa\u0bc1", "name:te": "\u0c38\u0c3f\u0c15\u0c3f\u0c02\u0c26\u0c4d\u0c30\u0c3e\u0c2c\u0c3e\u0c26\u0c4d \u0c1c\u0c02\u0c15\u0c4d\u0c37\u0c28\u0c4d", "name:ur": "\u0633\u06a9\u0646\u062f\u0631\u0622\u0628\u0627\u062f \u062c\u0646\u06a9\u0634\u0646", "public_transport": "stop_position", "railway": "stop", "ref": "8", "train": "yes"}}, {"type": "node", "id": 2212573775, "lat": 17.4337186, "lon": 78.5027557, "tags": {"name": "Secunderabad Junction", "name:hi": "\u0938\u093f\u0915\u0902\u0926\u0930\u093e\u092c\u093e\u0926 \u091c\u0902\u0915\u094d\u0936\u0928", "name:kn": "\u0cb8\u0cbf\u0c95\u0c82\u0ca6\u0cb0\u0cbe\u0cac\u0cbe\u0ca6\u0ccd \u0c9c\u0c82\u0c95\u0ccd\u0cb7\u0ca8\u0ccd", "name:ml": "\u0d38\u0d46\u0d15\u0d4d\u0d15\u0d28\u0d4d\u0d24\u0d30\u0d3e\u0d2c\u0d3e\u0d26\u0d4d \u0d1c\u0d02\u0d17\u0d4d\u0d37\u0d7b", "name:ta": "\u0b9a\u0bc6\u0b95\u0ba8\u0bcd\u0ba4\u0bbf\u0bb0\u0bbe\u0baa\u0bbe\u0ba4\u0bcd \u0b9a\u0ba8\u0bcd\u0ba4\u0bbf\u0baa\u0bcd\u0baa\u0bc1", "name:te": "\u0c38\u0c3f\u0c15\u0c3f\u0c02\u0c26\u0c4d\u0c30\u0c3e\u0c2c\u0c3e\u0c26\u0c4d \u0c1c\u0c02\u0c15\u0c4d\u0c37\u0c28\u0c4d", "name:ur": "\u0633\u06a9\u0646\u062f\u0631\u0622\u0628\u0627\u062f \u062c\u0646\u06a9\u0634\u0646", "public_transport": "stop_position", "railway": "stop", "ref": "2", "train": "yes"}}, {"type": "node", "id": 2214136534, "lat": 17.4359536, "lon": 78.5000501, "tags": {"amenity": "bus_station", "bus": "yes", "internet_access": "no", "name": "Secunderabad", "name:hi": "\u0938\u093f\u0915\u0902\u0926\u0930\u093e\u092c\u093e\u0926", "name:pa": "\u0a38\u0a3f\u0a15\u0a70\u0a26\u0a30\u0a3e\u0a2c\u0a3e\u0a26", "name:te": "\u0c38\u0c3f\u0c15\u0c3f\u0c02\u0c26\u0c4d\u0c30\u0c3e\u0c2c\u0c3e\u0c26\u0c4d", "name:ur": "\u0633\u06a9\u0646\u062f\u0631 \u0622\u0628\u0627\u062f", "network": "Secunderabad-Medchal-Lingampalli", "operator": "TSRTC", "public_transport": "station"}}, {"type": "node", "id": 2217940686, "lat": 17.3976544, "lon": 78.4753629, "tags": {"bench": "yes", "bin": "yes", "highway": "bus_stop", "name": "Nizam College", "shelter": "yes"}}, {"type": "node", "id": 2217940689, "lat": 17.3930165, "lon": 78.4763954, "tags": {"bench": "yes", "bin": "yes", "highway": "bus_stop", "name": "Abids Grammar School", "shelter": "yes"}}, {"type": "node", "id": 2217950176, "lat": 17.3430236, "lon": 78.5563699, "tags": {"highway": "bus_stop", "name": "Check Post"}}, {"type": "node", "id": 2217960497, "lat": 17.3684433, "lon": 78.5228597, "tags": {"bus": "yes", "highway": "bus_stop", "name": "Dilsukhnagar", "public_transport": "platform"}}, {"type": "node", "id": 2217960505, "lat": 17.3500083, "lon": 78.5475524, "tags": {"highway": "bus_stop", "name": "LB Nagar"}}, {"type": "node", "id": 2217960511, "lat": 17.355619, "lon": 78.5452928, "tags": {"highway": "bus_stop", "name": "Doctors Colony Bus Stop", "shelter": "no"}}, {"type": "node", "id": 2217968813, "lat": 17.4028042, "lon": 78.4594873, "tags": {"highway": "bus_stop", "name": "A.C. Guards"}}, {"type": "node", "id": 2217968814, "lat": 17.3987603, "lon": 78.4494264, "tags": {"highway": "bus_stop", "name": "NMDC"}}, {"type": "node", "id": 2280843044, "lat": 17.4410694, "lon": 78.4924461, "tags": {"bus": "yes", "fixme": "name", "highway": "bus_stop", "public_transport": "platform"}}, {"type": "node", "id": 2280843045, "lat": 17.4414634, "lon": 78.4877909, "tags": {"bus": "yes", "highway": "bus_stop", "name": "Paradise", "name:te": "\u0c2a\u0c3e\u0c30\u0c21\u0c48\u0c1c\u0c4d", "public_transport": "platform"}}, {"type": "node", "id": 2390894252, "lat": 17.4338339, "lon": 78.499501, "tags": {"name": "Secunderabad West", "name:te": "\u0c38\u0c3f\u0c15\u0c3f\u0c02\u0c26\u0c4d\u0c30\u0c3e\u0c2c\u0c3e\u0c26\u0c4d \u0c35\u0c46\u0c38\u0c4d\u0c1f\u0c4d", "network": "Hyderabad Metro", "note": "Contributors are requested to not edit the \"network\" and the \"operator\" tags. (2023/11/08)", "operator": "Hyderabad Metro Rail Limited", "public_transport": "stop_position", "railway": "stop", "subway": "yes"}}, {"type": "node", "id": 2390894256, "lat": 17.4070448, "lon": 78.4967721, "tags": {"name": "RTC Cross Roads", "name:te": "\u0c06\u0c30\u0c4d \u0c1f\u0c40 \u0c38\u0c3f \u0c15\u0c4d\u0c30\u0c3e\u0c38\u0c4d \u0c30\u0c4b\u0c21\u0c4d\u0c38\u0c4d", "network": "Hyderabad Metro", "note": "Contributors are requested to not edit the \"network\" and the \"operator\" tags. (2023/11/08)", "operator": "Hyderabad Metro Rail Limited", "public_transport": "stop_position", "subway": "yes"}}, {"type": "node", "id": 2390894266, "lat": 17.4003684, "lon": 78.4948742, "tags": {"name": "Chikkadpally", "name:ml": "\u0d1a\u0d3f\u0d15\u0d4d\u0d15\u0d1f\u0d2a\u0d4d\u0d2a\u0d33\u0d4d\u0d33\u0d3f", "name:te": "\u0c1a\u0c3f\u0c15\u0c4d\u0c15\u0c21\u0c2a\u0c32\u0c4d\u0c32\u0c3f", "network": "Hyderabad Metro", "note": "Contributors are requested to not edit the \"network\" and the \"operator\" tags. (2023/11/08)", "operator": "Hyderabad Metro Rail Limited", "public_transport": "stop_position", "subway": "yes"}}, {"type": "node", "id": 2403829370, "lat": 17.4317624, "lon": 78.4475007, "tags": {"highway": "bus_stop", "shelter": "yes"}}, {"type": "node", "id": 2412783668, "lat": 17.3765096, "lon": 78.5589077, "tags": {"highway": "bus_stop", "local_ref": "Nagole", "name": "Nagole to Bandlaguda", "operator": "APSRTC Hyderabad", "shelter": "no"}}, {"type": "node", "id": 2412783670, "lat": 17.3762526, "lon": 78.557441, "tags": {"highway": "bus_stop", "local_ref": "Nagole", "name": "Nagole to Kothapet", "operator": "APSRTC Hyderabad", "shelter": "no"}}, {"type": "node", "id": 2412783672, "lat": 17.3774867, "lon": 78.5577208, "tags": {"highway": "bus_stop", "local_ref": "Nagole", "name": "Nagole X Road", "name_1": "Nagole Cross Road", "operator": "APSRTC Hyderabad", "shelter": "no"}}, {"type": "node", "id": 2422172970, "lat": 17.4375661, "lon": 78.4569341, "tags": {"name": "Begumpet", "name:fa": "\u0628\u06cc\u06af\u0645 \u067e\u06cc\u062a", "name:ml": "\u0d2c\u0d47\u0d17\u0d02\u0d2a\u0d47\u0d1f\u0d4d\u0d1f\u0d4d", "name:te": "\u0c2c\u0c47\u0c17\u0c02\u0c2a\u0c47\u0c1f\u0c4d", "name:ur": "\u0628\u06cc\u06af\u0645 \u067e\u06cc\u0679", "network": "Hyderabad Metro", "note": "Contributors are requested to not edit the \"network\" and the \"operator\" tags. (2023/11/08)", "operator": "Hyderabad Metro Rail Limited", "public_transport": "station", "railway": "station", "station": "subway", "subway": "yes"}}, {"type": "node", "id": 2422172987, "lat": 17.4375612, "lon": 78.4569588, "tags": {"name": "Begumpet", "name:te": "\u0c2c\u0c47\u0c17\u0c02\u0c2a\u0c47\u0c1f\u0c4d", "network": "Hyderabad Metro", "note": "Contributors are requested to not edit the \"network\" and the \"operator\" tags. (2023/11/08)", "operator": "Hyderabad Metro Rail Limited", "public_transport": "stop_position", "railway": "stop", "subway": "yes", "wikidata": "Q84301996", "wikipedia": "en:Begumpet metro station"}}, {"type": "node", "id": 2422172989, "lat": 17.436951, "lon": 78.4391108, "tags": {"alt_name": "Taruni Madhura Nagar", "name": "Madhura Nagar", "name:te": "\u0c2e\u0c27\u0c41\u0c30 \u0c28\u0c17\u0c30\u0c4d", "network": "Hyderabad Metro", "note": "Contributors are requested to not edit the \"network\" and the \"operator\" tags. (2023/11/08)", "operator": "Hyderabad Metro Rail Limited", "public_transport": "stop_position", "railway": "stop", "subway": "yes"}}, {"type": "node", "id": 2422172990, "lat": 17.4448686, "lon": 78.4658736, "tags": {"name": "Prakash Nagar", "name:te": "\u0c2a\u0c4d\u0c30\u0c15\u0c3e\u0c36\u0c4d\u200c\u0c28\u0c17\u0c30\u0c4d", "network": "Hyderabad Metro", "note": "Contributors are requested to not edit the \"network\" and the \"operator\" tags. (2023/11/08)", "operator": "Hyderabad Metro Rail Limited", "public_transport": "stop_position", "subway": "yes"}}, {"type": "node", "id": 2422173009, "lat": 17.4000621, "lon": 78.5602104, "tags": {"name": "Uppal", "name:te": "\u0c09\u0c2a\u0c4d\u0c2a\u0c32\u0c4d", "network": "Hyderabad Metro", "note": "Contributors are requested to not edit the \"network\" and the \"operator\" tags. (2023/11/08)", "operator": "Hyderabad Metro Rail Limited", "public_transport": "stop_position", "railway": "stop", "subway": "yes"}}, {"type": "node", "id": 2422173010, "lat": 17.4435921, "lon": 78.4764056, "tags": {"name": "Rasoolpura", "name:te": "\u0c30\u0c38\u0c42\u0c32\u0c4d\u200c\u0c2a\u0c41\u0c30", "network": "Hyderabad Metro", "note": "Contributors are requested to not edit the \"network\" and the \"operator\" tags. (2023/11/08)", "operator": "Hyderabad Metro Rail Limited", "public_transport": "stop_position", "subway": "yes"}}, {"type": "node", "id": 2422173034, "lat": 17.4431713, "lon": 78.4974685, "tags": {"name": "Parade Grounds (Blue Line)", "name:te": "\u0c2a\u0c46\u0c30\u0c47\u0c21\u0c4d \u0c17\u0c4d\u0c30\u0c4c\u0c02\u0c21\u0c4d\u0c38\u0c4d", "network": "Hyderabad Metro", "note": "Contributors are requested to not edit the \"network\" and the \"operator\" tags. (2023/11/08)", "operator": "Hyderabad Metro Rail Limited", "public_transport": "stop_position", "railway": "stop", "subway": "yes"}}, {"type": "node", "id": 2422173048, "lat": 17.4201642, "lon": 78.5405282, "tags": {"name": "Habsiguda", "name:te": "\u0c39\u0c2c\u0c4d\u0c38\u0c40\u0c17\u0c42\u0c21", "network": "Hyderabad Metro", "note": "Contributors are requested to not edit the \"network\" and the \"operator\" tags. (2023/11/08)", "operator": "Hyderabad Metro Rail Limited", "public_transport": "stop_position", "subway": "yes"}}, {"type": "node", "id": 2422173052, "lat": 17.4357106, "lon": 78.5054333, "tags": {"name": "Secunderabad East", "name:te": "\u0c38\u0c3f\u0c15\u0c3f\u0c02\u0c26\u0c4d\u0c30\u0c3e\u0c2c\u0c3e\u0c26\u0c4d \u0c24\u0c42\u0c30\u0c4d\u0c2a\u0c41", "network": "Hyderabad Metro", "note": "Contributors are requested to not edit the \"network\" and the \"operator\" tags. (2023/11/08)", "operator": "Hyderabad Metro Rail Limited", "public_transport": "stop_position", "railway": "stop", "subway": "yes"}}, {"type": "node", "id": 2422173063, "lat": 17.4434398, "lon": 78.4862445, "tags": {"name": "Paradise", "name:te": "\u0c2a\u0c4d\u0c2f\u0c3e\u0c30\u0c21\u0c48\u0c1c\u0c4d", "network": "Hyderabad Metro", "note": "Contributors are requested to not edit the \"network\" and the \"operator\" tags. (2023/11/08)", "operator": "Hyderabad Metro Rail Limited", "public_transport": "stop_position", "subway": "yes"}}, {"type": "node", "id": 2422173068, "lat": 17.4355036, "lon": 78.5195573, "tags": {"name": "Mettuguda", "name:te": "\u0c2e\u0c46\u0c1f\u0c4d\u0c1f\u0c41\u0c17\u0c42\u0c21", "network": "Hyderabad Metro", "note": "Contributors are requested to not edit the \"network\" and the \"operator\" tags. (2023/11/08)", "operator": "Hyderabad Metro Rail Limited", "public_transport": "stop_position", "railway": "stop", "subway": "yes", "wikidata": "Q83788029"}}, {"type": "node", "id": 2422173094, "lat": 17.4073799, "lon": 78.5542281, "tags": {"name": "Stadium", "name:te": "\u0c38\u0c4d\u0c1f\u0c47\u0c21\u0c3f\u0c2f\u0c02", "network": "Hyderabad Metro", "note": "Contributors are requested to not edit the \"network\" and the \"operator\" tags. (2023/11/08)", "operator": "Hyderabad Metro Rail Limited", "public_transport": "stop_position", "railway": "stop", "subway": "yes"}}, {"type": "node", "id": 2422173110, "lat": 17.4353341, "lon": 78.4446031, "tags": {"name": "Ameerpet", "name:te": "\u0c05\u0c2e\u0c40\u0c30\u0c4d\u200c\u0c2a\u0c47\u0c1f\u0c4d", "network": "Hyderabad Metro", "note": "Contributors are requested to not edit the \"network\" and the \"operator\" tags. (2023/11/08)", "operator": "Hyderabad Metro Rail Limited", "public_transport": "stop_position", "public_transport:version": "2", "railway": "stop", "subway": "yes", "wikidata": "Q56701862", "wikipedia": "en:Ameerpet metro station"}}, {"type": "node", "id": 2422173111, "lat": 17.4282733, "lon": 78.5284257, "tags": {"name": "Tarnaka", "name:te": "\u0c24\u0c3e\u0c30\u0c4d\u0c28\u0c3e\u0c15", "network": "Hyderabad Metro", "note": "Contributors are requested to not edit the \"network\" and the \"operator\" tags. (2023/11/08)", "operator": "Hyderabad Metro Rail Limited", "public_transport": "stop_position", "railway": "stop", "subway": "yes"}}, {"type": "node", "id": 2422173113, "lat": 17.4148047, "lon": 78.5463149, "tags": {"name": "NGRI", "name:te": "\u0c0e\u0c28\u0c4d.\u0c1c\u0c3f.\u0c06\u0c30\u0c4d.\u0c10", "network": "Hyderabad Metro", "note": "Contributors are requested to not edit the \"network\" and the \"operator\" tags. (2023/11/08)", "operator": "Hyderabad Metro Rail Limited", "public_transport": "stop_position", "subway": "yes"}}, {"type": "node", "id": 2422173139, "lat": 17.4282098, "lon": 78.4136829, "tags": {"name": "Jubilee Hills Checkpost", "network": "Hyderabad Metro", "note": "Contributors are requested to not edit the \"network\" and the \"operator\" tags. (2023/11/08)", "operator": "Hyderabad Metro Rail Limited", "platforms": "2", "public_transport": "stop_position", "public_transport:version": "2", "railway": "stop", "subway": "yes", "wheelchair": "yes"}}, {"type": "node", "id": 2422988997, "lat": 17.4355002, "lon": 78.4447343, "tags": {"addr:city": "Hyderabad", "addr:city:ar": "\u062d\u064a\u062f\u0631 \u0622\u0628\u0627\u062f", "addr:city:ur": "\u062d\u06cc\u062f\u0631\u0622\u0628\u0627\u062f", "name": "Ameerpet", "name:te": "\u0c05\u0c2e\u0c40\u0c30\u0c4d\u200c\u0c2a\u0c47\u0c1f\u0c4d", "network": "Hyderabad Metro", "note": "Contributors are requested to not edit the \"network\" and the \"operator\" tags. (2023/11/08)", "operator": "Hyderabad Metro Rail Limited", "public_transport": "stop_position", "public_transport:version": "2", "railway": "stop", "subway": "yes", "wikidata": "Q56701862", "wikipedia": "en:Ameerpet metro station"}}, {"type": "node", "id": 2422989005, "lat": 17.36831, "lon": 78.5361908, "tags": {"addr:city": "Hyderabad", "addr:city:ar": "\u062d\u064a\u062f\u0631 \u0622\u0628\u0627\u062f", "addr:city:ur": "\u062d\u06cc\u062f\u0631\u0622\u0628\u0627\u062f", "name": "Chaitanyapuri", "name:ml": "\u0d1a\u0d48\u0d24\u0d28\u0d4d\u0d2f\u0d2a\u0d41\u0d30\u0d3f", "name:te": "\u0c1b\u0c48\u0c24\u0c28\u0c4d\u0c2f\u0c2a\u0c41\u0c30\u0c3f", "network": "Hyderabad Metro", "note": "Contributors are requested to not edit the \"network\" and the \"operator\" tags. (2023/11/08)", "operator": "Hyderabad Metro Rail Limited", "public_transport": "stop_position", "railway": "stop", "subway": "yes", "wheelchair": "yes"}}, {"type": "node", "id": 2422989007, "lat": 17.3734454, "lon": 78.5031791, "tags": {"addr:city": "Hyderabad", "addr:city:ar": "\u062d\u064a\u062f\u0631 \u0622\u0628\u0627\u062f", "addr:city:ur": "\u062d\u06cc\u062f\u0631\u0622\u0628\u0627\u062f", "alt_name": "\u0645\u062d\u0628\u0648\u0628 \u06af\u0646\u062c", "name": "New Market", "name:ml": "\u0d28\u0d4d\u0d2f\u0d42\u0d2e\u0d3e\u0d7c\u0d15\u0d4d\u0d15\u0d31\u0d4d\u0d31\u0d4d", "name:te": "\u0c15\u0c4a\u0c24\u0c4d\u0c24 \u0c2e\u0c3e\u0c30\u0c4d\u0c15\u0c46\u0c1f\u0c4d", "name:ur": "\u0646\u0626\u06cc \u0645\u0627\u0631\u06a9\u06cc\u0679", "network": "Hyderabad Metro", "note": "Contributors are requested to not edit the \"network\" and the \"operator\" tags. (2023/11/08)", "operator": "Hyderabad Metro Rail Limited", "public_transport": "stop_position", "public_transport:version": "2", "railway": "stop", "subway": "yes"}}, {"type": "node", "id": 2422989049, "lat": 17.3821199, "lon": 78.4816145, "tags": {"addr:city": "Hyderabad", "addr:city:ar": "\u062d\u064a\u062f\u0631 \u0622\u0628\u0627\u062f", "addr:city:ur": "\u062d\u06cc\u062f\u0631\u0622\u0628\u0627\u062f", "alt_name": "OMC", "name": "Osmania Medical College", "name:ml": "\u0d09\u0d38\u0d4d\u0d2e\u0d3e\u0d28\u0d3f\u0d2f \u0d2e\u0d46\u0d21\u0d3f\u0d15\u0d4d\u0d15\u0d7d \u0d15\u0d4b\u0d33\u0d47\u0d1c\u0d4d", "name:te": "\u0c09\u0c38\u0c4d\u0c2e\u0c3e\u0c28\u0c3f\u0c2f\u0c3e \u0c35\u0c48\u0c26\u0c4d\u0c2f \u0c15\u0c33\u0c3e\u0c36\u0c3e\u0c32", "network": "Hyderabad Metro", "note": "Contributors are requested to not edit the \"network\" and the \"operator\" tags. (2023/11/08)", "operator": "Hyderabad Metro Rail Limited", "public_transport": "stop_position", "public_transport:version": "2", "railway": "stop", "subway": "yes"}}, {"type": "node", "id": 2422989058, "lat": 17.3772052, "lon": 78.4939044, "tags": {"addr:city": "Hyderabad", "addr:city:ar": "\u062d\u064a\u062f\u0631 \u0622\u0628\u0627\u062f", "addr:city:ur": "\u062d\u06cc\u062f\u0631\u0622\u0628\u0627\u062f", "addr:place": "Malakpet", "addr:place:ar": "\u0645\u0627\u0644\u0643 \u0628\u064a\u062a", "addr:place:ur": "\u0645\u0627\u0644\u06a9 \u067e\u06cc\u0679", "alt_name:ur": "\u0645\u0644\u06a9 \u067e\u06cc\u0679", "name": "Malakpet", "name:ar": "\u0645\u0627\u0644\u0643 \u0628\u064a\u062a", "name:te": "\u0c2e\u0c32\u0c15\u0c4d\u200c\u0c2a\u0c47\u0c1f\u0c4d", "name:ur": "\u0645\u0627\u0644\u06a9 \u067e\u06cc\u0679", "network": "Hyderabad Metro", "note": "Contributors are requested to not edit the \"network\" and the \"operator\" tags. (2023/11/08)", "operator": "Hyderabad Metro Rail Limited", "public_transport": "stop_position", "public_transport:version": "2", "railway": "stop", "subway": "yes"}}, {"type": "node", "id": 2422989068, "lat": 17.3979907, "lon": 78.4708797, "tags": {"addr:city": "Hyderabad", "addr:city:ar": "\u062d\u064a\u062f\u0631 \u0622\u0628\u0627\u062f", "addr:city:ur": "\u062d\u06cc\u062f\u0631\u0622\u0628\u0627\u062f", "name": "Assembly", "name:ml": "\u0d05\u0d38\u0d02\u0d2c\u0d4d\u0d32\u0d3f", "name:te": "\u0c05\u0c38\u0c46\u0c02\u0c2c\u0c4d\u0c32\u0c40", "network": "Hyderabad Metro", "note": "Contributors are requested to not edit the \"network\" and the \"operator\" tags. (2023/11/08)", "operator": "Hyderabad Metro Rail Limited", "public_transport": "stop_position", "public_transport:version": "2", "railway": "stop", "subway": "yes"}}, {"type": "node", "id": 2422989110, "lat": 17.3858253, "lon": 78.4733347, "tags": {"addr:city": "Hyderabad", "addr:city:ar": "\u062d\u064a\u062f\u0631 \u0622\u0628\u0627\u062f", "addr:city:ur": "\u062d\u06cc\u062f\u0631\u0622\u0628\u0627\u062f", "name": "Gandhi Bhavan", "name:ml": "\u0d17\u0d3e\u0d28\u0d4d\u0d27\u0d3f \u0d2d\u0d35\u0d7b", "name:te": "\u0c17\u0c3e\u0c02\u0c27\u0c40 \u0c2d\u0c35\u0c28\u0c4d", "network": "Hyderabad Metro", "note": "Contributors are requested to not edit the \"network\" and the \"operator\" tags. (2023/11/08)", "operator": "Hyderabad Metro Rail Limited", "public_transport": "stop_position", "public_transport:version": "2", "railway": "stop", "subway": "yes"}}, {"type": "node", "id": 2422989133, "lat": 17.3618565, "lon": 78.5439622, "tags": {"addr:city": "Hyderabad", "addr:city:ar": "\u062d\u064a\u062f\u0631 \u0622\u0628\u0627\u062f", "addr:city:ur": "\u062d\u06cc\u062f\u0631\u0622\u0628\u0627\u062f", "name": "Victoria Memorial", "name:ml": "\u0d35\u0d3f\u0d15\u0d4d\u0d1f\u0d4b\u0d31\u0d3f\u0d2f \u0d2e\u0d46\u0d2e\u0d4d\u0d2e\u0d4b\u0d31\u0d3f\u0d2f\u0d7d", "name:te": "\u0c35\u0c3f\u0c15\u0c4d\u0c1f\u0c4b\u0c30\u0c3f\u0c2f\u0c3e \u0c2e\u0c46\u0c2e\u0c4b\u0c30\u0c3f\u0c2f\u0c32\u0c4d", "network": "Hyderabad Metro", "note": "Contributors are requested to not edit the \"network\" and the \"operator\" tags. (2023/11/08)", "operator": "Hyderabad Metro Rail Limited", "public_transport": "stop_position", "public_transport:version": "2", "railway": "stop", "subway": "yes", "wheelchair": "yes"}}, {"type": "node", "id": 2422989167, "lat": 17.3685631, "lon": 78.5257183, "tags": {"addr:city": "Hyderabad", "addr:city:ar": "\u062d\u064a\u062f\u0631 \u0622\u0628\u0627\u062f", "addr:city:ur": "\u062d\u06cc\u062f\u0631\u0622\u0628\u0627\u062f", "name": "Dilsukh Nagar", "name:ml": "\u0d26\u0d3f\u0d7d\u0d38\u0d41\u0d16\u0d4d\u0d28\u0d17\u0d7c", "name:te": "\u0c26\u0c3f\u0c32\u0c4d\u200c\u0c38\u0c41\u0c16\u0c4d\u200c\u0c28\u0c17\u0c30\u0c4d", "network": "Hyderabad Metro", "note": "Contributors are requested to not edit the \"network\" and the \"operator\" tags. (2023/11/08)", "operator": "Hyderabad Metro Rail Limited", "public_transport": "stop_position", "public_transport:version": "2", "railway": "stop", "subway": "yes", "wheelchair": "yes"}}, {"type": "node", "id": 2422989191, "lat": 17.4202292, "lon": 78.4563489, "tags": {"addr:city": "Hyderabad", "addr:city:ar": "\u062d\u064a\u062f\u0631 \u0622\u0628\u0627\u062f", "addr:city:ur": "\u062d\u06cc\u062f\u0631\u0622\u0628\u0627\u062f", "name": "Irrum Manzil", "name:ml": "\u0d0e\u0d31\u0d02 \u0d2e\u0d7b\u0d38\u0d3f\u0d7d", "name:te": "\u0c07\u0c31\u0c02 \u0c2e\u0c02\u0c1c\u0c3f\u0c32\u0c4d", "network": "Hyderabad Metro", "note": "Contributors are requested to not edit the \"network\" and the \"operator\" tags. (2023/11/08)", "operator": "Hyderabad Metro Rail Limited", "public_transport": "stop_position", "public_transport:version": "2", "railway": "stop", "subway": "yes"}}, {"type": "node", "id": 2422989193, "lat": 17.443146, "lon": 78.4408077, "tags": {"addr:city": "Hyderabad", "addr:city:ar": "\u062d\u064a\u062f\u0631 \u0622\u0628\u0627\u062f", "addr:city:ur": "\u062d\u06cc\u062f\u0631\u0622\u0628\u0627\u062f", "name": "S. R. Nagar", "name:te": "\u0c0e\u0c38\u0c4d.\u0c06\u0c30\u0c4d. \u0c28\u0c17\u0c30\u0c4d", "network": "Hyderabad Metro", "note": "Contributors are requested to not edit the \"network\" and the \"operator\" tags. (2023/11/08)", "operator": "Hyderabad Metro Rail Limited", "public_transport": "stop_position", "public_transport:version": "2", "railway": "stop", "subway": "yes"}}, {"type": "node", "id": 2422989207, "lat": 17.392222, "lon": 78.4701612, "tags": {"addr:city": "Hyderabad", "addr:city:ar": "\u062d\u064a\u062f\u0631 \u0622\u0628\u0627\u062f", "addr:city:ur": "\u062d\u06cc\u062f\u0631\u0622\u0628\u0627\u062f", "name": "Nampally", "name:ml": "\u0d28\u0d3e\u0d2e\u0d4d\u0d2a\u0d33\u0d4d\u0d33\u0d3f", "name:te": "\u0c28\u0c3e\u0c02\u0c2a\u0c32\u0c4d\u0c32\u0c3f", "network": "Hyderabad Metro", "note": "Contributors are requested to not edit the \"network\" and the \"operator\" tags. (2023/11/08)", "operator": "Hyderabad Metro Rail Limited", "public_transport": "stop_position", "public_transport:version": "2", "railway": "stop", "subway": "yes"}}, {"type": "node", "id": 2422989260, "lat": 17.3798092, "lon": 78.486212, "tags": {"addr:city": "Hyderabad", "addr:city:ar": "\u062d\u064a\u062f\u0631 \u0622\u0628\u0627\u062f", "addr:city:ur": "\u062d\u06cc\u062f\u0631\u0622\u0628\u0627\u062f", "alt_name": "M. G. Bus Station (Red Line)", "name": "Mahatma Gandhi Bus Station (Red Line)", "name:te": "\u0c0e\u0c02.\u0c1c\u0c3f. \u0c2c\u0c38\u0c4d. \u0c38\u0c4d\u0c1f\u0c47\u0c37\u0c28\u0c4d", "name:ur": "\u0645\u06c1\u0627\u062a\u0645\u0627 \u06af\u0627\u0646\u062f\u06be\u06cc \u0628\u0633 \u0627\u0633\u0679\u06cc\u0634\u0646 (\u0631\u06cc\u0688 \u0644\u0627\u0626\u0646)", "network": "Hyderabad Metro", "note": "Contributors are requested to not edit the \"network\" and the \"operator\" tags. (2023/11/08)", "operator": "Hyderabad Metro Rail Limited", "public_transport": "stop_position", "public_transport:version": "2", "railway": "stop", "subway": "yes"}}, {"type": "node", "id": 2424019772, "lat": 17.4284456, "lon": 78.4513095, "tags": {"addr:city": "Hyderabad", "addr:city:ar": "\u062d\u064a\u062f\u0631 \u0622\u0628\u0627\u062f", "addr:city:ur": "\u062d\u06cc\u062f\u0631\u0622\u0628\u0627\u062f", "name": "Panjagutta", "name:ml": "\u0d2a\u0d1e\u0d4d\u0d1a\u0d17\u0d41\u0d1f\u0d4d\u0d1f", "name:te": "\u0c2a\u0c02\u0c1c\u0c3e\u0c17\u0c41\u0c1f\u0c4d\u0c1f", "network": "Hyderabad Metro", "note": "Contributors are requested to not edit the \"network\" and the \"operator\" tags. (2023/11/08)", "operator": "Hyderabad Metro Rail Limited", "public_transport": "stop_position", "public_transport:version": "2", "railway": "stop", "subway": "yes"}}, {"type": "node", "id": 2425474186, "lat": 17.4470156, "lon": 78.438567, "tags": {"addr:city": "Hyderabad", "addr:city:ar": "\u062d\u064a\u062f\u0631 \u0622\u0628\u0627\u062f", "addr:city:ur": "\u062d\u06cc\u062f\u0631\u0622\u0628\u0627\u062f", "name": "ESI Hospital", "name:ml": "\u0d07.\u0d0e\u0d38\u0d4d.\u0d10 \u0d06\u0d36\u0d41\u0d2a\u0d24\u0d4d\u0d30\u0d3f", "name:te": "\u0c08.\u0c0e\u0c38\u0c4d.\u0c10 \u0c06\u0c38\u0c4d\u0c2a\u0c24\u0c4d\u0c30\u0c3f", "network": "Hyderabad Metro", "note": "Contributors are requested to not edit the \"network\" and the \"operator\" tags. (2023/11/08)", "operator": "Hyderabad Metro Rail Limited", "public_transport": "stop_position", "public_transport:version": "2", "railway": "stop", "subway": "yes"}}, {"type": "node", "id": 2429965407, "lat": 17.3831041, "lon": 78.4828127, "tags": {"highway": "bus_stop", "name": "Medical College Bus Stop", "shelter": "yes"}}, {"type": "node", "id": 2430216676, "lat": 17.3651918, "lon": 78.5568927, "tags": {"highway": "bus_stop", "name": "Alkapuri Bus Stop", "name:te": "\u0c05\u0c32\u0c4d\u0c15\u0c3e\u0c2a\u0c42\u0c30\u0c3f \u0c2c\u0c38\u0c4d \u0c38\u0c4d\u0c1f\u0c3e\u0c2a\u0c4d"}}, {"type": "node", "id": 2445999527, "lat": 17.3765437, "lon": 78.5145697, "tags": {"bus": "yes", "highway": "bus_stop", "name": "Moosarambagh Bus Stop", "public_transport": "platform"}}, {"type": "node", "id": 2458342380, "lat": 17.4190085, "lon": 78.4479002, "tags": {"highway": "bus_stop", "name": "Water Tank"}}, {"type": "node", "id": 2460409245, "lat": 17.3587239, "lon": 78.4739639}, {"type": "node", "id": 2460409246, "lat": 17.3587582, "lon": 78.4738584}, {"type": "node", "id": 2460409247, "lat": 17.3587703, "lon": 78.4737562}, {"type": "node", "id": 2460409253, "lat": 17.3588514, "lon": 78.4735888}, {"type": "node", "id": 2460409270, "lat": 17.3594296, "lon": 78.4737051}, {"type": "node", "id": 2460409274, "lat": 17.3594865, "lon": 78.4740936}, {"type": "node", "id": 2460409275, "lat": 17.3594941, "lon": 78.4737913}, {"type": "node", "id": 2460409278, "lat": 17.3595569, "lon": 78.4741069}, {"type": "node", "id": 2460493710, "lat": 17.3889614, "lon": 78.4990166}, {"type": "node", "id": 2460493725, "lat": 17.3895054, "lon": 78.4994973}, {"type": "node", "id": 2461282027, "lat": 17.4001075, "lon": 78.5095791}, {"type": "node", "id": 2461282028, "lat": 17.4001424, "lon": 78.5095326}, {"type": "node", "id": 2461282029, "lat": 17.4001867, "lon": 78.5094762}, {"type": "node", "id": 2461282030, "lat": 17.4002278, "lon": 78.5094298}, {"type": "node", "id": 2461282032, "lat": 17.4011017, "lon": 78.5104581}, {"type": "node", "id": 2461282036, "lat": 17.4013867, "lon": 78.5105344}, {"type": "node", "id": 2461282037, "lat": 17.401393, "lon": 78.5104614}, {"type": "node", "id": 2461282046, "lat": 17.4026662, "lon": 78.511906}, {"type": "node", "id": 2461282047, "lat": 17.4026979, "lon": 78.5118596}, {"type": "node", "id": 2461282048, "lat": 17.4027137, "lon": 78.51177}, {"type": "node", "id": 2461282050, "lat": 17.4027548, "lon": 78.5117136}, {"type": "node", "id": 2461447890, "lat": 17.4385942, "lon": 78.458062, "tags": {"name": "Begumpet", "name:kn": "\u0cac\u0cc7\u0c97\u0c82\u0caa\u0cc7\u0c9f\u0cc6", "name:ur": "\u0628\u06cc\u06af\u0645 \u067e\u06cc\u0679", "public_transport": "station", "railway": "station", "ref": "2", "train": "yes", "wikidata": "Q4880629", "wikipedia": "en:Begumpet railway station"}}, {"type": "node", "id": 2461447891, "lat": 17.4386323, "lon": 78.4580666, "tags": {"name": "Begumpet", "name:kn": "\u0cac\u0cc7\u0c97\u0c82\u0caa\u0cc7\u0c9f\u0cc6", "public_transport": "stop_position", "railway": "stop", "ref": "1", "train": "yes"}}, {"type": "node", "id": 2461453427, "lat": 17.4377516, "lon": 78.4613458}, {"type": "node", "id": 2461453429, "lat": 17.4378371, "lon": 78.4613931}, {"type": "node", "id": 2461453430, "lat": 17.4378487, "lon": 78.461118}, {"type": "node", "id": 2461453431, "lat": 17.4378815, "lon": 78.4615121}, {"type": "node", "id": 2461453432, "lat": 17.4379102, "lon": 78.4612094}, {"type": "node", "id": 2461453433, "lat": 17.4379419, "lon": 78.4615426}, {"type": "node", "id": 2461453434, "lat": 17.4379828, "lon": 78.4607248}, {"type": "node", "id": 2461453435, "lat": 17.4379882, "lon": 78.4612413}, {"type": "node", "id": 2461453438, "lat": 17.4380743, "lon": 78.4612232}, {"type": "node", "id": 2461453439, "lat": 17.4380745, "lon": 78.4607615}, {"type": "node", "id": 2461453440, "lat": 17.4380967, "lon": 78.4602893}, {"type": "node", "id": 2461453443, "lat": 17.4381496, "lon": 78.4607907}, {"type": "node", "id": 2461453446, "lat": 17.4381877, "lon": 78.460306}, {"type": "node", "id": 2461453448, "lat": 17.4382096, "lon": 78.459772}, {"type": "node", "id": 2461453450, "lat": 17.4382141, "lon": 78.4607945}, {"type": "node", "id": 2461453451, "lat": 17.4382515, "lon": 78.4595427}, {"type": "node", "id": 2461453453, "lat": 17.4382645, "lon": 78.4603779}, {"type": "node", "id": 2461453455, "lat": 17.4382888, "lon": 78.4593205}, {"type": "node", "id": 2461453456, "lat": 17.4382973, "lon": 78.4597778}, {"type": "node", "id": 2461453458, "lat": 17.4383809, "lon": 78.4601717}, {"type": "node", "id": 2461453459, "lat": 17.4383859, "lon": 78.4598244}, {"type": "node", "id": 2461453460, "lat": 17.4383983, "lon": 78.4586947}, {"type": "node", "id": 2461453462, "lat": 17.4384375, "lon": 78.4595104}, {"type": "node", "id": 2461453463, "lat": 17.4384672, "lon": 78.4598596}, {"type": "node", "id": 2461453465, "lat": 17.4385127, "lon": 78.4580036}, {"type": "node", "id": 2461453466, "lat": 17.4385145, "lon": 78.4574868}, {"type": "node", "id": 2461453467, "lat": 17.4385227, "lon": 78.4595657}, {"type": "node", "id": 2461453470, "lat": 17.4385565, "lon": 78.4575385}, {"type": "node", "id": 2461453471, "lat": 17.4385584, "lon": 78.4573433}, {"type": "node", "id": 2461453472, "lat": 17.4385657, "lon": 78.4575059}, {"type": "node", "id": 2461453473, "lat": 17.4385876, "lon": 78.4576705}, {"type": "node", "id": 2461453474, "lat": 17.4386182, "lon": 78.4573611}, {"type": "node", "id": 2461453475, "lat": 17.4386186, "lon": 78.4575595}, {"type": "node", "id": 2461453476, "lat": 17.4386346, "lon": 78.4573106}, {"type": "node", "id": 2461453477, "lat": 17.4386506, "lon": 78.4580772}, {"type": "node", "id": 2461453478, "lat": 17.4386533, "lon": 78.4576954}, {"type": "node", "id": 2461453479, "lat": 17.4386825, "lon": 78.4573299}, {"type": "node", "id": 2461453480, "lat": 17.438704, "lon": 78.4583112}, {"type": "node", "id": 2461453482, "lat": 17.4387191, "lon": 78.4577213}, {"type": "node", "id": 2461453487, "lat": 17.4387423, "lon": 78.4583169}, {"type": "node", "id": 2461453489, "lat": 17.4387597, "lon": 78.457091}, {"type": "node", "id": 2461453491, "lat": 17.4387628, "lon": 78.4581948}, {"type": "node", "id": 2461453493, "lat": 17.4387679, "lon": 78.457959}, {"type": "node", "id": 2461453497, "lat": 17.4387766, "lon": 78.4581126}, {"type": "node", "id": 2461453499, "lat": 17.4387921, "lon": 78.4571021}, {"type": "node", "id": 2461453501, "lat": 17.4387939, "lon": 78.4572035}, {"type": "node", "id": 2461453503, "lat": 17.4388007, "lon": 78.4579686}, {"type": "node", "id": 2461453509, "lat": 17.4388167, "lon": 78.4582048}, {"type": "node", "id": 2461453510, "lat": 17.4388186, "lon": 78.4573949}, {"type": "node", "id": 2461453511, "lat": 17.4388305, "lon": 78.4581225}, {"type": "node", "id": 2461453516, "lat": 17.4388742, "lon": 78.4569075}, {"type": "node", "id": 2461453517, "lat": 17.4388779, "lon": 78.4572198}, {"type": "node", "id": 2461453518, "lat": 17.4389023, "lon": 78.4574071}, {"type": "node", "id": 2461453519, "lat": 17.4389053, "lon": 78.4569241}, {"type": "node", "id": 2461453521, "lat": 17.4389771, "lon": 78.4571365}, {"type": "node", "id": 2461453522, "lat": 17.4389993, "lon": 78.456927}, {"type": "node", "id": 2461453526, "lat": 17.4390343, "lon": 78.4565956}, {"type": "node", "id": 2461453528, "lat": 17.4390546, "lon": 78.4569313}, {"type": "node", "id": 2461453529, "lat": 17.4390623, "lon": 78.4566102}, {"type": "node", "id": 2461453535, "lat": 17.4392173, "lon": 78.4562622}, {"type": "node", "id": 2461453537, "lat": 17.4392413, "lon": 78.4564571}, {"type": "node", "id": 2461453538, "lat": 17.4392449, "lon": 78.456281}, {"type": "node", "id": 2461453539, "lat": 17.4392818, "lon": 78.4564842}, {"type": "node", "id": 2461524533, "lat": 17.340029, "lon": 78.5033878, "tags": {"amenity": "bus_station", "bus": "yes", "name": "TSRTC BUS STAND , MIDHANI", "public_transport": "station"}}, {"type": "node", "id": 2496720259, "lat": 17.4192552, "lon": 78.4479864, "tags": {"highway": "bus_stop", "name": "GVK One"}}, {"type": "node", "id": 2496725867, "lat": 17.4158228, "lon": 78.4489433, "tags": {"bus": "yes", "highway": "bus_stop", "name": "City Center", "public_transport": "platform"}}, {"type": "node", "id": 2528192948, "lat": 17.4328721, "lon": 78.4868199, "tags": {"name": "James Street", "public_transport": "stop_position", "railway": "stop", "ref": "2", "train": "yes"}}, {"type": "node", "id": 2528192961, "lat": 17.4356742, "lon": 78.4763981, "tags": {"name": "Sanjeevaiah Park", "public_transport": "stop_position", "railway": "stop", "ref": "2", "train": "yes"}}, {"type": "node", "id": 2528193014, "lat": 17.4562011, "lon": 78.4499241, "tags": {"internet_access": "no", "name": "Fateh Nagar", "name:ur": "\u0641\u062a\u062d \u0646\u06af\u0631", "network": "IR", "operator": "SCR", "platforms": "2", "public_transport": "station", "railway": "station", "ref": "FNB", "train": "yes", "wikidata": "Q5437396", "wikipedia": "en:Fateh Nagar railway station"}}, {"type": "node", "id": 2578026375, "lat": 17.4066792, "lon": 78.4986216, "tags": {"amenity": "bus_station", "bus": "yes", "name": "TSRTC BUS BHAVAN", "public_transport": "station"}}, {"type": "node", "id": 2578033345, "lat": 17.4112354, "lon": 78.4829745, "tags": {"highway": "bus_stop"}}, {"type": "node", "id": 2578033346, "lat": 17.4107607, "lon": 78.4764285, "tags": {"highway": "bus_stop"}}, {"type": "node", "id": 2585317337, "lat": 17.4016983, "lon": 78.56019, "tags": {"highway": "bus_stop", "name": "Uppal 'X' Road", "operator": "APSRTC Hyderabad", "shelter": "yes"}}, {"type": "node", "id": 2585318421, "lat": 17.4013224, "lon": 78.5596644, "tags": {"bus": "yes", "highway": "bus_stop", "name": "Uppal Circle", "public_transport": "platform", "shelter": "no"}}, {"type": "node", "id": 2706499729, "lat": 17.4366898, "lon": 78.4328757, "tags": {"bus": "yes", "highway": "bus_stop", "note": "This stop is not used anymore", "public_transport": "platform"}}, {"type": "node", "id": 2706868235, "lat": 17.3631643, "lon": 78.5305888}, {"type": "node", "id": 2706868237, "lat": 17.3628828, "lon": 78.5305134}, {"type": "node", "id": 2706868239, "lat": 17.3629234, "lon": 78.5303472}, {"type": "node", "id": 2708095579, "lat": 17.4084692, "lon": 78.4735778, "tags": {"highway": "bus_stop", "name": "APSRTC Pushpak", "name:te": "\u0c2a\u0c41\u0c37\u0c4d\u0c2a\u0c15\u0c4d"}}, {"type": "node", "id": 2708109161, "lat": 17.3911811, "lon": 78.5108995, "tags": {"highway": "bus_stop", "name": "Chey Number"}}, {"type": "node", "id": 2708113716, "lat": 17.3918602, "lon": 78.5107867, "tags": {"highway": "bus_stop", "name": "6 Number"}}, {"type": "node", "id": 2708229891, "lat": 17.3973693, "lon": 78.5120339, "tags": {"highway": "bus_stop", "name": "Syndicate Bank Bus Stop"}}, {"type": "node", "id": 2708238383, "lat": 17.3983884, "lon": 78.5123783, "tags": {"highway": "bus_stop", "name": "Syndicate Bank Bus Stop"}}, {"type": "node", "id": 2710816006, "lat": 17.4108441, "lon": 78.4849278, "tags": {"highway": "bus_stop", "name": "ntr stadium bus stop"}}, {"type": "node", "id": 2710944974, "lat": 17.4050023, "lon": 78.476374, "tags": {"highway": "bus_stop", "name": "hill fort", "name:te": "\u0c39\u0c3f\u0c32\u0c4d \u0c2b\u0c4b\u0c30\u0c4d\u0c1f\u0c4d"}}, {"type": "node", "id": 2710957775, "lat": 17.4005079, "lon": 78.4696684, "tags": {"bench": "yes", "highway": "bus_stop", "name": "Assembly", "shelter": "yes"}}, {"type": "node", "id": 2710974553, "lat": 17.4294982, "lon": 78.4881643, "tags": {"highway": "bus_stop", "name": "Ranigunj"}}, {"type": "node", "id": 2710978507, "lat": 17.4354446, "lon": 78.4883801, "tags": {"highway": "bus_stop", "name": "James Street, M.G. Road", "name:te": "\u0c1c\u0c47\u0c2e\u0c4d\u0c38\u0c4d \u0c38\u0c4d\u0c1f\u0c4d\u0c30\u0c40\u0c1f\u0c4d"}}, {"type": "node", "id": 2710981523, "lat": 17.430425, "lon": 78.4921823, "tags": {"highway": "bus_stop", "name": "bible house"}}, {"type": "node", "id": 2710984314, "lat": 17.4050023, "lon": 78.4769104, "tags": {"highway": "bus_stop", "name": "Basheerbagh", "name:te": "\u0c2c\u0c37\u0c40\u0c30\u0c4d \u0c2c\u0c3e\u0c17\u0c4d"}}, {"type": "node", "id": 2710989265, "lat": 17.443076, "lon": 78.4862636, "tags": {"bench": "yes", "highway": "bus_stop", "name": "Paradise", "shelter": "yes"}}, {"type": "node", "id": 2710993256, "lat": 17.440557, "lon": 78.4881924, "tags": {"bus": "yes", "highway": "bus_stop", "name": "Paradise", "name:te": "\u0c2a\u0c3e\u0c30\u0c21\u0c48\u0c1c\u0c4d", "public_transport": "platform"}}, {"type": "node", "id": 2712432879, "lat": 17.413593, "lon": 78.4609563, "tags": {"highway": "bus_stop", "name": "khairatabad"}}, {"type": "node", "id": 2712437769, "lat": 17.4038328, "lon": 78.4635019, "tags": {"internet_access": "no", "name": "Lakdi-ka-pul", "name:te": "\u0c32\u0c15\u0c4d\u0c21\u0c3f\u0c15\u0c2a\u0c42\u0c32\u0c4d", "name:ur": "\u0644\u06a9\u0691\u06cc \u06a9\u0627 \u067e\u0644", "network": "IR", "operator": "SCR", "platforms": "2", "public_transport": "station", "railway": "station", "ref": "LKPL", "train": "yes", "wikidata": "Q6474590", "wikipedia": "en:Lakdi-ka-pul railway station"}}, {"type": "node", "id": 2712439279, "lat": 17.4029577, "lon": 78.4583929, "tags": {"alt_name": "Mahavir Hospital", "highway": "bus_stop", "name": "Mahavir Hospital"}}, {"type": "node", "id": 2712621717, "lat": 17.4089749, "lon": 78.4898639, "tags": {"highway": "bus_stop", "name": "ashok nagar"}}, {"type": "node", "id": 2712702745, "lat": 17.391604, "lon": 78.5162173, "tags": {"highway": "bus_stop", "name": "amber pet"}}, {"type": "node", "id": 2715277397, "lat": 17.4084652, "lon": 78.4896646, "tags": {"highway": "bus_stop", "local_ref": "40, Sec-Koti Bus stop", "name": "Ashok Nagar"}}, {"type": "node", "id": 2715279111, "lat": 17.4126307, "lon": 78.4885557, "tags": {"highway": "bus_stop", "local_ref": "Nampally - Sec, Koti-Sec bus stop", "name": "Gandhi Nagar"}}, {"type": "node", "id": 2766428029, "lat": 17.3415227, "lon": 78.4825047, "tags": {"internet_access": "no", "name": "Huppuguda", "network": "IR", "operator": "SCR", "platforms": "2", "public_transport": "halt", "railway": "halt", "ref": "HPG", "train": "yes", "wikidata": "Q16920777", "wikipedia": "en:Huppuguda railway station"}}, {"type": "node", "id": 2766428030, "lat": 17.3600834, "lon": 78.4921942, "tags": {"internet_access": "no", "name": "Yakutpura", "name:fa": "\u06cc\u0627\u0642\u0648\u062a \u067e\u0648\u0631\u06c1", "network": "IR", "operator": "SCR", "platforms": "2", "public_transport": "halt", "railway": "halt", "ref": "YKA", "train": "yes", "wikidata": "Q16930084", "wikipedia": "en:Yakutpura railway station"}}, {"type": "node", "id": 2766428032, "lat": 17.3308285, "lon": 78.4731939}, {"type": "node", "id": 2766428035, "lat": 17.3309835, "lon": 78.4733127}, {"type": "node", "id": 2766428037, "lat": 17.3306638, "lon": 78.4731462}, {"type": "node", "id": 2766428038, "lat": 17.3335953, "lon": 78.4755928}, {"type": "node", "id": 2766428039, "lat": 17.3339636, "lon": 78.4760362}, {"type": "node", "id": 2766428041, "lat": 17.3336954, "lon": 78.4756886}, {"type": "node", "id": 2766428046, "lat": 17.3339933, "lon": 78.4759996}, {"type": "node", "id": 2766428047, "lat": 17.3337901, "lon": 78.4757827}, {"type": "node", "id": 2766428051, "lat": 17.3401656, "lon": 78.4815021}, {"type": "node", "id": 2766428052, "lat": 17.340216, "lon": 78.4814451}, {"type": "node", "id": 2766428053, "lat": 17.3404809, "lon": 78.4819824}, {"type": "node", "id": 2766428054, "lat": 17.3405265, "lon": 78.4819313}, {"type": "node", "id": 2766428055, "lat": 17.3418992, "lon": 78.4830124}, {"type": "node", "id": 2766428056, "lat": 17.3419118, "lon": 78.4829267}, {"type": "node", "id": 2766428057, "lat": 17.3421836, "lon": 78.4834926}, {"type": "node", "id": 2766428058, "lat": 17.3422434, "lon": 78.4834333}, {"type": "node", "id": 2766428060, "lat": 17.3586895, "lon": 78.4914075}, {"type": "node", "id": 2766428062, "lat": 17.3587519, "lon": 78.4915555}, {"type": "node", "id": 2766428063, "lat": 17.3587632, "lon": 78.4915193}, {"type": "node", "id": 2766428064, "lat": 17.3604232, "lon": 78.4922732}, {"type": "node", "id": 2766428065, "lat": 17.3604517, "lon": 78.4922103}, {"type": "node", "id": 2766428066, "lat": 17.3604701, "lon": 78.4921259}, {"type": "node", "id": 2766428067, "lat": 17.360557, "lon": 78.4921016}, {"type": "node", "id": 2766428069, "lat": 17.3605422, "lon": 78.4921509}, {"type": "node", "id": 2766428071, "lat": 17.3650235, "lon": 78.4910348}, {"type": "node", "id": 2766428072, "lat": 17.3650441, "lon": 78.4910746}, {"type": "node", "id": 2766428074, "lat": 17.3650489, "lon": 78.4911733}, {"type": "node", "id": 2766428075, "lat": 17.3650728, "lon": 78.4912133}, {"type": "node", "id": 2766428077, "lat": 17.3663389, "lon": 78.4902803}, {"type": "node", "id": 2766428078, "lat": 17.3663568, "lon": 78.4903339}, {"type": "node", "id": 2766428079, "lat": 17.3666256, "lon": 78.490326}, {"type": "node", "id": 2766428080, "lat": 17.3664221, "lon": 78.4904779}, {"type": "node", "id": 2766428081, "lat": 17.3668273, "lon": 78.4900867}, {"type": "node", "id": 2766428082, "lat": 17.3668408, "lon": 78.4901468}, {"type": "node", "id": 2787194458, "lat": 17.3950152, "lon": 78.4408041}, {"type": "node", "id": 2794877040, "lat": 17.4432667, "lon": 78.4821046, "tags": {"highway": "bus_stop", "name": "Anand Theatre", "operator": "APSRTC"}}, {"type": "node", "id": 2817389631, "lat": 17.3865919, "lon": 78.4398828, "tags": {"addr:city": "Hyderabad", "addr:postcode": "500028", "addr:street": "Sai Baba Temple, Gudimalkapur, Mehedipatnam", "highway": "bus_stop", "name": "Sai Baba Temple, Gudimalkapur", "shelter": "no"}}, {"type": "node", "id": 2852473282, "lat": 17.4390875, "lon": 78.4568666}, {"type": "node", "id": 2857849716, "lat": 17.3403611, "lon": 78.4815976}, {"type": "node", "id": 2857849722, "lat": 17.340778, "lon": 78.4819361}, {"type": "node", "id": 2912526828, "lat": 17.4025065, "lon": 78.5594709, "tags": {"highway": "bus_stop", "name": "Uppal Ring Road", "name:ja": "\u30ef\u30e9\u30f3\u30ac\u30eb", "network": "Uppal X road to Hanamkonda", "operator": "TSSRTC"}}, {"type": "node", "id": 3155691531, "lat": 17.4365057, "lon": 78.4339221, "tags": {"bus": "yes", "highway": "bus_stop", "name": "Yousufguda basti", "operator": "APSRTC", "public_transport": "platform", "shelter": "no"}}, {"type": "node", "id": 3155691532, "lat": 17.4367359, "lon": 78.4321998, "tags": {"bus": "yes", "highway": "bus_stop", "name": "Yousufguda Basti stop", "name:en": "Yousufguda Basti Bus Stop", "name:hi": "\u092f\u0942\u0938\u0941\u092b\u0917\u0941\u0921\u093e \u092c\u0938\u094d\u0924\u0940 \u092c\u0938 \u0938\u094d\u091f\u0949\u092a", "operator": "APSRTC", "public_transport": "platform", "shelter": "no"}}, {"type": "node", "id": 3155693783, "lat": 17.4365545, "lon": 78.4282035, "tags": {"bus": "yes", "highway": "bus_stop", "name": "Yousufguda checkpost", "operator": "APSRTC", "public_transport": "platform", "shelter": "no"}}, {"type": "node", "id": 3155693784, "lat": 17.4365604, "lon": 78.427961, "tags": {"bus": "yes", "highway": "bus_stop", "name": "Yousufguda checkpost", "name:en": "Yousufguda Checkpost Bus Stop", "operator": "APSRTC", "public_transport": "platform", "shelter": "no"}}, {"type": "node", "id": 3157201754, "lat": 17.3844647, "lon": 78.484, "tags": {"name": "Sultan Bazar", "name:te": "\u0c38\u0c41\u0c32\u0c4d\u0c24\u0c3e\u0c28\u0c4d \u0c2c\u0c1c\u0c3e\u0c30\u0c4d", "network": "Hyderabad Metro", "note": "Contributors are requested to not edit the \"network\" and the \"operator\" tags. (2023/11/08)", "operator": "Hyderabad Metro Rail Limited", "public_transport": "stop_position", "subway": "yes"}}, {"type": "node", "id": 3157569719, "lat": 17.3467185, "lon": 78.5081947, "tags": {"bus": "yes", "highway": "bus_stop", "name": "Santoshnagar", "public_transport": "platform"}}, {"type": "node", "id": 3166221993, "lat": 17.4442963, "lon": 78.4331967, "tags": {"bus": "yes", "departures_board": "yes", "highway": "bus_stop", "name": "Kalyan Nagar Jn Bustop", "network": "RTC buses", "operator": "TS RTC", "public_transport": "platform", "shelter": "yes"}}, {"type": "node", "id": 3166260338, "lat": 17.4305963, "lon": 78.4209562, "tags": {"bus": "yes", "highway": "bus_stop", "operator": "A.P.S.R.T.C", "public_transport": "platform", "shelter": "no"}}, {"type": "node", "id": 3170093993, "lat": 17.4083494, "lon": 78.4720874, "tags": {"highway": "bus_stop", "name": "Secretriat Bus Stop", "name:te": "\u0c38\u0c46\u0c15\u0c4d\u0c30\u0c1f\u0c47\u0c30\u0c3f\u0c2f\u0c1f\u0c4d \u0c2c\u0c38\u0c4d \u0c38\u0c4d\u0c1f\u0c3e\u0c2a\u0c4d"}}, {"type": "node", "id": 3170114035, "lat": 17.407482, "lon": 78.4766011, "tags": {"highway": "bus_stop", "name": "Liberty", "name:te": "\u0c32\u0c3f\u0c2c\u0c30\u0c4d\u0c1f\u0c40"}}, {"type": "node", "id": 3170114036, "lat": 17.4071019, "lon": 78.4762585, "tags": {"highway": "bus_stop", "name": "Liberty", "name:te": "\u0c32\u0c3f\u0c2c\u0c30\u0c4d\u0c1f\u0c40"}}, {"type": "node", "id": 3170114037, "lat": 17.4055586, "lon": 78.4770552, "tags": {"highway": "bus_stop", "name": "Liberty"}}, {"type": "node", "id": 3205619987, "lat": 17.377086, "lon": 78.4945657}, {"type": "node", "id": 3272863814, "lat": 17.45498, "lon": 78.4478717, "tags": {"addr:city": "Hyderabad", "addr:postcode": "500018", "addr:street": "Sanath Nagar Main Road", "amenity": "bus_station", "bus": "yes", "internet_access": "no", "name": "Sanath Nagar Bus Depot", "operator": "Government", "public_transport": "station"}}, {"type": "node", "id": 3384147270, "lat": 17.4262292, "lon": 78.4153658, "tags": {"bus": "yes", "highway": "bus_stop", "public_transport": "platform"}}, {"type": "node", "id": 3384148486, "lat": 17.427057, "lon": 78.4157649, "tags": {"bus": "yes", "highway": "bus_stop", "public_transport": "platform"}}, {"type": "node", "id": 3384155183, "lat": 17.4309126, "lon": 78.420884, "tags": {"bus": "yes", "highway": "bus_stop", "public_transport": "platform"}}, {"type": "node", "id": 3461558525, "lat": 17.4386894, "lon": 78.4584122}, {"type": "node", "id": 3461558527, "lat": 17.4386748, "lon": 78.4586041}, {"type": "node", "id": 3461620089, "lat": 17.3411392, "lon": 78.4822466}, {"type": "node", "id": 3462885678, "lat": 17.3666452, "lon": 78.4901553}, {"type": "node", "id": 3462997820, "lat": 17.4019813, "lon": 78.5112642, "tags": {"entrance": "yes"}}, {"type": "node", "id": 3463717321, "lat": 17.4384352, "lon": 78.4584847}, {"type": "node", "id": 3463720175, "lat": 17.4386841, "lon": 78.4584821}, {"type": "node", "id": 3509615301, "lat": 17.3943895, "lon": 78.434545, "tags": {"highway": "bus_stop"}}, {"type": "node", "id": 3577123913, "lat": 17.3412397, "lon": 78.482335}, {"type": "node", "id": 3612559409, "lat": 17.3764232, "lon": 78.4950585}, {"type": "node", "id": 3612573966, "lat": 17.4110069, "lon": 78.4733865, "tags": {"amenity": "ferry_terminal", "ferry": "yes", "name": "Boats to Budha Statue", "name:te": "\u0c2c\u0c41\u0c26\u0c4d\u0c27 \u0c35\u0c3f\u0c17\u0c4d\u0c30\u0c39\u0c02 \u0c15\u0c4a\u0c30\u0c15\u0c41 \u0c2c\u0c4b\u0c1f\u0c4d\u0c38\u0c4d", "public_transport": "station"}}, {"type": "node", "id": 3617324850, "lat": 17.4355888, "lon": 78.4768614}, {"type": "node", "id": 3617324856, "lat": 17.4356378, "lon": 78.4765536}, {"type": "node", "id": 3617335668, "lat": 17.4361748, "lon": 78.4750657}, {"type": "node", "id": 3617335672, "lat": 17.4362356, "lon": 78.4749366}, {"type": "node", "id": 3617335680, "lat": 17.436268, "lon": 78.474852}, {"type": "node", "id": 3617335684, "lat": 17.4363097, "lon": 78.4747606}, {"type": "node", "id": 3619319599, "lat": 17.3878883, "lon": 78.498054}, {"type": "node", "id": 3619319637, "lat": 17.3879516, "lon": 78.4980687}, {"type": "node", "id": 3619320006, "lat": 17.3881923, "lon": 78.4982828}, {"type": "node", "id": 3619320026, "lat": 17.3882257, "lon": 78.4983257}, {"type": "node", "id": 3619320098, "lat": 17.3883508, "lon": 78.4984352}, {"type": "node", "id": 3619320143, "lat": 17.3884493, "lon": 78.498518}, {"type": "node", "id": 3619320168, "lat": 17.3885293, "lon": 78.4985848}, {"type": "node", "id": 3619320194, "lat": 17.388614, "lon": 78.4986922}, {"type": "node", "id": 3619320266, "lat": 17.3888001, "lon": 78.4988747}, {"type": "node", "id": 3624506988, "lat": 17.4334975, "lon": 78.5010492}, {"type": "node", "id": 3782524808, "lat": 17.4187247, "lon": 78.5200434, "tags": {"name": "Arts College", "public_transport": "stop_position", "railway": "stop", "ref": "2", "train": "yes"}}, {"type": "node", "id": 3782524851, "lat": 17.4271792, "lon": 78.5204004}, {"type": "node", "id": 3782524857, "lat": 17.4273412, "lon": 78.5202249}, {"type": "node", "id": 3782524859, "lat": 17.4273704, "lon": 78.5203968}, {"type": "node", "id": 3782524860, "lat": 17.42748, "lon": 78.5204532}, {"type": "node", "id": 3782524865, "lat": 17.4276895, "lon": 78.5200356}, {"type": "node", "id": 3782524868, "lat": 17.4277995, "lon": 78.5200782}, {"type": "node", "id": 3782524870, "lat": 17.4278269, "lon": 78.5197837}, {"type": "node", "id": 3782524871, "lat": 17.4278378, "lon": 78.5201953}, {"type": "node", "id": 3782524873, "lat": 17.4280183, "lon": 78.5198369, "tags": {"name": "Sitafalmandi", "public_transport": "stop_position", "ref": "3", "train": "yes"}}, {"type": "node", "id": 3782524878, "lat": 17.4282338, "lon": 78.5198539}, {"type": "node", "id": 3782524881, "lat": 17.4282992, "lon": 78.5194701}, {"type": "node", "id": 3782524883, "lat": 17.4283299, "lon": 78.5195776}, {"type": "node", "id": 3782524885, "lat": 17.4283752, "lon": 78.5193366}, {"type": "node", "id": 3782525068, "lat": 17.440948, "lon": 78.5248854, "tags": {"name": "Lalaguda Gate", "public_transport": "stop_position", "railway": "stop", "train": "yes"}}, {"type": "node", "id": 3784358051, "lat": 17.3910572, "lon": 78.4672172}, {"type": "node", "id": 3784358052, "lat": 17.3911019, "lon": 78.46731}, {"type": "node", "id": 3784358053, "lat": 17.3911063, "lon": 78.4672274}, {"type": "node", "id": 3784358054, "lat": 17.3910419, "lon": 78.4673852}, {"type": "node", "id": 3784358055, "lat": 17.3910834, "lon": 78.4674573}, {"type": "node", "id": 3784358056, "lat": 17.3911727, "lon": 78.4671332}, {"type": "node", "id": 3784388057, "lat": 17.3911786, "lon": 78.4670413}, {"type": "node", "id": 3784388058, "lat": 17.3912039, "lon": 78.4670444}, {"type": "node", "id": 3784388059, "lat": 17.391211, "lon": 78.4669516}, {"type": "node", "id": 3784388062, "lat": 17.3913489, "lon": 78.4674057}, {"type": "node", "id": 3784388063, "lat": 17.3913503, "lon": 78.4673888}, {"type": "node", "id": 3784388065, "lat": 17.3929998, "lon": 78.4678142}, {"type": "node", "id": 3784388066, "lat": 17.3931034, "lon": 78.4676369}, {"type": "node", "id": 3784388067, "lat": 17.3931064, "lon": 78.4675637}, {"type": "node", "id": 3784388068, "lat": 17.3931429, "lon": 78.4678252}, {"type": "node", "id": 3784388069, "lat": 17.3931475, "lon": 78.4677732}, {"type": "node", "id": 3784388072, "lat": 17.3944685, "lon": 78.4678419}, {"type": "node", "id": 3784388074, "lat": 17.3947315, "lon": 78.4678496}, {"type": "node", "id": 3784388076, "lat": 17.3949573, "lon": 78.4678699}, {"type": "node", "id": 3784388078, "lat": 17.3950322, "lon": 78.4676899}, {"type": "node", "id": 3784388079, "lat": 17.3950541, "lon": 78.4676018}, {"type": "node", "id": 3784388081, "lat": 17.3951521, "lon": 78.4675178}, {"type": "node", "id": 3784388084, "lat": 17.3952848, "lon": 78.4677646}, {"type": "node", "id": 3784388087, "lat": 17.3954113, "lon": 78.4676228}, {"type": "node", "id": 3784388089, "lat": 17.3954155, "lon": 78.4677148}, {"type": "node", "id": 3784388091, "lat": 17.3954715, "lon": 78.4679174}, {"type": "node", "id": 3784388092, "lat": 17.3955047, "lon": 78.4678798}, {"type": "node", "id": 3784388093, "lat": 17.3955181, "lon": 78.4677817}, {"type": "node", "id": 3784388095, "lat": 17.3956522, "lon": 78.4679295}, {"type": "node", "id": 3784388097, "lat": 17.3956964, "lon": 78.4677148}, {"type": "node", "id": 3784388098, "lat": 17.3957013, "lon": 78.4676294}, {"type": "node", "id": 3784388099, "lat": 17.3957276, "lon": 78.4678861}, {"type": "node", "id": 3784388101, "lat": 17.3957439, "lon": 78.4677833}, {"type": "node", "id": 3784388102, "lat": 17.3958088, "lon": 78.4679284}, {"type": "node", "id": 3784388104, "lat": 17.3959326, "lon": 78.4678798}, {"type": "node", "id": 3784388105, "lat": 17.3959674, "lon": 78.4679218}, {"type": "node", "id": 3784388108, "lat": 17.3962424, "lon": 78.4676349}, {"type": "node", "id": 3784388109, "lat": 17.3962343, "lon": 78.467613}, {"type": "node", "id": 3784388113, "lat": 17.3961702, "lon": 78.4678954}, {"type": "node", "id": 3784388116, "lat": 17.3961997, "lon": 78.4678491}, {"type": "node", "id": 3784388122, "lat": 17.3962626, "lon": 78.4677108}, {"type": "node", "id": 3784388123, "lat": 17.3962794, "lon": 78.4677575}, {"type": "node", "id": 3784388124, "lat": 17.3963037, "lon": 78.4678348}, {"type": "node", "id": 3784388125, "lat": 17.3963121, "lon": 78.4678646}, {"type": "node", "id": 3784388166, "lat": 17.4047517, "lon": 78.4626985, "tags": {"name": "Lakdi-ka-pul", "public_transport": "stop_position", "railway": "stop", "ref": "2", "train": "yes"}}, {"type": "node", "id": 3784388178, "lat": 17.4126302, "lon": 78.4611515}, {"type": "node", "id": 3784388179, "lat": 17.4126356, "lon": 78.4612541}, {"type": "node", "id": 3784388181, "lat": 17.4138788, "lon": 78.4611376}, {"type": "node", "id": 3784388182, "lat": 17.4143648, "lon": 78.4611234}, {"type": "node", "id": 3784388183, "lat": 17.414354, "lon": 78.4609557}, {"type": "node", "id": 3784388184, "lat": 17.4143528, "lon": 78.4609816, "tags": {"name": "Khairatabad", "name:te": "\u0c16\u0c48\u0c30\u0c24\u0c3e\u0c2c\u0c3e\u0c26\u0c4d", "public_transport": "stop_position", "railway": "stop", "ref": "2", "train": "yes"}}, {"type": "node", "id": 3784388185, "lat": 17.4143598, "lon": 78.4610957, "tags": {"name": "Khairatabad", "name:te": "\u0c16\u0c48\u0c30\u0c24\u0c3e\u0c2c\u0c3e\u0c26\u0c4d", "public_transport": "stop_position", "railway": "stop", "ref": "1", "train": "yes"}}, {"type": "node", "id": 3784388186, "lat": 17.4147428, "lon": 78.4611274}, {"type": "node", "id": 3784388188, "lat": 17.4147511, "lon": 78.4609363}, {"type": "node", "id": 3784388189, "lat": 17.41507, "lon": 78.4611363}, {"type": "node", "id": 3784388190, "lat": 17.4151599, "lon": 78.4609531},