{"version": 0.6, "generator": "Overpass API 0.7.62.8 e802775f", "osm3s": {"timestamp_osm_base": "2026-01-13T07:30:01Z", "copyright": "The data included in this document is from www.openstreetmap.org. The data is made available under ODbL."}, "elements": [{"type": "node", "id": 668708218, "lat": 19.1303926, "lon": 72.9148355}, {"type": "node", "id": 1174929416, "lat": 19.1597156, "lon": 72.8399209, "tags": {"addr:district": "Mumbai", "addr:full": "Siddarth Municipal General Hospital, Opp Motilal Nagar Post Office, Goregaon (W), Mumbai", "addr:postcode": "400104", "addr:state": "Maharashtra", "amenity": "hospital", "description": "Civil Hospital/General Hospital", "emergency": "yes", "healthcare": "hospital", "name": "Siddarth Municipal Hospital", "operator": "BMC", "operator:type": "government", "source": "OpenGovernmentData"}}, {"type": "node", "id": 1347550460, "lat": 19.1106501, "lon": 72.8483274, "tags": {"amenity": "hospital", "healthcare": "hospital", "name": "Jevan Vikas Hospital"}}, {"type": "node", "id": 1575266020, "lat": 19.1031903, "lon": 72.8470399}, {"type": "node", "id": 1575266022, "lat": 19.1033044, "lon": 72.8470264}, {"type": "node", "id": 1575266023, "lat": 19.1031718, "lon": 72.8469488}, {"type": "node", "id": 1575266025, "lat": 19.1032884, "lon": 72.8469193}, {"type": "node", "id": 1640244309, "lat": 19.0962884, "lon": 72.8483799, "tags": {"addr:city": "Mumbai", "addr:district": "Maharashtra", "addr:housenumber": "KIRIT NURSING HOME, Pushpa Ganga Soc, Subhash Rd", "addr:postcode": "400057", "addr:street": "opp Sai Mandir Marg, Navpada, Vile Parle E", "amenity": "hospital", "contact:facebook": "https://www.facebook.com/drmaitreyeeparulekar/", "email": "parulekardrmaitreyee@gmail.com", "healthcare": "hospital", "healthcare:speciality": "gynaecology;oncology", "image": "https://drmaitreyeegynec.in/wp-content/uploads/2025/03/gallery1.webp", "mobile": "7208727500", "name": "Dr Maitreyee Parulekar", "opening_hours": "24/7", "payment:cash": "yes", "payment:contactless": "yes", "payment:credit_cards": "yes", "payment:debit_cards": "yes", "payment:google_pay": "yes", "website": "https://drmaitreyeegynec.in/"}}, {"type": "node", "id": 1651803187, "lat": 19.1271055, "lon": 72.8671707}, {"type": "node", "id": 1651803188, "lat": 19.127677, "lon": 72.8661176}, {"type": "node", "id": 1651803189, "lat": 19.1278745, "lon": 72.8674306}, {"type": "node", "id": 1651803190, "lat": 19.1282761, "lon": 72.8648913}, {"type": "node", "id": 1651803191, "lat": 19.1286564, "lon": 72.8675195}, {"type": "node", "id": 1651803192, "lat": 19.1295546, "lon": 72.8657412}, {"type": "node", "id": 1673075405, "lat": 19.0771611, "lon": 72.8581228}, {"type": "node", "id": 1673075406, "lat": 19.077113, "lon": 72.858442}, {"type": "node", "id": 1673075407, "lat": 19.0771308, "lon": 72.8587343}, {"type": "node", "id": 1673075408, "lat": 19.0770217, "lon": 72.8583214}, {"type": "node", "id": 1673075409, "lat": 19.0768494, "lon": 72.8584421}, {"type": "node", "id": 1673075410, "lat": 19.0771028, "lon": 72.8582462}, {"type": "node", "id": 1673075411, "lat": 19.0769424, "lon": 72.8588056}, {"type": "node", "id": 1673075412, "lat": 19.0770571, "lon": 72.8582757}, {"type": "node", "id": 1673075413, "lat": 19.0769119, "lon": 72.8585669}, {"type": "node", "id": 1673075414, "lat": 19.077216, "lon": 72.8581511}, {"type": "node", "id": 1673075415, "lat": 19.0770394, "lon": 72.8582032}, {"type": "node", "id": 1673075416, "lat": 19.0771129, "lon": 72.8583132}, {"type": "node", "id": 1787854399, "lat": 19.116234, "lon": 72.8339632, "tags": {"addr:district": "Mumbai", "addr:full": "25, Gulmohar Park Gulmohar Road, Juhu Scheme Vile Parle - West", "addr:housenumber": "25", "addr:postcode": "400049", "addr:state": "Maharashtra", "addr:street": "Gulmohar Road", "amenity": "hospital", "emergency": "yes", "healthcare": "hospital", "name": "Sujay Hospital", "opening_hours": "24/7", "source": "OpenGovernmentData"}}, {"type": "node", "id": 1855812192, "lat": 19.1246531, "lon": 72.9172844, "tags": {"amenity": "hospital", "emergency": "no", "name": "Powai Dental Clinic"}}, {"type": "node", "id": 1855812194, "lat": 19.124088, "lon": 72.9164511, "tags": {"addr:district": "Mumbai Suburban", "addr:full": "1-A, BSNL Colony, Powai, Mumbai", "addr:postcode": "400076", "addr:state": "Maharastra", "amenity": "hospital", "name": "Powai Hospital", "source": "Local Knowledge"}}, {"type": "node", "id": 2663447657, "lat": 19.0758981, "lon": 72.8856074}, {"type": "node", "id": 2663447659, "lat": 19.0764767, "lon": 72.8863946}, {"type": "node", "id": 3205777384, "lat": 19.0924663, "lon": 72.9121731, "tags": {"amenity": "hospital", "name": "nidan hospital"}}, {"type": "node", "id": 3403264488, "lat": 19.1068191, "lon": 72.8507443, "tags": {"addr:city": "Mumbai", "addr:housenumber": "krishna alankar", "addr:postcode": "400057", "addr:street": "Tejpal Scheme Road 5", "amenity": "hospital", "emergency": "yes", "healthcare": "hospital", "name": "gr8 smile dental clinic", "note": "Dentist", "operator": "dr. jitha marakarkandy", "phone": "+91 22 2684 2451"}}, {"type": "node", "id": 3529547303, "lat": 19.0897614, "lon": 72.9049996, "tags": {"addr:city": "mumbai", "addr:street": "R B Kadam Road", "amenity": "hospital", "name": "new life hospital"}}, {"type": "node", "id": 3532038985, "lat": 19.0946018, "lon": 72.9032913, "tags": {"addr:city": "mumbai", "amenity": "hospital", "name": "muktabai hospital"}}, {"type": "node", "id": 3546099443, "lat": 19.103538, "lon": 72.927049}, {"type": "node", "id": 3589059585, "lat": 19.1199252, "lon": 72.9169426}, {"type": "node", "id": 3589059586, "lat": 19.1194659, "lon": 72.9165097}, {"type": "node", "id": 3589059589, "lat": 19.1203754, "lon": 72.916834}, {"type": "node", "id": 3589059590, "lat": 19.120384, "lon": 72.9173107}, {"type": "node", "id": 3589059693, "lat": 19.1205569, "lon": 72.9169067}, {"type": "node", "id": 3589059694, "lat": 19.1207223, "lon": 72.9175821}, {"type": "node", "id": 3589059695, "lat": 19.1209386, "lon": 72.9175925}, {"type": "node", "id": 3589059696, "lat": 19.1210592, "lon": 72.9172368}, {"type": "node", "id": 3589399303, "lat": 19.0809415, "lon": 72.8820782}, {"type": "node", "id": 3589399323, "lat": 19.0809784, "lon": 72.8818558}, {"type": "node", "id": 3589399326, "lat": 19.0811378, "lon": 72.8818513}, {"type": "node", "id": 3589399327, "lat": 19.0811435, "lon": 72.8820724}, {"type": "node", "id": 3589607622, "lat": 19.0833696, "lon": 72.8396091}, {"type": "node", "id": 3589607625, "lat": 19.0834084, "lon": 72.8393662}, {"type": "node", "id": 3589607628, "lat": 19.0834806, "lon": 72.8396289}, {"type": "node", "id": 3589607630, "lat": 19.0835193, "lon": 72.839386}, {"type": "node", "id": 3591988751, "lat": 19.0797777, "lon": 72.8401094}, {"type": "node", "id": 3591988753, "lat": 19.0797871, "lon": 72.8402171}, {"type": "node", "id": 3591988758, "lat": 19.0798166, "lon": 72.8402035}, {"type": "node", "id": 3591988762, "lat": 19.0798445, "lon": 72.8403563}, {"type": "node", "id": 3591988763, "lat": 19.0798478, "lon": 72.8400771}, {"type": "node", "id": 3591988766, "lat": 19.0798602, "lon": 72.8401071}, {"type": "node", "id": 3591988786, "lat": 19.0799358, "lon": 72.8400723}, {"type": "node", "id": 3591988795, "lat": 19.0800196, "lon": 72.8402754}, {"type": "node", "id": 3597683636, "lat": 19.0782728, "lon": 72.8547927}, {"type": "node", "id": 3597683640, "lat": 19.0783736, "lon": 72.8552629}, {"type": "node", "id": 3597683642, "lat": 19.0783899, "lon": 72.8548691}, {"type": "node", "id": 3597683646, "lat": 19.0784475, "lon": 72.8551514}, {"type": "node", "id": 3597683650, "lat": 19.0784578, "lon": 72.8547499}, {"type": "node", "id": 3597683653, "lat": 19.0785166, "lon": 72.8551171}, {"type": "node", "id": 3597683655, "lat": 19.0784864, "lon": 72.8548657}, {"type": "node", "id": 3597683659, "lat": 19.0785482, "lon": 72.8551813}, {"type": "node", "id": 3619454151, "lat": 19.1205853, "lon": 72.8794505}, {"type": "node", "id": 3619454153, "lat": 19.1205859, "lon": 72.8793732}, {"type": "node", "id": 3619454171, "lat": 19.1207484, "lon": 72.8794521}, {"type": "node", "id": 3619454172, "lat": 19.1207491, "lon": 72.8793747}, {"type": "node", "id": 3619454221, "lat": 19.1212894, "lon": 72.8794014}, {"type": "node", "id": 3619454222, "lat": 19.1212951, "lon": 72.8795619}, {"type": "node", "id": 3619454231, "lat": 19.1213876, "lon": 72.8793975}, {"type": "node", "id": 3619454234, "lat": 19.1213933, "lon": 72.879558}, {"type": "node", "id": 3951526714, "lat": 19.0959684, "lon": 72.8400115, "tags": {"addr:district": "Mumbai", "addr:full": "S V Road , Vile Parle", "addr:postcode": "400056", "addr:state": "Maharashtra", "addr:street": "Swami Vivekanand Road", "amenity": "hospital", "contact:phone": "2226267500", "email": "info@nanavatihospital.org", "healthcare": "hospital", "name": "Nanavati Hospital, Mumbai", "opening_hours": "24/7", "operator:type": "government", "source": "OpenGovernmentData", "website": "https://www.nanavatihospital.org/", "wikidata": "Q6962443", "wikipedia": "en:Nanavati hospital"}}, {"type": "node", "id": 3951538079, "lat": 19.0857296, "lon": 72.8377345, "tags": {"amenity": "hospital", "name": "Surya Mother And Child Speciality Hospital"}}, {"type": "node", "id": 3951538080, "lat": 19.0855132, "lon": 72.837945, "tags": {"addr:district": "Mumbai", "addr:full": "101/102 Mangal Ashirwad, June S.V. Road & Dattatray Road, T.P.S. Ii Santacruz (W)", "addr:postcode": "400054", "addr:state": "Maharashtra", "amenity": "hospital", "name": "Surya Childrens Hospital", "source": "OpenGovernmentData"}}, {"type": "node", "id": 3979081599, "lat": 19.1140839, "lon": 72.8417197, "tags": {"addr:district": "Mumbai", "addr:full": "2-A,Manubharti Chs,Azad Lane,S V Road,Andheri", "addr:postcode": "400059", "addr:state": "Maharashtra", "amenity": "hospital", "name": "Nutan Mammography and Sonography Centre", "source": "OpenGovernmentData"}}, {"type": "node", "id": 4216741290, "lat": 19.111503, "lon": 72.8723931, "tags": {"amenity": "hospital", "check_date": "2025-11-09", "healthcare": "hospital", "name": "Mukund Hospital"}}, {"type": "node", "id": 4326473789, "lat": 19.09722, "lon": 72.888041, "tags": {"addr:city": "mumbai", "addr:district": "maharastra", "amenity": "hospital", "healthcare": "hospital", "healthcare:speciality": "physiotherapy", "name": "Tiwari Hospital", "name:en": "Tiwari Hospital"}}, {"type": "node", "id": 4344894369, "lat": 19.1031857, "lon": 72.9278858}, {"type": "node", "id": 4344894373, "lat": 19.1033428, "lon": 72.9285564}, {"type": "node", "id": 4344894376, "lat": 19.1036292, "lon": 72.928095}, {"type": "node", "id": 4344894379, "lat": 19.1038244, "lon": 72.92872}, {"type": "node", "id": 4344894381, "lat": 19.1041108, "lon": 72.9280709}, {"type": "node", "id": 4344894382, "lat": 19.1043617, "lon": 72.9279126}, {"type": "node", "id": 4344894386, "lat": 19.1046455, "lon": 72.9275291}, {"type": "node", "id": 4344894387, "lat": 19.1046684, "lon": 72.9280038}, {"type": "node", "id": 4344894389, "lat": 19.1048204, "lon": 72.9280253}, {"type": "node", "id": 4344894390, "lat": 19.1049319, "lon": 72.9276149}, {"type": "node", "id": 4344894392, "lat": 19.1050029, "lon": 72.9279743}, {"type": "node", "id": 4344894394, "lat": 19.1050739, "lon": 72.9278912}, {"type": "node", "id": 4344894395, "lat": 19.1051372, "lon": 72.9276337}, {"type": "node", "id": 4996322798, "lat": 19.0815079, "lon": 72.8831157, "tags": {"addr:city": "Mumbai", "addr:postcode": "400070", "addr:street": "father peter periera road", "amenity": "hospital", "name": "Kurla Municipal Hospital", "operator": "MCGM", "website": "https://www.mcgm.gov.in"}}, {"type": "node", "id": 5201099224, "lat": 19.1372375, "lon": 72.8366102, "tags": {"addr:street": "Hanuman Mandir road", "amenity": "hospital", "healthcare": "hospital", "name:en": "R G Stone"}}, {"type": "node", "id": 5355278561, "lat": 19.1408302, "lon": 72.8534183}, {"type": "node", "id": 5355278562, "lat": 19.1411038, "lon": 72.8529516}, {"type": "node", "id": 5355278563, "lat": 19.1412305, "lon": 72.8529543}, {"type": "node", "id": 5355278564, "lat": 19.1412381, "lon": 72.8543892}, {"type": "node", "id": 5355278565, "lat": 19.1408226, "lon": 72.8542042}, {"type": "node", "id": 5355278566, "lat": 19.1406307, "lon": 72.8539752}, {"type": "node", "id": 5456874526, "lat": 19.0938333, "lon": 72.898646, "tags": {"amenity": "hospital", "name:en": "Disha Hospital"}}, {"type": "node", "id": 5496408819, "lat": 19.1172198, "lon": 72.882342, "tags": {"addr:city": "Mumbai", "addr:postcode": "400059", "amenity": "hospital", "healthcare": "hospital", "name": "Marol"}}, {"type": "node", "id": 5882322896, "lat": 19.1311225, "lon": 72.9136446}, {"type": "node", "id": 5937631031, "lat": 19.1467138, "lon": 72.8749806}, {"type": "node", "id": 5937631032, "lat": 19.147175, "lon": 72.8749913}, {"type": "node", "id": 5937631033, "lat": 19.1476463, "lon": 72.8752166}, {"type": "node", "id": 5937631034, "lat": 19.1480466, "lon": 72.8755116}, {"type": "node", "id": 5937631035, "lat": 19.1483406, "lon": 72.8758603}, {"type": "node", "id": 5937631036, "lat": 19.1484977, "lon": 72.8764021}, {"type": "node", "id": 5937631037, "lat": 19.1464909, "lon": 72.8768849}, {"type": "node", "id": 5937631038, "lat": 19.1464655, "lon": 72.8750342}, {"type": "node", "id": 6322310753, "lat": 19.0763785, "lon": 72.9054696, "tags": {"amenity": "hospital", "healthcare": "hospital", "name": "Ashirvaad Heart Hospital", "operator": "Dr Bhaskar Shah"}}, {"type": "node", "id": 6784511276, "lat": 19.130907, "lon": 72.913653, "tags": {"access": "private", "barrier": "gate"}}, {"type": "node", "id": 6784511279, "lat": 19.13113, "lon": 72.913776}, {"type": "node", "id": 6784511280, "lat": 19.130499, "lon": 72.9137117}, {"type": "node", "id": 6784511281, "lat": 19.1304357, "lon": 72.9137331}, {"type": "node", "id": 6784511282, "lat": 19.1304027, "lon": 72.9138431}, {"type": "node", "id": 6784511283, "lat": 19.1303597, "lon": 72.913878}, {"type": "node", "id": 6784511284, "lat": 19.1311503, "lon": 72.9147899}, {"type": "node", "id": 6795512985, "lat": 19.1150444, "lon": 72.9073885, "tags": {"addr:street": "Central Avenue", "amenity": "hospital", "name:en": "Metropolis", "phone": "+912233993939"}}, {"type": "node", "id": 6795570585, "lat": 19.1154259, "lon": 72.9075074, "tags": {"addr:street": "Central Avenue - from Tulip to Forest Street Junction", "amenity": "hospital", "name:en": "SRL Diagnostics"}}, {"type": "node", "id": 6801919192, "lat": 19.1253722, "lon": 72.9190861, "tags": {"amenity": "hospital", "name": "Nihal Nursing Home & Opthalmologist"}}, {"type": "node", "id": 7042873531, "lat": 19.1631084, "lon": 72.8434806, "tags": {"addr:district": "Mumbai", "addr:full": "Manali Alankar Soc., M.G.Road, Goregaon(W), Opposite Raga Hotel", "addr:postcode": "400062", "addr:state": "Maharashtra", "amenity": "hospital", "name": "Kapadia Multi Speciality Hospital", "operator:type": "private", "source": "OpenGovernmentData", "website": "https://www.kapadiahospital.com/"}}, {"type": "node", "id": 7042873546, "lat": 19.155501, "lon": 72.845498, "tags": {"addr:district": "Mumbai", "addr:full": "Omyx Bldg,S V Road Next To Bses Office Goregaon - West", "addr:postcode": "400104", "addr:state": "Maharashtra", "amenity": "hospital", "name": "Pooja Hospital, Mumbai", "source": "OpenGovernmentData"}}, {"type": "node", "id": 7042999151, "lat": 19.0824458, "lon": 72.9092512, "tags": {"addr:district": "Mumbai", "addr:full": "Ghatkopar(E)", "addr:postcode": "400077", "addr:state": "Maharashtra", "amenity": "hospital", "name": "Vatsal Nicu and Childrens Hospital", "source": "OpenGovernmentData"}}, {"type": "node", "id": 7043174029, "lat": 19.1181601, "lon": 72.844288, "tags": {"addr:district": "Mumbai", "addr:full": "11, GangaVihar Residency, 174 S.V.Road", "addr:postcode": "400058", "addr:state": "Maharashtra", "amenity": "hospital", "email": "drsamir@gynaecexpert.com", "healthcare": "hospital", "name": "Sangita Maternity Surgical and Diagnostic Centre", "operator:type": "private", "source": "OpenGovernmentData", "website": "https://gynaecexpert.com/"}}, {"type": "node", "id": 7043182324, "lat": 19.0803279, "lon": 72.8421846, "tags": {"addr:district": "Mumbai", "addr:full": "Qureshi House, 6Th Nehru Road,Near Santacruz Railway Station, Santacruz (East)", "addr:postcode": "400055", "addr:state": "Maharashtra", "amenity": "hospital", "healthcare": "hospital", "name": "R. K. Hospital, Mumbai", "source": "OpenGovernmentData"}}, {"type": "node", "id": 7043230046, "lat": 19.1284312, "lon": 72.8468965, "tags": {"addr:district": "Mumbai", "addr:full": "202, Bonaza Residency, Behind : Laxmi Auto S V Road, Amboli", "addr:postcode": "400058", "addr:state": "Maharashtra", "amenity": "hospital", "healthcare": "hospital", "healthcare:speciality": "chiropractic", "name": "Prime Orthopedic Speciality Hospital, Mumbai", "operator": "abv", "operator:type": "public", "source": "OpenGovernmentData"}}, {"type": "node", "id": 7043348148, "lat": 19.0797908, "lon": 72.8427047, "tags": {"addr:district": "Mumbai", "addr:full": "Shri Sadashiv Chs, 6Th Road, Santacruz(E)", "addr:postcode": "400055", "addr:state": "Maharashtra", "amenity": "hospital", "healthcare": "hospital", "name": "Nandan Maternity and Surgical Home", "source": "OpenGovernmentData"}}, {"type": "node", "id": 7043376493, "lat": 19.0784905, "lon": 72.8380749, "tags": {"addr:district": "Mumbai", "addr:full": "101, Kirti Manor, S V Road, Phiroz Dastoor & Sons, Santacruz West", "addr:postcode": "400054", "addr:state": "Maharashtra", "amenity": "hospital", "healthcare": "hospital", "name": "Mumbai Retina Centre", "source": "OpenGovernmentData"}}, {"type": "node", "id": 7043388690, "lat": 19.0879436, "lon": 72.8376687, "tags": {"addr:district": "Mumbai", "addr:full": "G-6, Chirag Housing Society, B-1, S.V.Road, Santacruz(W)", "addr:postcode": "400054", "addr:state": "Maharashtra", "amenity": "hospital", "name": "Malpani Eye Hospital and Laser Centre", "source": "OpenGovernmentData"}}, {"type": "node", "id": 7043397403, "lat": 19.1242045, "lon": 72.8906147, "tags": {"addr:district": "Mumbai", "addr:full": "Lake Bloom - 16, 17, 18, Opposite Solaris Estate, L.T. Gate No.6, Tunga Gaon, Sakivihar Road, Powai", "addr:postcode": "400072", "addr:state": "Maharashtra", "amenity": "hospital", "name": "S B Nursing Home and Icu", "source": "OpenGovernmentData"}}, {"type": "node", "id": 7043397404, "lat": 19.1254925, "lon": 72.9181845, "tags": {"addr:district": "Mumbai", "addr:full": "1st Floor, Paradise,Jain Mandir Road, I.I.T Market, Powai", "addr:postcode": "400076", "addr:state": "Maharashtra", "amenity": "hospital", "name": "Sri Sai Eye Care Centre", "source": "OpenGovernmentData"}}, {"type": "node", "id": 7043397894, "lat": 19.089509, "lon": 72.8385763, "tags": {"addr:district": "Mumbai", "addr:full": "102 D Wing Rizvi Nagar 1 St Floor S.V.Road Milan , , Corner Santacruz", "addr:postcode": "400054", "addr:state": "Maharashtra", "amenity": "hospital", "name": "Kenias Eye Hospital", "source": "OpenGovernmentData"}}, {"type": "node", "id": 7043397906, "lat": 19.1129534, "lon": 72.8379245, "tags": {"addr:district": "Mumbai", "addr:full": "B201, Dhruv, OppositeGagandeep, Main Road, Juhu, Vile Parle (West)", "addr:postcode": "400056", "addr:state": "Maharashtra", "amenity": "hospital", "email": "info@lasersformedicine.com", "name": "Centre For Sight, Juhu", "operator:type": "private", "source": "OpenGovernmentData", "website": "https://www.centreforsight.net/"}}, {"type": "node", "id": 7043693171, "lat": 19.0878158, "lon": 72.9069324, "tags": {"addr:district": "Mumbai", "addr:full": "203- A, 205, Trimurti Arcade, Near Sarvodya Hospital, L.B.S.Marg, Ghatkopar(W)", "addr:postcode": "400086", "addr:state": "Maharashtra", "amenity": "hospital", "name": "Noble Hospital, Ghatkopar", "source": "OpenGovernmentData"}}, {"type": "node", "id": 7043769618, "lat": 19.0824573, "lon": 72.9092287, "tags": {"addr:district": "Mumbai", "addr:full": "501, Vishal Building, Above Subhiksha, Junction Of Hingwala Lane & 60 Feet Road,Ghatkopar East", "addr:postcode": "400077", "addr:state": "Maharashtra", "amenity": "hospital", "name": "Excel Ent Hospital", "source": "OpenGovernmentData"}}, {"type": "node", "id": 7043778826, "lat": 19.1013222, "lon": 72.8484596, "tags": {"addr:city": "mumbai", "addr:district": "Mumbai", "addr:full": "# 102/6, Purshottam Niwas,1st Floor, Park Road, Vile Parle (E)", "addr:postcode": "400057", "addr:state": "Maharashtra", "addr:street": "Prarthana Samaj Road", "amenity": "hospital", "healthcare": "hospital", "healthcare:speciality": "ophthalmology", "name": "Parle Eye Hospital", "opening_hours": "24/7", "source": "OpenGovernmentData"}}, {"type": "node", "id": 7044344099, "lat": 19.1111299, "lon": 72.8721267, "tags": {"addr:district": "Mumbai", "addr:full": "Mukund Nagar Co-Opp Hsg Andheri Kurla Road Andheri (E)", "addr:postcode": "400059", "addr:state": "Maharashtra", "amenity": "hospital", "check_date": "2025-11-09", "healthcare": "hospital", "name": "Mukund Maternity and Surgical Nursing Home", "source": "OpenGovernmentData"}}, {"type": "node", "id": 7044669600, "lat": 19.0757589, "lon": 72.9030552, "tags": {"addr:district": "Mumbai", "addr:full": "C-5, Satyam Shopping Centre, 1st Flr, M.G. Road, Ghatkopar (E)", "addr:postcode": "400077", "addr:state": "Maharashtra", "amenity": "hospital", "name": "Tara Neo Surg Hospital", "source": "OpenGovernmentData"}}, {"type": "node", "id": 7044692216, "lat": 19.0793026, "lon": 72.902154, "tags": {"addr:district": "Mumbai", "addr:full": "201,Punit Plaza , Second Floor , Next To Rajawadi Post Office , Rajawadi , Ghatkopar ( East )", "addr:postcode": "400077", "addr:state": "Maharashtra", "amenity": "hospital", "name": "The Eye Super Specialities", "source": "OpenGovernmentData"}}, {"type": "node", "id": 7044745238, "lat": 19.0791531, "lon": 72.9039431, "tags": {"addr:district": "Mumbai", "addr:full": "Jayant Arcade, Ist Floor, 140-142, M.G. Road, Ghatkopar(E)", "addr:postcode": "400077", "addr:state": "Maharashtra", "amenity": "hospital", "name": "Advanced Orthopaedic and Super Speciality Center", "source": "OpenGovernmentData"}}, {"type": "node", "id": 7044829632, "lat": 19.0829325, "lon": 72.8819436, "tags": {"addr:district": "Mumbai", "addr:full": "Pratap Nagar, Housing Society, A-Wing, 1st Floor, L.B.S. Marg, Kurla West", "addr:postcode": "400070", "addr:state": "Maharashtra", "amenity": "hospital", "healthcare": "hospital", "name": "Sushila Hospital-Icu and Maternity", "source": "OpenGovernmentData"}}, {"type": "node", "id": 7046326222, "lat": 19.0972827, "lon": 72.8493802, "tags": {"addr:district": "Mumbai", "addr:full": "Vimal Apartment, Nehru Road, No.9, 10, 11, Near Municipal Office, Vile Parle East", "addr:postcode": "400057", "addr:state": "Maharashtra", "amenity": "hospital", "name": "Navjivan Maternity and Surgical Nursing Home", "source": "OpenGovernmentData"}}, {"type": "node", "id": 7047430578, "lat": 19.0758488, "lon": 72.8608239, "tags": {"addr:district": "Mumbai", "addr:full": "C.S.T. Road, Next To Sundar Nagar,M Kalina, Santacruz(E)", "addr:postcode": "400098", "addr:state": "Maharashtra", "amenity": "hospital", "name": "Durga Maternity and Surgical Nursing Home", "source": "OpenGovernmentData"}}, {"type": "node", "id": 7047542514, "lat": 19.0858653, "lon": 72.9053056, "tags": {"addr:district": "Mumbai", "addr:full": "3Road Floor, M G Road , Near Bank Of India, Ghatkopar West", "addr:postcode": "400086", "addr:state": "Maharashtra", "amenity": "hospital", "name": "Vatsalya Maternity and Surgical Nursing Home", "source": "OpenGovernmentData"}}, {"type": "node", "id": 7047553990, "lat": 19.0844927, "lon": 72.9048134, "tags": {"addr:district": "Mumbai", "addr:full": "Nilkanth Shopping Centre Corner Cama Lane , Ghatkopar, West Mumbai", "addr:postcode": "400001", "addr:state": "Maharashtra", "amenity": "hospital", "name": "Shreeji Hospital, Ghatkopar", "source": "OpenGovernmentData"}}, {"type": "node", "id": 7048261227, "lat": 19.1006777, "lon": 72.8907222, "tags": {"addr:district": "Mumbai", "addr:full": "4 Durgashram, Sakinaka-Asalpha Link Road, , Sakinaka, Besides Peninsula Hotel, Sakinaka", "addr:postcode": "400059", "addr:state": "Maharashtra", "amenity": "hospital", "name": "Priyanka Maternity and Surgical Nursing Home", "source": "OpenGovernmentData"}}, {"type": "node", "id": 7048433662, "lat": 19.0940612, "lon": 72.9000364, "tags": {"addr:district": "Mumbai", "addr:full": "101-102-103, Sai Darshan Co-Opp Soc Asaifa, Bhattwadi Ghatkopar - West", "addr:postcode": "400084", "addr:state": "Maharashtra", "amenity": "hospital", "name": "Vivek Maternity and Nursing Home", "source": "OpenGovernmentData"}}, {"type": "node", "id": 7048433674, "lat": 19.127861, "lon": 72.8333795, "tags": {"addr:district": "Mumbai", "addr:full": "Andheri Mumbai", "addr:postcode": "400005", "addr:state": "Maharashtra", "amenity": "hospital", "bench": "yes", "bus": "yes", "highway": "bus_stop", "name": "Sujata Medicare (Sujata Gyanaecology Clinic);Dhake Colony", "name:hi": "\u0927\u093e\u0915\u0947 \u0915\u094c\u0932\u0928\u0940", "public_transport": "platform", "shelter": "yes", "source": "OpenGovernmentData"}}, {"type": "node", "id": 7048872963, "lat": 19.0878791, "lon": 72.9023337, "tags": {"addr:district": "Mumbai", "addr:full": "Vikram Apartments , G Wing, New Maniklal Estate, L B Marg, Ghakopar (West)", "addr:postcode": "400086", "addr:state": "Maharashtra", "amenity": "hospital", "name": "Shree Sukh Shanti Hospital", "source": "OpenGovernmentData"}}, {"type": "node", "id": 7048966028, "lat": 19.0799959, "lon": 72.9043213, "tags": {"addr:district": "Mumbai", "addr:full": "C-23, 2nd Floor, Satyam Shopping Centre, M.G. Road", "addr:postcode": "400077", "addr:state": "Maharashtra", "amenity": "hospital", "name": "Saraswati Eye Hospital, Mumbai", "source": "OpenGovernmentData"}}, {"type": "node", "id": 7049041346, "lat": 19.076179, "lon": 72.9056409, "tags": {"addr:city": "Mumbai", "addr:district": "Mumbai", "addr:full": "# 1, Vivek - 67, Tilak Road, Ghatkopar (E)", "addr:postcode": "400077", "addr:state": "Maharashtra", "addr:street": "Tilak Road", "amenity": "hospital", "healthcare": "hospital", "name": "Ashirwad Heart Hospital", "source": "OpenGovernmentData"}}, {"type": "node", "id": 7049182746, "lat": 19.0926292, "lon": 72.9125141, "tags": {"addr:district": "Mumbai", "addr:full": "C Wing, 4th Floor, Bhaveshwar Plaza, L.B.S.Marg, Ghatkopar (West)", "addr:postcode": "400086", "addr:state": "Maharashtra", "amenity": "hospital", "email": "drgujars@yahoo.com", "name": "Amruta Surgical and Maternity Home", "operator:type": "private", "source": "OpenGovernmentData", "website": "http://www.amrutasurgicalandmaternityhome.com/"}}, {"type": "node", "id": 7049336179, "lat": 19.1156879, "lon": 72.8353295, "tags": {"addr:district": "Mumbai", "addr:full": "Plot No38/39, Opposite Juhu Supreme Shopping Centre, Main Gulmohar Road, Andheri (W),", "addr:postcode": "400049", "addr:state": "Maharashtra", "amenity": "hospital", "email": "info@criticarehospital.in", "name": "Criticare Multispeciality Hospital and Research Centre", "operator:type": "private", "source": "OpenGovernmentData", "website": "https://www.criticarehospital.in/"}}, {"type": "node", "id": 7049344773, "lat": 19.1433248, "lon": 72.8427203, "tags": {"addr:district": "Mumbai", "addr:full": "1st Floor, Aftab Classic, Opposite City Hospital, S.V Road, Jogeshwari(West)", "addr:postcode": "400102", "addr:state": "Maharashtra", "amenity": "hospital", "contact:phone": "2226771188", "email": "info@orbiteyehospital.in", "healthcare": "hospital", "name": "Orbit Eye Hospital, Mumbai", "operator:type": "private", "source": "OpenGovernmentData", "website": "https://orbiteyehospital.in/"}}, {"type": "node", "id": 7049454051, "lat": 19.1079061, "lon": 72.888, "tags": {"addr:district": "Mumbai", "addr:full": "1st Floor, Jalaram Commercial Centre, Next To Hotel Shiv Sagar-Ansa Industrial, Saki Vihar Road, Saki Naka, Andheri East", "addr:postcode": "400072", "addr:state": "Maharashtra", "amenity": "hospital", "name": "Balaji Speciality Hospital", "source": "OpenGovernmentData"}}, {"type": "node", "id": 7049755583, "lat": 19.1188723, "lon": 72.8433318, "tags": {"addr:district": "Mumbai", "addr:full": "Om Nikentan V P Road S V Road Behind Hotel Alpha , Andher (West)", "addr:postcode": "400001", "addr:state": "Maharashtra", "amenity": "hospital", "healthcare": "hospital", "name": "Dr Telangs Dhanvantari Hospital", "source": "OpenGovernmentData"}}, {"type": "node", "id": 7049756932, "lat": 19.1212519, "lon": 72.8799695, "tags": {"addr:district": "Mumbai", "addr:full": "H-2, Vijay Tower,Vijay Nagar,Marol Maroshi Road Andheri(E)", "addr:postcode": "400059", "addr:state": "Maharashtra", "amenity": "hospital", "name": "Dr.Pintos Pathological Laboratory", "source": "OpenGovernmentData"}}, {"type": "node", "id": 7049800769, "lat": 19.1244488, "lon": 72.8611457, "tags": {"addr:district": "Mumbai", "addr:full": "Manas, Plot No.19, Sher-E-Punjab Society, Mahakali Caves Road, Andheri East", "addr:postcode": "400093", "addr:state": "Maharashtra", "amenity": "hospital", "name": "Dr.Sakhalkar's Maternity and Nursing Home", "source": "OpenGovernmentData"}}, {"type": "node", "id": 7049803405, "lat": 19.0931817, "lon": 72.9131524, "tags": {"addr:district": "Mumbai", "addr:full": "401, Rajshree Plaza, L.B.S. Marg, Opposite Shreyas Theatre, Ghatkopar(West)", "addr:postcode": "400086", "addr:state": "Maharashtra", "amenity": "hospital", "name": "Suyog Urology Centre", "source": "OpenGovernmentData"}}, {"type": "node", "id": 7049822998, "lat": 19.1235929, "lon": 72.8423361, "tags": {"addr:district": "Mumbai", "addr:full": "110-A, Jaiprakash Road, OppositeNavrang Theatre, Andheri(W)", "addr:postcode": "400058", "addr:state": "Maharashtra", "amenity": "hospital", "healthcare": "hospital", "name": "Patil Hospital, Mumbai", "source": "OpenGovernmentData"}}, {"type": "node", "id": 7049847480, "lat": 19.114371, "lon": 72.8334123, "tags": {"addr:district": "Mumbai", "addr:full": "101, Juhu Sheetal,Jvpd Scheme, 9Th Gulmohar Cross Road ,Vile Parle(W)", "addr:postcode": "400049", "addr:state": "Maharashtra", "amenity": "hospital", "name": "Oculus Eye Hospital Pvt. Ltd", "source": "OpenGovernmentData"}}, {"type": "node", "id": 7050167816, "lat": 19.0890312, "lon": 72.9071443, "tags": {"addr:district": "Mumbai", "addr:full": "Near Sarvodaya Hospital, L.B.S.Marg, Ghatkoper (West)", "addr:postcode": "400086", "addr:state": "Maharashtra", "amenity": "hospital", "email": "info@zynovaheart.com", "name": "Zynova Heart Hospital", "operator:type": "private", "source": "OpenGovernmentData", "website": "http://zynovaheart.com/"}}, {"type": "node", "id": 7050614446, "lat": 19.0852037, "lon": 72.9100598, "tags": {"addr:district": "Mumbai", "addr:full": "102/108, Karmavihar, Station Road,Opposite Muncipal Market, Near Railway Station", "addr:postcode": "400077", "addr:state": "Maharashtra", "amenity": "hospital", "name": "Khushal Hospital and Maternity Home", "source": "OpenGovernmentData"}}, {"type": "node", "id": 7050932259, "lat": 19.0798083, "lon": 72.9058863, "tags": {"addr:city": "Mumbai", "addr:district": "Mumbai", "addr:full": "18-A Happy Home 1st Floor Opp Achija & Guru Kurupa Hotel Ghatkopar (E)", "addr:postcode": "400077", "addr:state": "Maharashtra", "amenity": "hospital", "healthcare": "hospital", "name": "Hiren Mehta Eye Care Centre", "source": "OpenGovernmentData"}}, {"type": "node", "id": 7051069997, "lat": 19.1064919, "lon": 72.8877814, "tags": {"addr:district": "Mumbai", "addr:full": "305/306 Ruby Monarch, 3Road Floor , Opp Post Office, Saki Vihar Road , Saki Naka, Andheri East", "addr:postcode": "400072", "addr:state": "Maharashtra", "amenity": "hospital", "name": "Ashirwad Children and Surgical Hospital", "source": "OpenGovernmentData"}}, {"type": "node", "id": 7051070842, "lat": 19.1373789, "lon": 72.8466645, "tags": {"addr:district": "Mumbai", "addr:full": "Sharma Estate, Next To Dlwan Shopping Centre,S.V.Road, Jogeswari (W)", "addr:postcode": "400102", "addr:state": "Maharashtra", "amenity": "hospital", "name": "Mallika Hospital and Envision Eye Centre", "source": "OpenGovernmentData"}}, {"type": "node", "id": 7051176229, "lat": 19.10681, "lon": 72.8655446, "tags": {"addr:district": "Mumbai", "addr:full": "Mistry Complex, Sankalp (Gr. Floor), Near Greater Bank, J.B. Nagar, Andheri (E)", "addr:postcode": "400059", "addr:state": "Maharashtra", "amenity": "hospital", "healthcare": "hospital", "name": "Kiran Care and Cure Hospital", "operator": "Dr. Vaibhav Mistry", "source": "OpenGovernmentData"}}, {"type": "node", "id": 7051650092, "lat": 19.1169019, "lon": 72.871322, "tags": {"addr:city": "Mumbai", "addr:district": "Mumbai", "addr:full": "1-Lacreame Nrakruti Trade Center Road No-7 Kondivita Midc Area Andheri(E)", "addr:housenumber": "G1, Lacreme Building, Kondivita, Andheri East", "addr:postcode": "400047", "addr:state": "Maharashtra", "addr:street": "Road Number 7", "amenity": "hospital", "healthcare": "hospital", "name": "Umang Maternity and Surgical Nursing Home", "phone": "+912228203041", "source": "OpenGovernmentData"}}, {"type": "node", "id": 7051825616, "lat": 19.1171996, "lon": 72.8827469, "tags": {"addr:district": "Mumbai", "addr:full": "Plot No.236, Twin Arcade,Military Road,Marol,Andheri (East)", "addr:postcode": "400059", "addr:state": "Maharashtra", "amenity": "hospital", "name": "Sugun Hospital Multispeciality Diagnostic, Icu", "source": "OpenGovernmentData"}}, {"type": "node", "id": 7052303296, "lat": 19.0799452, "lon": 72.8545234, "tags": {"addr:district": "Mumbai", "addr:full": "Rizvi Park, S.V.Road, Santacruz(W)", "addr:postcode": "400054", "addr:state": "Maharashtra", "amenity": "hospital", "emergency": "yes", "healthcare": "hospital", "healthcare:speciality": "orthodontics", "name": "Aseem Orthopaedic Hospital"}}, {"type": "node", "id": 7052525501, "lat": 19.1012531, "lon": 72.8853004, "tags": {"addr:district": "Mumbai", "addr:full": "J.P House, Sakinaka,Andheri Kurla Road,Andheri East", "addr:postcode": "400072", "addr:state": "Maharashtra", "amenity": "hospital", "name": "J.P Hospital, Mumbai", "source": "OpenGovernmentData"}}, {"type": "node", "id": 7052767202, "lat": 19.1095801, "lon": 72.9264937, "tags": {"addr:district": "Mumbai", "addr:full": "A- Kumar Apartments, Behind St.Joseph School,Vikhroli(W)", "addr:postcode": "400079", "addr:state": "Maharashtra", "amenity": "hospital", "name": "Samarth Hospital, Mumbai", "source": "OpenGovernmentData"}}, {"type": "node", "id": 7052811704, "lat": 19.0890115, "lon": 72.9070786, "tags": {"addr:district": "Mumbai", "addr:full": "302/303, Trimurti Arcade, 3Road Flr, L.B.S. Road, Near Sarvodaya Hospital, Ghatkopar (W)", "addr:postcode": "400086", "addr:state": "Maharashtra", "amenity": "hospital", "name": "Navnirman Maternity and Surgical Hospital", "source": "OpenGovernmentData"}}, {"type": "node", "id": 7053014921, "lat": 19.0881022, "lon": 72.9051983, "tags": {"addr:district": "Mumbai", "addr:full": "A1, Harekrishna Building,First Floor,Near Telephone Exchange,L.B.S. Marg,Ghatkopar(West)", "addr:postcode": "400086", "addr:state": "Maharashtra", "amenity": "hospital", "name": "Nulife Hospital, Mumbai", "source": "OpenGovernmentData"}}, {"type": "node", "id": 7053026376, "lat": 19.0882556, "lon": 72.9053311, "tags": {"addr:district": "Mumbai", "addr:full": "Jivdaya Lane, Dharmodaya B Wing, 1st Floor, Ghatkopar (W)", "addr:postcode": "400086", "addr:state": "Maharashtra", "amenity": "hospital", "name": "Jivdaya Hospital", "source": "OpenGovernmentData"}}, {"type": "node", "id": 7053034034, "lat": 19.0881504, "lon": 72.9051822, "tags": {"addr:district": "Mumbai", "addr:full": "A/101,Chandradaya Bldg,Above Saibaba Temple,R.B. Kadam Marg, Lbs Road,Ghatkopar(W)", "addr:postcode": "400086", "addr:state": "Maharashtra", "amenity": "hospital", "name": "Shradha Heart Hospital", "source": "OpenGovernmentData"}}, {"type": "node", "id": 7053189597, "lat": 19.1035152, "lon": 72.8514978, "tags": {"addr:district": "Mumbai", "addr:full": "Shop No - 1,Dunhill Castle,Opp 9 To 9 Super Market,Hanuman Road,Vileparle (East)", "addr:postcode": "400057", "addr:state": "Maharashtra", "amenity": "hospital", "healthcare": "hospital", "name": "Dr.Satish G.Desai", "source": "OpenGovernmentData"}}, {"type": "node", "id": 7053273298, "lat": 19.085295, "lon": 72.9062873, "tags": {"addr:city": "mumbai", "addr:district": "Mumbai", "addr:full": "Shradhanand Road, Ghatkopar (W)", "addr:housenumber": "near ghatkopar station", "addr:postcode": "400086", "addr:state": "Maharashtra", "addr:street": "Sanitorium Lane", "amenity": "hospital", "healthcare:speciality": "dentist;physiotherapy;general", "name": "H.J. Doshi Ghatkopar Hindu Sabha Hospital", "source": "OpenGovernmentData;osm notes"}}, {"type": "node", "id": 7054456795, "lat": 19.1169678, "lon": 72.8443725, "tags": {"addr:district": "Mumbai", "addr:full": "Alka Building Opp M A High School S V Road Andheri W", "addr:postcode": "400058", "addr:state": "Maharashtra", "amenity": "hospital", "healthcare": "hospital", "name": "Vibha Maternity and Surgical Nursing Home", "source": "OpenGovernmentData"}}, {"type": "node", "id": 7054625890, "lat": 19.1361449, "lon": 72.8503498, "tags": {"addr:district": "Mumbai", "addr:full": "B3/4, Satellite Classic Caves Road, Near Jogeshwari Railway Station, Jogeshwari (East)", "addr:postcode": "400060", "addr:state": "Maharashtra", "amenity": "hospital", "healthcare": "hospital", "name": "Dr. Kamat's Hospital", "source": "OpenGovernmentData"}}, {"type": "node", "id": 7054725462, "lat": 19.1070774, "lon": 72.8673752, "tags": {"addr:district": "Mumbai", "addr:full": "F/2, 3, Ajit Nagar, J.B.Nagar, Andheri East", "addr:postcode": "400059", "addr:state": "Maharashtra", "amenity": "hospital", "healthcare": "hospital", "name": "Ameya Surgical and General Nursing Home", "source": "OpenGovernmentData"}}, {"type": "node", "id": 7054746894, "lat": 19.0804497, "lon": 72.8562031, "tags": {"addr:district": "Mumbai", "addr:full": "Karlton Apts, Vakola Village Road, Vakola Santacruz (E)", "addr:postcode": "400055", "addr:state": "Maharashtra", "amenity": "hospital", "healthcare": "hospital", "name": "Dr. Raut's Maternity and Surgical Nursing Home", "source": "OpenGovernmentData"}}, {"type": "node", "id": 7054797503, "lat": 19.1359498, "lon": 72.8520081, "tags": {"addr:district": "Mumbai", "addr:full": "Kesar Plaza, Caves Road, Station Road, Jogeshwari (E)", "addr:postcode": "400014", "addr:state": "Maharashtra", "amenity": "hospital", "healthcare": "hospital", "name": "Dr Kulkarni Hospital", "source": "OpenGovernmentData"}}, {"type": "node", "id": 7055144633, "lat": 19.0880933, "lon": 72.8363293, "tags": {"addr:district": "Mumbai", "addr:full": "B-9/G-2 & 3, Ground Floor, Khira Nagar, S V Road, Santacruz West", "addr:postcode": "400054", "addr:state": "Maharashtra", "amenity": "hospital", "healthcare": "hospital", "name": "Malhaar Maternity and Nursing Home", "source": "OpenGovernmentData"}}, {"type": "node", "id": 7055153115, "lat": 19.088305, "lon": 72.9069599, "tags": {"addr:district": "Mumbai", "addr:full": "B103-104, Lal Bahadur Chs, Opposite Sarvodaya Hospital, L B S Road Ghatkopar", "addr:postcode": "400086", "addr:state": "Maharashtra", "amenity": "hospital", "name": "Medico Surgical Clinic and Hospital", "source": "OpenGovernmentData"}}, {"type": "node", "id": 7055276698, "lat": 19.1148073, "lon": 72.8432044, "tags": {"addr:district": "Mumbai", "addr:full": "Viral Apartments, I Floor, Shoppers Shop,S.V.Road, Andheri (W)", "addr:postcode": "400058", "addr:state": "Maharashtra", "amenity": "hospital", "name": "Doctor Eye Hospital", "source": "OpenGovernmentData"}}, {"type": "node", "id": 7055419121, "lat": 19.0800884, "lon": 72.9043441, "tags": {"addr:district": "Mumbai", "addr:full": "Ambika Darshan, M. G. Road, Ghatkopar (E), Ghatkopar (E)", "addr:postcode": "400077", "addr:state": "Maharashtra", "amenity": "hospital", "name": "Ashwini Maternity and Surgical Hospital,Ghatkopar(E)", "source": "OpenGovernmentData"}}, {"type": "node", "id": 7055476546, "lat": 19.1309793, "lon": 72.8468147, "tags": {"addr:district": "Mumbai", "addr:full": "Gokul Apt. Kevanipada, Next To Farooq High School, S. V Road Jogeshwari (W)", "addr:postcode": "400102", "addr:state": "Maharashtra", "amenity": "hospital", "healthcare": "hospital", "name": "Mother Care Maternity and Surgical Nursing Home - Mumbai", "source": "OpenGovernmentData"}}, {"type": "node", "id": 7055749046, "lat": 19.1339758, "lon": 72.8654212, "tags": {"addr:district": "Mumbai", "addr:full": "Aareshwar Bldg., Opp Dhiraj Darshan, Kokan Nagar, Jogeshwari East", "addr:postcode": "400060", "addr:state": "Maharashtra", "amenity": "hospital", "healthcare": "hospital", "name": "Kokan Hospital", "source": "OpenGovernmentData"}}, {"type": "node", "id": 7059172378, "lat": 19.0796436, "lon": 72.9043186, "tags": {"addr:district": "Mumbai", "addr:full": "301, Sapphire Arcade, Above Sejal Jewellery, M.G. Road, Near Rajawadi Signal, Ghatkopar(E)", "addr:postcode": "400077", "addr:state": "Maharashtra", "amenity": "hospital", "name": "Jain Eye Clinic", "source": "OpenGovernmentData"}}, {"type": "node", "id": 7062712062, "lat": 19.099527, "lon": 72.8493437, "tags": {"addr:district": "Mumbai", "addr:full": "261 Sumat Bhavan, Malvia Road, Above Jain Sthanak, Vile Parle East", "addr:postcode": "400057", "addr:state": "Maharashtra", "amenity": "hospital", "healthcare": "hospital", "name": "Smt. Laxmiben Dharamsi Karsan Gala Eye Hospital", "source": "OpenGovernmentData"}}, {"type": "node", "id": 7063077062, "lat": 19.1292206, "lon": 72.8601158, "tags": {"addr:district": "Mumbai", "addr:full": "A-Nirman Vihar, Rajmata Jijabai Road, Near Pump House, Andheri (E)", "addr:postcode": "400093", "addr:state": "Maharashtra", "amenity": "hospital", "name": "Sunita Hospital, Mumbai", "source": "OpenGovernmentData"}}, {"type": "node", "id": 7063077077, "lat": 19.0831721, "lon": 72.9047189, "tags": {"addr:district": "Mumbai", "addr:full": "Amrut Kunj Anjaria Wadi , Near Rly Stn M G Road Ghatkopar East", "addr:postcode": "400001", "addr:state": "Maharashtra", "amenity": "hospital", "name": "Doshi Nursing Home", "opening_hours": "Mo-Su 09:00-21:00", "source": "OpenGovernmentData"}}, {"type": "node", "id": 7064716703, "lat": 19.1277787, "lon": 72.8625767, "tags": {"addr:district": "Mumbai", "addr:full": "182 Shere Punjab Colony Mahakali Caves Road Andheri (East)", "addr:postcode": "400069", "addr:state": "Maharashtra", "amenity": "hospital", "name": "Shakuntala Memorial Surgical Childerns and General Hospital", "source": "OpenGovernmentData"}}, {"type": "node", "id": 7064867148, "lat": 19.1432944, "lon": 72.9253297, "tags": {"addr:district": "Mumbai", "addr:full": "2nd Floor,Jamil Nagar,J.M.Road,Near Maratha Mitra Mandal", "addr:postcode": "400078", "addr:state": "Maharashtra", "amenity": "hospital", "name": "Sai Sparsh Hospital and Iccu", "source": "OpenGovernmentData"}}, {"type": "node", "id": 7065572990, "lat": 19.1126049, "lon": 72.8425607, "tags": {"addr:district": "Mumbai", "addr:full": "Andheri", "addr:postcode": "400053", "addr:state": "Maharashtra", "amenity": "hospital", "name": "Dr. Joshi Surgical and Maternity Hospital", "source": "OpenGovernmentData"}}, {"type": "node", "id": 7065817369, "lat": 19.0806727, "lon": 72.9039069, "tags": {"addr:district": "Mumbai", "addr:full": "27-D, Navnit Nagar, Gandhi Mkt. Bldg, M.G.Road, Ghatkopar (E)", "addr:postcode": "400077", "addr:state": "Maharashtra", "amenity": "hospital", "name": "Ami Drashti Eye Care Centre", "source": "OpenGovernmentData"}}, {"type": "node", "id": 7066497782, "lat": 19.1322818, "lon": 72.8496706, "tags": {"addr:district": "Mumbai", "addr:full": "Plot No-13 , Gr. Floor, & 1st Floor, Ushahkal Hindu Friends Society Road, Jogeshwari(E)", "addr:postcode": "400060", "addr:state": "Maharashtra", "amenity": "hospital", "healthcare": "hospital", "name": "Parulekar Maternity and Surgical Nursing Home - Mumbai", "source": "OpenGovernmentData"}}, {"type": "node", "id": 7066505685, "lat": 19.0782709, "lon": 72.9058555, "tags": {"addr:district": "Mumbai", "addr:full": "1 , 2 , 3 Gautam Building , Opposite Balaji Temple , Tilak Road , Ghatkopar ( East )", "addr:postcode": "400077", "addr:state": "Maharashtra", "amenity": "hospital", "name": "Dr. Trivedi's Maternity Nursing Home & Aakar IVF Test Tube Baby Centre", "source": "OpenGovernmentData"}}, {"type": "node", "id": 7066505805, "lat": 19.0875674, "lon": 72.9045278, "tags": {"addr:district": "Mumbai", "addr:full": "Shiva Plaza, Lbs Road, Opp Ghatkopar Tel Exchange, Ghatkopar (W)", "addr:postcode": "400086", "addr:state": "Maharashtra", "amenity": "hospital", "name": "Dr Sonagra Medical and Surgical Centre", "source": "OpenGovernmentData"}}, {"type": "node", "id": 7067050974, "lat": 19.0853723, "lon": 72.9067473, "tags": {"addr:city": "mumbai", "addr:district": "Mumbai", "addr:full": "Opposite Ghatkopar Railway Station, Ghatkopar West", "addr:postcode": "400086", "addr:state": "Maharashtra", "addr:street": "Shraddhanand Road", "amenity": "hospital", "name": "Jeevan ram Hospital", "opening_hours": "24/7", "operator": "vimish", "operator:type": "private", "source": "OpenGovernmentData"}}, {"type": "node", "id": 7067050981, "lat": 19.1022549, "lon": 72.8486849, "tags": {"addr:district": "Mumbai", "addr:full": "Silver Apartment 29, Mahant Road, Vile Parle East", "addr:postcode": "400057", "addr:state": "Maharashtra", "amenity": "hospital", "healthcare": "hospital", "name": "Vivek Pathology Laboratory", "source": "OpenGovernmentData"}}, {"type": "node", "id": 7067070262, "lat": 19.0880578, "lon": 72.9052141, "tags": {"addr:district": "Mumbai", "addr:full": "1A, Ashoka Road , 15 S.V. Road, Santacruz(W)", "addr:postcode": "400065", "addr:state": "Maharashtra", "amenity": "hospital", "name": "Clear Vision Eye Center", "source": "OpenGovernmentData"}}, {"type": "node", "id": 7067113558, "lat": 19.1096181, "lon": 72.8489169, "tags": {"addr:district": "Mumbai", "addr:full": "101, Homai Mahal, M G Road, Vile Parle East", "addr:postcode": "400057", "addr:state": "Maharashtra", "amenity": "hospital", "healthcare": "hospital", "name": "Saurabh Clinic Dr.Sanjanwalas Maternity and Gynacologist", "source": "OpenGovernmentData"}}, {"type": "node", "id": 7067231946, "lat": 19.0754851, "lon": 72.9085484, "tags": {"addr:district": "Mumbai", "addr:full": "3, Milan, Ground Floor, 169-Garodia Nagar,90Ft Road, Opposite Lavender Baugh", "addr:postcode": "400077", "addr:state": "Maharashtra", "amenity": "hospital", "name": "Eye Essential Hospital", "source": "OpenGovernmentData"}}, {"type": "node", "id": 7067540680, "lat": 19.121366, "lon": 72.8794867, "tags": {"addr:district": "mumbai", "addr:full": "marol", "addr:postcode": "400059", "addr:state": "Maharashtra", "addr:street": "Maroshi Village Road vijay nagar LT complex", "amenity": "hospital", "healthcare": "hospital", "name": "Gokul Maternity & Surgical Home", "source": "OpenGovernmentData"}}, {"type": "node", "id": 7068099987, "lat": 19.1352922, "lon": 72.8542954, "tags": {"addr:district": "Mumbai", "addr:full": "4/5/6-C Janakdeep, J.P.Road, 7 Bunglows, Andherw)", "addr:postcode": "400061", "addr:state": "Maharashtra", "amenity": "hospital", "healthcare": "hospital", "name": "Piyush Hospital", "source": "OpenGovernmentData"}}, {"type": "node", "id": 7068194959, "lat": 19.127861, "lon": 72.8624144, "tags": {"addr:district": "Mumbai", "addr:full": "183,Kalpana, Sher-E-Punjab Society, Mahakali Road,Andheri (E)", "addr:postcode": "400093", "addr:state": "Maharashtra", "amenity": "hospital", "name": "Indu Maternity and Surgical Nursing Home", "source": "OpenGovernmentData"}}, {"type": "node", "id": 7068429399, "lat": 19.119331, "lon": 72.845019, "tags": {"addr:district": "Mumbai", "addr:full": "S.V Road, Opp Railway Station, Andheri West", "addr:postcode": "400058", "addr:state": "Maharashtra", "amenity": "hospital", "healthcare": "hospital", "name": "Bses Mg Hospital (Managed By)Brahma Kumari Global Hospital and Res Center", "source": "OpenGovernmentData"}}, {"type": "node", "id": 7070050992, "lat": 19.11132, "lon": 72.8671995, "tags": {"addr:district": "Mumbai", "addr:full": "B-1 Greenland Apt J.B Ngr Andheri(E)", "addr:postcode": "400059", "addr:state": "Maharashtra", "amenity": "hospital", "healthcare": "hospital", "name": "Spectacles and Contact Lens Clinic", "source": "OpenGovernmentData"}}, {"type": "node", "id": 7070354910, "lat": 19.0791429, "lon": 72.9038519, "tags": {"addr:district": "Mumbai", "addr:full": "Jayant Arcade,4Th Floor, Rajawadi,M.G.Road,Ghatkopar(E)", "addr:postcode": "400077", "addr:state": "Maharashtra", "amenity": "hospital", "name": "Bakul Parekh Children Hospital", "source": "OpenGovernmentData"}}, {"type": "node", "id": 7070857458, "lat": 19.0895432, "lon": 72.8379983, "tags": {"addr:district": "Mumbai", "addr:full": "C-Wing 1st Floor Rizvi Park,At Milan Subway Signal S V Road Santacruz(W)", "addr:postcode": "400054", "addr:state": "Maharashtra", "amenity": "hospital", "name": "Life Line Hospital and Diagnostics Pvt Ltd", "source": "OpenGovernmentData"}}, {"type": "node", "id": 7070857483, "lat": 19.1439215, "lon": 72.8430556, "tags": {"addr:district": "Mumbai", "addr:full": "Hafizi House, S.V. Road, Oshiwara Jogeshwari(W)", "addr:postcode": "400102", "addr:state": "Maharashtra", "amenity": "hospital", "healthcare": "hospital", "name": "Shivam Netram Eye Hospital", "source": "OpenGovernmentData"}}, {"type": "node", "id": 7070859091, "lat": 19.1074601, "lon": 72.8484213, "tags": {"addr:district": "Mumbai", "addr:full": "A - 103, 104, Saurabh Apartment, Shahaji Raje Marg Next To Bhuta High School", "addr:postcode": "400057", "addr:state": "Maharashtra", "amenity": "hospital", "healthcare": "hospital", "name": "Nityanand Iccu and Nursing Home", "source": "OpenGovernmentData"}}, {"type": "node", "id": 7070859097, "lat": 19.1031325, "lon": 72.8392227, "tags": {"addr:district": "Mumbai", "addr:full": "D-31, Navmangal Chs, 1st Floor,Above Venilal Saree Shop, S. V. Road", "addr:postcode": "400056", "addr:state": "Maharashtra", "amenity": "hospital", "name": "Khandwala Eye Hospital and Polyclinic", "source": "OpenGovernmentData"}}, {"type": "node", "id": 7070859138, "lat": 19.1095535, "lon": 72.8376684, "tags": {"addr:district": "Mumbai", "addr:full": "2nd Floor , Shri Mumbadevi Homeopathic Hospital , Natakkar Ram , Ganesh Gadkari Road , Irla , Vile Parle ( West )", "addr:postcode": "400056", "addr:state": "Maharashtra", "amenity": "hospital", "healthcare": "hospital", "name": "Life Care Iccu , Medical and Surgical Emergencies", "source": "OpenGovernmentData"}}, {"type": "node", "id": 7072535182, "lat": 19.0924974, "lon": 72.9124309, "tags": {"addr:district": "Mumbai", "addr:full": "Bhaveshwar Plaza, C Wing, 2nd Floor, Lal Bahadur Shastri Road, Ghatkoper West", "addr:postcode": "400086", "addr:state": "Maharashtra", "amenity": "hospital", "name": "Satyam Hospital", "source": "OpenGovernmentData"}}, {"type": "node", "id": 7072801164, "lat": 19.0857328, "lon": 72.8367229, "tags": {"addr:district": "Mumbai", "addr:full": "5-D, Dattaray Road, Santacruz (West)", "addr:postcode": "400054", "addr:state": "Maharashtra", "amenity": "hospital", "name": "Sarla Hospital and Icu", "source": "OpenGovernmentData"}}, {"type": "node", "id": 7073099556, "lat": 19.139644, "lon": 72.8435008, "tags": {"addr:district": "Mumbai", "addr:full": "105, First Floor , Markaz View, Opposite Excel Industries , S.V Road, Jogeshwari(W)", "addr:postcode": "400059", "addr:state": "Maharashtra", "amenity": "hospital", "healthcare": "hospital", "name": "Diamond Hospital", "source": "OpenGovernmentData"}}, {"type": "node", "id": 7073537755, "lat": 19.0889539, "lon": 72.9070102, "tags": {"addr:district": "Mumbai", "addr:full": "(Previously Known As The Metropolitan Heart Institute And Research Centre) Trimurti Arcade, L B S Marg, Near Sarvoday Hospital, Ghatkopar, (West)", "addr:postcode": "400086", "addr:state": "Maharashtra", "amenity": "hospital", "name": "The Metropolitan Heart Institute and Research Centre", "source": "OpenGovernmentData"}}, {"type": "node", "id": 7073651578, "lat": 19.1366428, "lon": 72.8364225, "tags": {"addr:district": "Mumbai", "addr:full": "C Wing, Dhananjay Apt Behind Balaji Studio, Opp Veera Desai Road Andheri", "addr:postcode": "400059", "addr:state": "Maharashtra", "amenity": "hospital", "healthcare": "hospital", "name": "Rg Stone Urology and Laparoscopy Hospital, Mumbai", "source": "OpenGovernmentData"}}, {"type": "node", "id": 7073949883, "lat": 19.1038168, "lon": 72.886899, "tags": {"addr:district": "Mumbai", "addr:full": "1st & 2nd Floor Laxmi Commarcial Premises Saki Naka Junction Andheri ( E)", "addr:postcode": "400059", "addr:state": "Maharashtra", "amenity": "hospital", "healthcare": "hospital", "name": "Paramount General Hospital and ICU", "name:en": "Paramount General Hospital and ICU", "source": "OpenGovernmentData", "website": "https://paramountgeneralhospital.com/"}}, {"type": "node", "id": 7073961725, "lat": 19.103614, "lon": 72.8870398, "tags": {"addr:district": "Mumbai", "addr:full": "Laxmi Commercial Premises, Near Sakinaka Junction, Andheri Kurla Road, Andheri East", "addr:postcode": "400072", "addr:state": "Maharashtra", "amenity": "hospital", "email": "clinics2hospitals@gmail.com", "name": "Paramount General Hospital and ICCU", "operator:type": "private", "source": "OpenGovernmentData", "website": "https://parakhhospital.com/"}}, {"type": "node", "id": 7074576485, "lat": 19.136651, "lon": 72.8501849, "tags": {"addr:district": "Mumbai", "addr:full": "004/C-2, Satellite Classic, Caves Road, Opposite, Jogeshwari Railway Station, Jogeshwari (E)", "addr:postcode": "400060", "addr:state": "Maharashtra", "amenity": "hospital", "healthcare": "hospital", "name": "Dr. Shindes Childrens Hospital and Nicu", "source": "OpenGovernmentData"}}, {"type": "node", "id": 7076379914, "lat": 19.1184744, "lon": 72.8731017, "tags": {"addr:district": "Mumbai", "addr:full": "PLOT No, 88, Rd Number 15, Marol MIDC Industry Estate, Andheri East", "addr:postcode": "400058", "addr:state": "Maharashtra", "amenity": "hospital", "name": "SRL Diagnostics Andheri (MIDC)", "source": "OpenGovernmentData"}}, {"type": "node", "id": 7079392099, "lat": 19.0942526, "lon": 72.849741, "tags": {"addr:district": "Mumbai", "addr:full": "Nanda Patkar Road, Vileparle East", "addr:postcode": "400057", "addr:state": "Maharashtra", "amenity": "hospital", "name": "Dr. Rane hospital maternity & surgical", "source": "OpenGovernmentData"}}, {"type": "node", "id": 7079665692, "lat": 19.1107257, "lon": 72.8483811, "tags": {"addr:district": "Mumbai", "addr:full": "Jeevan Vikas Kendra Marg , Off S. Nityanand Marg Andheri (East)", "addr:postcode": "400069", "addr:state": "Maharashtra", "amenity": "hospital", "healthcare": "hospital", "name": "Sadanand Danait Hospital", "source": "OpenGovernmentData"}}, {"type": "node", "id": 7079665770, "lat": 19.0880071, "lon": 72.8367417, "tags": {"addr:district": "Mumbai", "addr:full": "103, Parasurampuria Apt, 2 Tps 6 2nd Road , Santacruz West", "addr:postcode": "400054", "addr:state": "Maharashtra", "amenity": "hospital", "name": "Netrapuja Research Centre", "source": "OpenGovernmentData"}}, {"type": "node", "id": 7080141268, "lat": 19.0921146, "lon": 72.9123692, "tags": {"addr:district": "Mumbai", "addr:full": "A Wing,Bhaveshwar Plaza Lbs Marg Ghatkopar - West", "addr:postcode": "400086", "addr:state": "Maharashtra", "amenity": "hospital", "name": "Sapna Health Care Centre Pvt Ltd", "source": "OpenGovernmentData"}}, {"type": "node", "id": 7080205211, "lat": 19.0814154, "lon": 72.9057965, "tags": {"addr:district": "Mumbai", "addr:full": "Samaj Bhavan, 5Th Floor, Joshi Lane, M G Road, Ghatkopar", "addr:postcode": "400077", "addr:state": "Maharashtra", "amenity": "hospital", "name": "Cg Eye Foundaton and Shree Ghatkopar Brahman Samaj", "source": "OpenGovernmentData"}}, {"type": "node", "id": 7080205265, "lat": 19.1373264, "lon": 72.8485105, "tags": {"addr:district": "Mumbai", "addr:full": "C wing, 1st floor, Opposite Jogeshwari station west", "addr:postcode": "400102", "addr:state": "Maharashtra", "amenity": "hospital", "healthcare": "hospital", "name": "Dr Shah Hospital", "source": "OpenGovernmentData"}}, {"type": "node", "id": 7080269989, "lat": 19.0970597, "lon": 72.847386, "tags": {"addr:district": "Mumbai", "addr:full": "199, Dixit Cross Road, Near Chetan School, Vile Parle (East)", "addr:postcode": "400057", "addr:state": "Maharashtra", "amenity": "hospital", "healthcare": "hospital", "name": "Ashish Maternity and Nursing Home - Vile Parle (E)", "source": "OpenGovernmentData"}}, {"type": "node", "id": 7080878125, "lat": 19.0828996, "lon": 72.8376549, "tags": {"addr:district": "Mumbai", "addr:full": "Santacruz (W)", "addr:postcode": "400054", "addr:state": "Maharashtra", "amenity": "hospital", "name": "Radiance Laser Vision Centre", "source": "OpenGovernmentData"}}, {"type": "node", "id": 7082370226, "lat": 19.1069165, "lon": 72.8356406, "tags": {"addr:district": "Mumbai", "addr:full": "Flat 1, Ridhhi, E W Road 2, 41, Vallabhnagar Society, Opposite Cooper Casualy, Jvpd Scheme", "addr:postcode": "400056", "addr:state": "Maharashtra", "amenity": "hospital", "healthcare": "hospital", "name": "Dr Sanjay Soni Dental Clinic", "source": "OpenGovernmentData"}}, {"type": "node", "id": 7082499146, "lat": 19.0918193, "lon": 72.8436054, "tags": {"addr:district": "Mumbai", "addr:full": "Veer Makrand Ghanekar Marg, Navpada, Vile Parle East, Vile Parle", "addr:postcode": "400057", "addr:state": "Maharashtra", "amenity": "hospital", "healthcare": "hospital", "name": "Shree Ramnath Eye Care", "source": "OpenGovernmentData"}}, {"type": "node", "id": 7082518991, "lat": 19.1352453, "lon": 72.8381807, "tags": {"addr:district": "Mumbai", "addr:full": "Andheri", "addr:postcode": "400102", "addr:state": "Maharashtra", "amenity": "hospital", "healthcare": "hospital", "name": "Society Of The Helpers Of Mary Shraddha Vihar Hospital", "source": "OpenGovernmentData"}}, {"type": "node", "id": 7082733154, "lat": 19.0887333, "lon": 72.9050951, "tags": {"addr:district": "Mumbai", "addr:full": "B/6-7, 1st Floor, Dharmodaya Building, Near Telephone Exchange, Jivdaya Lane, Ghatkopar West", "addr:postcode": "400086", "addr:state": "Maharashtra", "amenity": "hospital", "name": "Nachiketa Health Care Center", "source": "OpenGovernmentData"}}, {"type": "node", "id": 7082738898, "lat": 19.0887777, "lon": 72.9074769, "tags": {"addr:district": "Mumbai", "addr:full": "207, Jyoti Chambers, Khot Lane, Above New Bata Showroom,Ghatkopar(W)", "addr:postcode": "400086", "addr:state": "Maharashtra", "amenity": "hospital", "name": "Amar Jyot Eye Care Centre", "source": "OpenGovernmentData"}}, {"type": "node", "id": 7083324261, "lat": 19.1297337, "lon": 72.8702196, "tags": {"addr:district": "Mumbai", "addr:full": "B6/7,Bilquis Apt. - Iii,Mayrose Chs,Mahakali Caves Road,Andheri (East)", "addr:postcode": "400093", "addr:state": "Maharashtra", "amenity": "hospital", "name": "Uma Maternity Nursing Home", "source": "OpenGovernmentData"}}, {"type": "node", "id": 7085731347, "lat": 19.0881256, "lon": 72.905198, "tags": {"addr:district": "Mumbai", "addr:full": "No. A/102, Chandrodaya Building,Jivdaya Lane,Between Sarvodaya Hospital & Telephone Exchange,Ghatkopar (W)", "addr:postcode": "400086", "addr:state": "Maharashtra", "amenity": "hospital", "name": "Jeevandeep Children Hospital, Mumbai", "source": "OpenGovernmentData"}}, {"type": "node", "id": 7085742120, "lat": 19.1069728, "lon": 72.8358773, "tags": {"addr:district": "Mumbai", "addr:full": "Heena Smruti, Road No 2, Juhu Scheme, Opposite Cooper Hospital Casualty, Vile Parle(W)", "addr:postcode": "400056", "addr:state": "Maharashtra", "amenity": "hospital", "healthcare": "hospital", "name": "Iris Eye Center", "source": "OpenGovernmentData"}}, {"type": "node", "id": 7086283489, "lat": 19.132605, "lon": 72.8696693, "tags": {"addr:district": "Mumbai", "addr:full": "9-B, Vallabhai Patel Rd, New Mhada Colony, Indira Nagar, Jogeshwari East", "addr:postcode": "400093", "addr:state": "Maharashtra", "amenity": "hospital", "healthcare": "hospital", "name": "Dr Phadkes Maternity and Surgical Hospital", "source": "OpenGovernmentData"}}, {"type": "node", "id": 7086532370, "lat": 19.1100591, "lon": 72.8642115, "tags": {"addr:district": "Mumbai", "addr:full": "Goel Apartments, J B Nagar, Near Kalgidhar High School, Wireless Street, Andheri East", "addr:postcode": "400059", "addr:state": "Maharashtra", "amenity": "hospital", "healthcare": "hospital", "name": "Goel Hospital", "source": "OpenGovernmentData"}}, {"type": "node", "id": 7087131445, "lat": 19.0824839, "lon": 72.9049838, "tags": {"addr:district": "Mumbai", "addr:full": "206, Gayatri Dham, Jn. Of M.G Road , & Derasar Lane , Ghatkopar (East)", "addr:postcode": "400077", "addr:state": "Maharashtra", "amenity": "hospital", "name": "Dr. Dipak Desai's Ear Nose and Throat Hospital", "source": "OpenGovernmentData"}}, {"type": "node", "id": 7087491721, "lat": 19.1631829, "lon": 72.8351136, "tags": {"addr:district": "Mumbai", "addr:full": "1st Floor, M.G.Road Junction,Motilal Nagar", "addr:postcode": "400104", "addr:state": "Maharashtra", "amenity": "hospital", "name": "Prarthana Hospital And ICU", "source": "OpenGovernmentData"}}, {"type": "node", "id": 7225067112, "lat": 19.078004, "lon": 72.86302, "tags": {"addr:district": "Mumbai", "addr:full": "Kalina Health Post, Near Geeta Vihar Market, Santacruz East", "addr:postcode": "400029", "addr:state": "Maharashtra", "amenity": "hospital", "name": "Kalina Hospital", "source": "OpenGovernmentData"}}, {"type": "node", "id": 7225067148, "lat": 19.0786832, "lon": 72.9013145, "tags": {"addr:district": "Mumbai", "addr:full": "RN Gandhi Road, Near Somaiya College, Ghatkopar East, Mumbai", "addr:postcode": "400077", "addr:state": "Maharashtra", "amenity": "hospital", "description": "Sub District Hospital", "source": "OpenGovernmentData"}}, {"type": "node", "id": 7225067170, "lat": 19.1108771, "lon": 72.8781592, "tags": {"addr:district": "Mumbai", "addr:full": "Marol Village Road, Near Miljul Housing Society, Marol", "addr:postcode": "400059", "addr:state": "Maharashtra", "amenity": "hospital", "name": "Marol Maternity Home", "source": "OpenGovernmentData"}}, {"type": "node", "id": 7225067197, "lat": 19.1054569, "lon": 72.8518587, "tags": {"addr:district": "Mumbai", "addr:full": "Dr. V.N.Shirodkar Municipal Maternity Home, Vileparle (E)", "addr:postcode": "400057", "addr:state": "Maharashtra", "amenity": "hospital", "healthcare": "hospital", "name": "V N Shirodkar Hospital", "source": "OpenGovernmentData"}}, {"type": "node", "id": 7225067267, "lat": 19.0984853, "lon": 72.904147, "tags": {"addr:district": "Mumbai", "addr:full": "Sant Muktabai Mun. Gen. Hospital, Barve Nagar, Ghatkopar (W)", "addr:postcode": "400086", "addr:state": "Maharashtra", "amenity": "hospital", "name": "Sant Muktabai Hospital", "source": "OpenGovernmentData"}}, {"type": "node", "id": 7607578889, "lat": 19.0960915, "lon": 72.9103804, "tags": {"addr:district": "Mumbai", "addr:full": "Sainath Nagar, Indira Nagar, Ghatkopar West, Mumbai", "addr:postcode": "400086", "addr:state": "Maharashtra", "amenity": "hospital", "name": "Matoshree Ramabai Maternity BMC Hospital", "source": "Local Knowledge"}}, {"type": "node", "id": 7663833079, "lat": 19.163103, "lon": 72.846337, "tags": {"addr:district": "Mumbai Suburban", "addr:full": "Ashok Raj Building, SV Road, Above Ratan Hotel, Kakaji Nagar, Jawahar Nagar, Goregaon West, Mumbai", "addr:postcode": "400062", "addr:state": "Maharastra", "amenity": "hospital", "name": "Singhi Hospital", "source": "Local Knowledge"}}, {"type": "node", "id": 7663833088, "lat": 19.163211, "lon": 72.835036, "tags": {"addr:district": "Mumbai Suburban", "addr:full": "JP Residency, Vivanta Hospital, Chincholi Bunder, Malad West, Mumbai", "addr:postcode": "400064", "addr:state": "Maharastra", "amenity": "hospital", "name": "Vivanta Hospital", "source": "Local Knowledge"}}, {"type": "node", "id": 7663833111, "lat": 19.1636085, "lon": 72.8377227, "tags": {"addr:district": "Mumbai Suburban", "addr:full": "Mahatma Gandhi Road, Opposite Rosary Church, Goregaon West, Mumbai", "addr:postcode": "400090", "addr:state": "Maharastra", "amenity": "hospital", "name": "Jain Hospital", "source": "Local Knowledge"}}, {"type": "node", "id": 7663833117, "lat": 19.1612265, "lon": 72.840181, "tags": {"addr:district": "Mumbai Suburban", "addr:full": "L.T. Nagar, 4th Lane, Mahatma Gandhi Road, Goregaon West, Mumbai", "addr:postcode": "400104", "addr:state": "Maharastra", "amenity": "hospital", "name": "Matushree Gomati Hospital", "source": "Local Knowledge"}}, {"type": "node", "id": 7663833151, "lat": 19.160433, "lon": 72.856244, "tags": {"addr:district": "Mumbai Suburban", "addr:full": "Sonawala Industry Estate, Goregaon, Mumbai", "addr:postcode": "400063", "addr:state": "Maharastra", "amenity": "hospital", "name": "Trauma Hospital", "source": "Local Knowledge"}}, {"type": "node", "id": 7663833156, "lat": 19.1632392, "lon": 72.8453083, "tags": {"addr:district": "Mumbai Suburban", "addr:full": "Hirnen Shopping Centre, Mahatma Gandhi Road, Goregaon West, Mumbai", "addr:postcode": "400062", "addr:state": "Maharastra", "amenity": "hospital", "check_date": "2025-12-29", "name": "Dr. Bhatt's Hospital", "source": "Local Knowledge"}}, {"type": "node", "id": 7663961401, "lat": 19.076394, "lon": 72.91527, "tags": {"addr:district": "Mumbai Suburban", "addr:full": "Eastern Express Highway, Ramabai Ambedkar Nagar, Mumbai", "addr:postcode": "400075", "addr:state": "Maharastra", "amenity": "hospital", "name": "Dadasaheb Gaikwad BMC Hospital", "source": "Local Knowledge"}}, {"type": "node", "id": 7663961402, "lat": 19.108448, "lon": 72.877743, "tags": {"addr:district": "Mumbai Suburban", "addr:full": "Near Petrol Pump, Marol Naka, Andheri Kurla Road, Andheri East, Mumbai", "addr:postcode": "400059", "addr:state": "Maharastra", "amenity": "hospital", "check_date": "2025-10-24", "name": "Medicare Hospital", "source": "Local Knowledge"}}, {"type": "node", "id": 7663961404, "lat": 19.1180803, "lon": 72.8505516, "tags": {"addr:district": "Mumbai Suburban", "addr:full": "Besides SBI, Telli Galli, Andheri East, Mumbai", "addr:postcode": "400069", "addr:state": "Maharastra", "amenity": "hospital", "healthcare": "hospital", "name": "CritiCare Hospital", "source": "Local Knowledge"}}, {"type": "node", "id": 7663961406, "lat": 19.1054972, "lon": 72.8481238, "tags": {"addr:district": "Mumbai Suburban", "addr:full": "G B Indulkar Road, Vishnu Prasad Society, Navpada, Vile Parle East, Mumbai", "addr:postcode": "400057", "addr:state": "Maharastra", "amenity": "hospital", "healthcare": "hospital", "name": "Dr. Sanjanwala Hospital", "source": "Local Knowledge"}}, {"type": "node", "id": 7663961413, "lat": 19.07815, "lon": 72.916753, "tags": {"addr:district": "Mumbai Suburban", "addr:full": "Kirol Gaon, Ramabai Ambedkar Nagar, Mankur, Mumbai", "addr:postcode": "400075", "addr:state": "Maharastra", "amenity": "hospital", "name": "Sona Maternity and Surgical Nursing Home", "source": "Local Knowledge"}}, {"type": "node", "id": 7663961414, "lat": 19.1433169, "lon": 72.8431331, "tags": {"addr:district": "Mumbai Suburban", "addr:full": "Ripon Apartment, 176, 1st Floor, Tulsi Pipe Road, Mumbai", "addr:postcode": "400102", "addr:state": "Maharastra", "amenity": "hospital", "healthcare": "hospital", "name": "City Hospital", "source": "Local Knowledge"}}, {"type": "node", "id": 7663961415, "lat": 19.0826988, "lon": 72.8816976, "tags": {"addr:district": "Mumbai Suburban", "addr:full": "LBS Road, Bail Bajar, Saki Naka, Mumbai", "addr:postcode": "400070", "addr:state": "Maharastra", "amenity": "hospital", "name": "Subhash Hospital", "source": "Local Knowledge"}}, {"type": "node", "id": 7663961417, "lat": 19.0797861, "lon": 72.8827185, "tags": {"addr:district": "Mumbai Suburban", "addr:full": "88, New Hall Road, Jai Ambika Nagar, Christian Gaon, Kurla West, Mumbai", "addr:postcode": "400070", "addr:state": "Maharastra", "amenity": "hospital", "name": "Buddh Colony BMC Hospital", "source": "Local Knowledge"}}, {"type": "node", "id": 7663961423, "lat": 19.1072994, "lon": 72.8931541, "tags": {"addr:district": "Mumbai Suburban", "addr:full": "RM House, Khairani Road, Near Jama Masjid, Yadav Nagar, Chandivali, Powai, Mumbai", "addr:postcode": "400072", "addr:state": "Maharastra", "amenity": "hospital", "name": "Zobiya Hospital Maternity Home", "source": "Local Knowledge"}}, {"type": "node", "id": 7663961426, "lat": 19.1358754, "lon": 72.8446193, "tags": {"addr:district": "Mumbai Suburban", "addr:full": "Anmol Apartment, Ground Floor, Sankar Road, Jogeshwari West, Mumbai", "addr:postcode": "400102", "addr:state": "Maharastra", "amenity": "hospital", "healthcare": "hospital", "name": "Jogeshwari Hospital", "source": "Local Knowledge"}}, {"type": "node", "id": 7663961430, "lat": 19.1026186, "lon": 72.8934892, "tags": {"addr:district": "Mumbai Suburban", "addr:full": "Kherani Road, Nair Wadi, Asalfa, Mumbai", "addr:postcode": "400072", "addr:state": "Maharastra", "amenity": "hospital", "name": "Sapna Maternity and General Hospital", "source": "Local Knowledge"}}, {"type": "node", "id": 7663961433, "lat": 19.1023801, "lon": 72.8914583, "tags": {"addr:district": "Mumbai Suburban", "addr:full": "Ram Niwas Mohili Village, Saki Naka, Mumbai", "addr:postcode": "400072", "addr:state": "Maharastra", "amenity": "hospital", "name": "Dr. Chhajed Surgerical & Maternity Hospital", "source": "Local Knowledge"}}, {"type": "node", "id": 7663961436, "lat": 19.078367, "lon": 72.880408, "tags": {"addr:district": "Mumbai Suburban", "addr:full": "Opposite Quality Bakery, Near Shalimar Hotel, Swadeshi Mills Road, Kurla West, Kurla, Mumbai", "addr:postcode": "400070", "addr:state": "Maharastra", "amenity": "hospital", "healthcare": "hospital", "name": "Muskaan Hospital", "source": "Local Knowledge"}}, {"type": "node", "id": 7663961438, "lat": 19.1394176, "lon": 72.8596914, "tags": {"addr:district": "Mumbai Suburban", "addr:full": "Jogeshwari - Vikhroli Link Road, Anand Nagar, Jogeshwari East, Mumbai", "addr:postcode": "400060", "addr:state": "Maharastra", "amenity": "hospital", "healthcare": "hospital", "name": "DNA Hospital", "source": "Local Knowledge"}}, {"type": "node", "id": 7663961440, "lat": 19.0929208, "lon": 72.9038731, "tags": {"addr:district": "Mumbai Suburban", "addr:full": "Bhatwadi, Bhim Nagar, Barve Nagar, Ghatkopar West, Mumbai", "addr:postcode": "400084", "addr:state": "Maharastra", "amenity": "hospital", "name": "Pasaydan Hospital and Trust", "source": "Local Knowledge"}}, {"type": "node", "id": 7663961442, "lat": 19.1173421, "lon": 72.8841859, "tags": {"addr:district": "Mumbai Suburban", "addr:full": "Blue Fortuna, Military Road, Sankara Nagar, Marol, Andheri East, Mumbai", "addr:postcode": "400059", "addr:state": "Maharastra", "amenity": "hospital", "name": "Cuddles N Care Pediatric Hospital", "source": "Local Knowledge"}}, {"type": "node", "id": 7663961443, "lat": 19.078247, "lon": 72.880101, "tags": {"addr:district": "Mumbai Suburban", "addr:full": "AH Wadia Marg, Old Agra Road, Off, LBS Road, Opp. Shalimar Hotel, Kurla West, Mumbai", "addr:postcode": "400070", "addr:state": "Maharastra", "amenity": "hospital", "healthcare": "hospital", "name": "Habib Hospital", "source": "Local Knowledge"}}, {"type": "node", "id": 7663961450, "lat": 19.094566, "lon": 72.8870507, "tags": {"addr:district": "Mumbai Suburban", "addr:full": "Dosti Building, D'souza Nagar, 90 Feet Road, Mayfair Industrial Area, Sakinaka, Andheri East, Mumbai", "addr:postcode": "400072", "addr:state": "Maharastra", "amenity": "hospital", "name": "Uma Hospital", "source": "Local Knowledge"}}, {"type": "node", "id": 7663961459, "lat": 19.0834657, "lon": 72.8395008, "tags": {"addr:district": "Mumbai Suburban", "addr:full": "Harihar Niwas, Besant Road, Santacruz West, Mumbai", "addr:postcode": "400054", "addr:state": "Maharastra", "amenity": "hospital", "healthcare": "hospital", "name": "Mangal Multispeciality Hospital", "source": "Local Knowledge"}}, {"type": "node", "id": 7663961460, "lat": 19.1589907, "lon": 72.8492265, "tags": {"addr:district": "Mumbai Suburban", "addr:full": "Kamal Charan Building, 180, Road Number 2, Jawahar Nagar, Goregaon West, Mumbai", "addr:postcode": "400062", "addr:state": "Maharastra", "amenity": "hospital", "name": "SRV Hospital", "source": "Local Knowledge"}}, {"type": "node", "id": 7663961461, "lat": 19.1566348, "lon": 72.8466609, "tags": {"addr:district": "Mumbai Suburban", "addr:full": "Jawahar Nagar, Goregaon West, Mumbai", "addr:postcode": "400104", "addr:state": "Maharastra", "amenity": "hospital", "name": "Suvidha Hospital & PolyClinic", "source": "Local Knowledge"}}, {"type": "node", "id": 7663961462, "lat": 19.101669, "lon": 72.848999, "tags": {"addr:district": "Mumbai Suburban", "addr:full": "Chittaranjan Road, Satsang CHSL, Navpada, Park Road, Vile Parle, Mumbai", "addr:postcode": "400057", "addr:state": "Maharastra", "amenity": "hospital", "healthcare": "hospital", "name": "Dr. Wagh Maternity Hospital", "source": "Local Knowledge"}}, {"type": "node", "id": 7663961464, "lat": 19.132448, "lon": 72.925483, "tags": {"addr:district": "Mumbai Suburban", "addr:full": "Dockyard Goi Employees, N C H Colony, Kanjurmarg West, Bhandup West, Mumbai", "addr:postcode": "400078", "addr:state": "Maharastra", "amenity": "hospital", "name": "Naval Hospital", "source": "Local Knowledge"}}, {"type": "node", "id": 7663961465, "lat": 19.103219, "lon": 72.834862, "tags": {"addr:district": "Mumbai Suburban", "addr:full": "V. L Vaikunthlal Mehta Road, JVPD Scheme, Vile Parle", "addr:postcode": "400056", "addr:state": "Maharastra", "amenity": "hospital", "healthcare": "hospital", "name": "Sunridges Speciality Hospital", "operator": "Private", "operator:type": "private", "source": "Local Knowledge"}}, {"type": "node", "id": 7663961467, "lat": 19.0818439, "lon": 72.8821058, "tags": {"addr:district": "Mumbai Suburban", "addr:full": "New Dwarkapuri Building, LBS Road, Next To Subiksha, Christian Gaon, Kurla, Mumbai", "addr:postcode": "400070", "addr:state": "Maharastra", "amenity": "hospital", "name": "Masoom Child Hospital", "source": "Local Knowledge"}}, {"type": "node", "id": 7663961468, "lat": 19.1369167, "lon": 72.8564586, "tags": {"addr:district": "Mumbai Suburban", "addr:full": "Caves Road, Janta Nagar, Gandhi Nagar Society, Harijan Nagar Nagar, Jogeshwari East, Mumbai", "addr:postcode": "400060", "addr:state": "Maharastra", "amenity": "hospital", "healthcare": "hospital", "name": "Balthakra Sahara Jogeshwari Hospital", "source": "Local Knowledge"}}, {"type": "node", "id": 7663961473, "lat": 19.1447706, "lon": 72.8431122, "tags": {"addr:district": "Mumbai Suburban", "addr:full": "Sufi Sayed Kamal Ahmed Marg, Khoja Society, Vaishali Nagar, Jogeshwari, Mumbai", "addr:postcode": "400102", "addr:state": "Maharastra", "amenity": "hospital", "healthcare": "hospital", "name": "Ruby Hospital", "source": "Local Knowledge"}}, {"type": "node", "id": 7663961477, "lat": 19.1437117, "lon": 72.8426357, "tags": {"addr:district": "Mumbai Suburban", "addr:full": "Mathra Apartment, Swami Vivekanand Marg, Beside Jain Mandir, Jogeshwari, Mumbai", "addr:postcode": "400102", "addr:state": "Maharastra", "amenity": "hospital", "healthcare": "hospital", "name": "Noor Nursing Home", "source": "Local Knowledge"}}, {"type": "node", "id": 7663961482, "lat": 19.1002971, "lon": 72.8829976, "tags": {"addr:district": "Mumbai Suburban", "addr:full": "Behind Sakinaka Telephone Exchange, Safed Pul, Saki Naka, Mumbai", "addr:postcode": "400072", "addr:state": "Maharastra", "amenity": "hospital", "name": "Central Hospital & Child Care Centre", "source": "Local Knowledge"}}, {"type": "node", "id": 7663961484, "lat": 19.0994867, "lon": 72.8916481, "tags": {"addr:district": "Mumbai Suburban", "addr:full": "Raza Estate, Opp BMC School, Andheri Ghatkopar Link Road, Andheri East, Mumbai", "addr:postcode": "400072", "addr:state": "Maharastra", "amenity": "hospital", "name": "Apex Multi Speciality Hospital", "source": "Local Knowledge"}}, {"type": "node", "id": 7663961486, "lat": 19.097922, "lon": 72.892138, "tags": {"addr:district": "Mumbai Suburban", "addr:full": "Sir Mathuradas Vasanji Road, Lokmanya Tilak Nagar, Saki Naka, Mumbai", "addr:postcode": "400072", "addr:state": "Maharastra", "amenity": "hospital", "name": "Mohili Village Municipal Hospital", "source": "Local Knowledge"}}, {"type": "node", "id": 7663961488, "lat": 19.1372927, "lon": 72.8541522, "tags": {"addr:district": "Mumbai Suburban", "addr:full": "S. K. Apartment, Building, 2, 10, Dalwal Compound Gumpha Road, Near Police Station, Bandrekar Wadi, Jogeshwari East, Mumbai", "addr:postcode": "400060", "addr:state": "Maharastra", "amenity": "hospital", "name": "Shalyak Hospital", "source": "Local Knowledge"}}, {"type": "node", "id": 7663961489, "lat": 19.129543, "lon": 72.853012, "tags": {"addr:district": "Mumbai Suburban", "addr:full": "Bin Apartment, Natwar Nagar, Mogra Village, Jogeshwari East, Near Bhandari Bank, Mumbai", "addr:postcode": "400060", "addr:state": "Maharastra", "amenity": "hospital", "name": "Hajari Hospital", "source": "Local Knowledge"}}, {"type": "node", "id": 7663961490, "lat": 19.1450501, "lon": 72.8436497, "tags": {"addr:district": "Mumbai Suburban", "addr:full": "Dreamland Apartments, 1st, Govindji Shroff Marg, Vaishali Nagar, Jogeshwari, Mumbai", "addr:postcode": "400102", "addr:state": "Maharastra", "amenity": "hospital", "healthcare": "hospital", "name": "Fathima Children Hospital & Criticare Centre", "source": "Local Knowledge"}}, {"type": "node", "id": 7663961492, "lat": 19.1070662, "lon": 72.8920753, "tags": {"addr:district": "Mumbai Suburban", "addr:full": "Khairani Road, Ansa Industrial Estate, Chandivali, Asalpha, Mumbai", "addr:postcode": "400072", "addr:state": "Maharastra", "amenity": "hospital", "name": "Asmira Hospital", "source": "Local Knowledge"}}, {"type": "node", "id": 8797130860, "lat": 19.1401815, "lon": 72.842786, "tags": {"addr:district": "Mumbai", "addr:full": "Shastri Nagar, Jogeshwari West, Mumbai", "addr:postcode": "400062", "addr:state": "Maharashtra", "amenity": "hospital", "healthcare": "hospital", "name": "Millat Dialysis Center", "source": "Local Knowledge"}}, {"type": "node", "id": 8797139771, "lat": 19.0846423, "lon": 72.8836535, "tags": {"addr:district": "Mumbai", "addr:full": "A Wing, Ghatkopar, Mumbai", "addr:postcode": "400086", "addr:state": "Maharashtra", "amenity": "hospital", "name": "Sapna Health Care Centre Pvt Ltd", "source": "Local Knowledge"}}, {"type": "node", "id": 8797161232, "lat": 19.1372345, "lon": 72.8564975, "tags": {"addr:district": "Mumbai", "addr:full": "Shiv Kunj, Dhobi Ghat, Jogeshwari East, Mumbai", "addr:postcode": "400060", "addr:state": "Maharashtra", "amenity": "hospital", "healthcare": "hospital", "name": "matoshri umabai RANE hospital", "source": "Local Knowledge"}}, {"type": "node", "id": 8797173216, "lat": 19.0952772, "lon": 72.9137056, "tags": {"addr:district": "Mumbai", "addr:full": "E-1, Society, Ghatkopar West, Mumbai", "addr:postcode": "400086", "addr:state": "Maharashtra", "amenity": "hospital", "name": "Shantiniketan Hospital", "source": "Local Knowledge"}}, {"type": "node", "id": 8797192964, "lat": 19.0906433, "lon": 72.9076338}, {"type": "node", "id": 8797904410, "lat": 19.1304842, "lon": 72.8720801, "tags": {"addr:district": "Mumbai", "addr:full": "Sunder Nagar, Jogeshwari East", "addr:postcode": "400093", "addr:state": "Maharashtra", "amenity": "hospital", "healthcare": "hospital", "name": "BMC arogya Kendra", "source": "Local Knowledge"}}, {"type": "node", "id": 8798069854, "lat": 19.1053464, "lon": 72.887139, "tags": {"addr:district": "Mumbai", "addr:full": "5th Floor, 'A' Wing, Pranik Chamber, Marol, Andheri East, Mumbai", "addr:postcode": "400072", "addr:state": "Maharashtra", "amenity": "hospital", "name": "Axon Hospital & Dialysis Center", "source": "Local Knowledge"}}, {"type": "node", "id": 8798161108, "lat": 19.0899538, "lon": 72.8376684, "tags": {"addr:district": "Mumbai", "addr:full": "BEST Colony, Santacruz West, Mumbai", "addr:postcode": "400054", "addr:state": "Maharashtra", "amenity": "hospital", "name": "Surya Hospital", "source": "Local Knowledge"}}, {"type": "node", "id": 8801598781, "lat": 19.0997223, "lon": 72.8463493, "tags": {"addr:district": "Mumbai", "addr:full": "Plot No. 77, Vile Parle, Mumbai", "addr:postcode": "400057", "addr:state": "Maharashtra", "amenity": "hospital", "name": "Babasaheb Gawde Hospital", "source": "Local Knowledge"}}, {"type": "node", "id": 8816508984, "lat": 19.1172807, "lon": 72.8504612, "tags": {"addr:district": "Thane", "addr:full": "Plot No 516, Teli Gali, Andheri East", "addr:postcode": "400069", "addr:state": "Maharashtra", "amenity": "hospital", "name": "CritiCare Hospital", "source": "Local Knowledge"}}, {"type": "node", "id": 8878325460, "lat": 19.1208876, "lon": 72.8915118}, {"type": "node", "id": 8878325461, "lat": 19.1210112, "lon": 72.8911999}, {"type": "node", "id": 8878325462, "lat": 19.1214471, "lon": 72.8913528}, {"type": "node", "id": 8878325463, "lat": 19.1213437, "lon": 72.8916779}, {"type": "node", "id": 10273976408, "lat": 19.1198836, "lon": 72.8348356}, {"type": "node", "id": 10273979009, "lat": 19.1198581, "lon": 72.8358176}, {"type": "node", "id": 10273979010, "lat": 19.1197415, "lon": 72.8359196}, {"type": "node", "id": 10273979011, "lat": 19.1188571, "lon": 72.8359169}, {"type": "node", "id": 10273979012, "lat": 19.1188903, "lon": 72.8348451}, {"type": "node", "id": 10607816273, "lat": 19.0814514, "lon": 72.8569934, "tags": {"amenity": "hospital", "healthcare": "hospital"}}, {"type": "node", "id": 11045755917, "lat": 19.07613, "lon": 72.8866663}, {"type": "node", "id": 11192643417, "lat": 19.1108158, "lon": 72.8690282, "tags": {"amenity": "hospital", "healthcare": "hospital", "healthcare:speciality": "vaccination", "name": "Nursing Home"}}, {"type": "node", "id": 11263873540, "lat": 19.1015846, "lon": 72.9121067, "tags": {"addr:postcode": "400086", "addr:street": "Amrut Nagar", "amenity": "hospital", "name:en": "Adarsh Hospital", "phone": "022 2500 7853"}}, {"type": "node", "id": 11426731276, "lat": 19.1079187, "lon": 72.8408635, "tags": {"amenity": "hospital", "name": "KLS Memorial Hospital"}}, {"type": "node", "id": 11430465717, "lat": 19.0771201, "lon": 72.9022577, "tags": {"amenity": "hospital", "healthcare": "hospital", "healthcare:speciality": "homeopathy", "name": "Noble chemist", "operator": "Noble pharmaceuticals", "operator:type": "private"}}, {"type": "node", "id": 11601087254, "lat": 19.0824624, "lon": 72.9205877}, {"type": "node", "id": 11601087255, "lat": 19.0797654, "lon": 72.9250938}, {"type": "node", "id": 11601087256, "lat": 19.0766221, "lon": 72.9206091}, {"type": "node", "id": 11601087257, "lat": 19.0798059, "lon": 72.9180771}, {"type": "node", "id": 11617868277, "lat": 19.1245264, "lon": 72.9160425, "tags": {"addr:city": "Mumbai", "addr:district": "Mumbai Suburban", "addr:postcode": "400076", "addr:street": "Adi Sankaracharya Marg", "amenity": "hospital", "healthcare": "hospital", "healthcare:speciality": "otolaryngology", "name": "dr.anjali's hospital", "opening_hours": "Mo-Su 09:00-21:00", "operator": "dr.anjali", "operator:type": "private"}}, {"type": "node", "id": 11975195989, "lat": 19.0899183, "lon": 72.9061156}, {"type": "node", "id": 11975195990, "lat": 19.0909069, "lon": 72.9058555}, {"type": "node", "id": 11975195991, "lat": 19.0910159, "lon": 72.9064751}, {"type": "node", "id": 11975195992, "lat": 19.0910589, "lon": 72.9071215}, {"type": "node", "id": 11975195993, "lat": 19.0910539, "lon": 72.9072556}, {"type": "node", "id": 11975195994, "lat": 19.0909778, "lon": 72.9074004}, {"type": "node", "id": 11975195995, "lat": 19.0904912, "lon": 72.9076847}, {"type": "node", "id": 11975195996, "lat": 19.0895001, "lon": 72.9076579}, {"type": "node", "id": 11975195997, "lat": 19.0892669, "lon": 72.9075426}, {"type": "node", "id": 12311758511, "lat": 19.0845459, "lon": 72.907615, "tags": {"addr:district": "Mumbai", "addr:full": "Khokhani Lane, Opposite Ghatkopar Rly. Station, Ghatkopar", "addr:postcode": "400077", "addr:state": "Maharashtra", "amenity": "hospital", "name": "Parakh Hospital and Research Centre - Ghatkopar", "source": "OpenGovernmentData"}}, {"type": "node", "id": 12506146623, "lat": 19.1199248, "lon": 72.9166566}, {"type": "node", "id": 12506146624, "lat": 19.1196328, "lon": 72.9165471}, {"type": "node", "id": 12506146625, "lat": 19.1196767, "lon": 72.9167307}, {"type": "node", "id": 12506146627, "lat": 19.1195522, "lon": 72.9165154}, {"type": "node", "id": 12506146630, "lat": 19.1206506, "lon": 72.9168786}, {"type": "node", "id": 12506146631, "lat": 19.1208599, "lon": 72.9169889}, {"type": "node", "id": 12506146632, "lat": 19.1210283, "lon": 72.9170719}, {"type": "node", "id": 12506146633, "lat": 19.1210925, "lon": 72.9171094}, {"type": "node", "id": 12625091014, "lat": 19.0755458, "lon": 72.8858573}, {"type": "node", "id": 12632644743, "lat": 19.0809813, "lon": 72.8819702}, {"type": "node", "id": 12632644744, "lat": 19.0809387, "lon": 72.8819715}, {"type": "node", "id": 12632644753, "lat": 19.0810341, "lon": 72.8818542}, {"type": "node", "id": 12637821285, "lat": 19.075722, "lon": 72.8857324}, {"type": "node", "id": 12688155437, "lat": 19.1059731, "lon": 72.8414741, "tags": {"addr:city": "Mumbai", "addr:country": "IN", "addr:district": "Mumbai", "addr:housenumber": "201, Sapphire Plaza", "addr:postcode": "400053", "addr:street": "Dadabhai Road", "amenity": "hospital", "description": "Centre for Dermatology & Lasers", "emergency": "no", "healthcare": "hospital", "healthcare:speciality": "dermatology;dermatovenereology", "level": "2", "mobile": "+91-9136095925", "name": "Auro Skin Clinic", "opening_hours": "Mo-Sa 10:00-18:00", "operator": "Dr Avina Jain", "operator:type": "business", "payment:american_express": "yes", "payment:cash": "yes", "payment:contactless": "yes", "payment:credit_cards": "yes", "payment:debit_cards": "yes", "payment:google_pay": "yes", "payment:mastercard": "yes", "payment:visa": "yes", "website": "https://www.auroskin.in"}}, {"type": "node", "id": 13088720350, "lat": 19.1100931, "lon": 72.8642165, "tags": {"amenity": "hospital", "emergency": "yes", "healthcare": "hospital", "name": "goel hospital"}}, {"type": "node", "id": 13232407990, "lat": 19.0784545, "lon": 72.8447091}, {"type": "node", "id": 13232407991, "lat": 19.0783943, "lon": 72.8452213}, {"type": "node", "id": 13232407992, "lat": 19.078462, "lon": 72.845296}, {"type": "node", "id": 13232407993, "lat": 19.0788047, "lon": 72.8454487}, {"type": "node", "id": 13232407994, "lat": 19.0789204, "lon": 72.8454869}, {"type": "node", "id": 13232407995, "lat": 19.0790557, "lon": 72.8451338}, {"type": "node", "id": 13232407996, "lat": 19.0790768, "lon": 72.8447568}, {"type": "node", "id": 13312852815, "lat": 19.1105125, "lon": 72.8417026}, {"type": "node", "id": 13312852816, "lat": 19.1104281, "lon": 72.841681}, {"type": "node", "id": 13312852817, "lat": 19.1103582, "lon": 72.8417642}, {"type": "node", "id": 13312852818, "lat": 19.1103524, "lon": 72.8424051}, {"type": "node", "id": 13312852819, "lat": 19.1106828, "lon": 72.8421339}, {"type": "node", "id": 13430184140, "lat": 19.1624076, "lon": 72.8345101, "tags": {"amenity": "hospital", "healthcare": "hospital", "name": "GDHGDHGF"}}, {"type": "way", "id": 143950812, "nodes": [1575266025, 1575266022, 1575266020, 1575266023, 1575266025], "tags": {"amenity": "hospital", "healthcare": "hospital", "name": "Karbhari"}}, {"type": "way", "id": 152357350, "nodes": [1651803192, 1651803190, 1651803188, 1651803187, 1651803189, 1651803191, 1651803192], "tags": {"amenity": "hospital", "name": "Holy Spirit Hospital", "wikidata": "Q5886261", "wikipedia": "en:Holy Spirit Hospital (Mumbai)"}}, {"type": "way", "id": 154837118, "nodes": [1673075405, 1673075410, 1673075415, 1673075409, 1673075413, 1673075411, 1673075407, 1673075406, 1673075408, 1673075412, 1673075416, 1673075414, 1673075405], "tags": {"addr:district": "Mumbai", "addr:full": "Kadamwadi, Off.St Anthony, St.Santacruz(East), Near Vishwakarma Samiti Hall", "addr:postcode": "400098", "addr:state": "Maharashtra", "amenity": "hospital", "name": "Niron Hospital and Research Center", "source": "OpenGovernmentData"}}, {"type": "way", "id": 260786332, "nodes": [2663447659, 11045755917, 12625091014, 12637821285, 2663447657, 2663447659], "tags": {"addr:city": "Mumbai", "addr:district": "Mumbai", "addr:full": "Kirol Road, Off LBS Road, Kurla (West)", "addr:housename": "Kohinoor Hospital", "addr:postcode": "400070", "addr:state": "Maharashtra", "addr:street": "Kirol Road, Off LBS Marg, Patelwadi", "amenity": "hospital", "contact:phone": "2267556766", "email": "info@kohinoorhospitals.in", "healthcare": "hospital", "name": "Crtiti Care Asia Hospital", "operator:type": "private", "source": "OpenGovernmentData", "website": "https://www.kohinoorhospitals.in/"}}, {"type": "way", "id": 353139106, "nodes": [3589059696, 3589059695, 3589059694, 3589059590, 3589059585, 12506146625, 3589059586, 12506146627, 12506146624, 12506146623, 3589059589, 3589059693, 12506146630, 12506146631, 12506146632, 12506146633, 3589059696], "tags": {"addr:city": "Mumbai", "addr:district": "MUMBAI", "addr:full": "Hill Side Avenue, Hiranandani Gardens, Powai", "addr:postcode": "400076", "addr:state": "Maharashtra", "amenity": "hospital", "building": "yes", "contact:mobile": "9619597757", "contact:phone": "02225763355;02225763356;02225763357;02225763344;02225763311", "email": "wecare@hiranandanihospital.org", "emergency": "yes", "fax": "022 25763344", "healthcare": "hospital", "name": "Dr. L. H. Hiranandani Hospital", "opening_hours": "24/7", "operator:type": "ngo", "source": "OpenGovernmentData", "website": "https://www.hiranandanihospital.org"}}, {"type": "way", "id": 353174274, "nodes": [3589399326, 3589399327, 3589399303, 12632644744, 12632644743, 3589399323, 12632644753, 3589399326], "tags": {"addr:city": "mumbai", "addr:district": "Mumbai", "addr:full": "Sagar Palace B Wing, Sonapur Lane, F.P.P. Marg, Off L B S Marg, Kurla (W)", "addr:postcode": "400070", "addr:state": "Maharashtra", "addr:street": "father peter periera road", "amenity": "hospital", "building": "yes", "building:levels": "4", "healthcare": "hospital", "name": "City Hospital and Reserch Centre", "source": "OpenGovernmentData"}}, {"type": "way", "id": 353418036, "nodes": [3591988763, 3591988766, 3591988786, 3591988795, 3591988762, 3591988753, 3591988758, 3591988751, 3591988763], "tags": {"amenity": "hospital", "healthcare": "hospital"}}, {"type": "way", "id": 353981991, "nodes": [3597683650, 3597683655, 3597683642, 3597683646, 3597683653, 3597683659, 3597683640, 3597683636, 3597683650], "tags": {"amenity": "hospital", "healthcare": "hospital", "healthcare:speciality": "general", "name": "Kaizen Quro"}}, {"type": "way", "id": 356531751, "nodes": [3619454231, 3619454234, 3619454222, 3619454221, 3619454231], "tags": {"addr:city": "Mumbai", "addr:postcode": "400059", "addr:street": "Maroshi Village Road, vijay nagar LT", "amenity": "hospital", "healthcare": "hospital", "name": "Gokul maternity and Surgical home"}}, {"type": "way", "id": 356531771, "nodes": [3619454172, 3619454171, 3619454151, 3619454153, 3619454172], "tags": {"addr:city": "Mumbai", "addr:housenumber": "LT 3/2+3+4 Sushrut Maternity Hospital, Ground Floor, Vijay Nagar", "addr:postcode": "400059", "addr:street": "Marol Maroshi Village Road", "amenity": "hospital", "description": "The Vein Center is a chain vascular clinic located in Mumbai, India that specializes in the diagnosis and treatment of varicose vein related disorders. As a vascular interventional radiology center, it offers a range of services for the non-surgical treat", "emergency": "yes", "healthcare": "hospital", "healthcare:speciality": "vascular_surgery", "name": "The Vein Center Andheri", "operator": "Dr Joshi Vein Center LLP", "operator:type": "private", "phone": "+918080866266", "source": "local knowledge", "start_date": "2013-01-03", "website": "https://tvcm.in"}}, {"type": "way", "id": 436606769, "nodes": [3546099443, 4344894369, 4344894376, 4344894373, 4344894379, 4344894381, 4344894382, 4344894387, 4344894389, 4344894392, 4344894394, 4344894395, 4344894390, 4344894386, 3546099443], "tags": {"addr:city": "mumbai", "addr:district": "Mumbai", "addr:full": "Pirojshanagar, Vikhroli(E)", "addr:postcode": "400083", "addr:state": "Maharashtra", "addr:street": "Pirojsha Godrej Marg", "amenity": "hospital", "healthcare": "hospital", "name": "Godrej Memorial Hospital, Mumbai", "source": "OpenGovernmentData"}}, {"type": "way", "id": 554967613, "nodes": [5355278566, 5355278565, 5355278564, 5355278563, 5355278562, 5355278561, 5355278566], "tags": {"addr:city": "Mumbai", "addr:district": "Mumbai", "addr:full": "Hindu Hruday Samrat Balasaheb Thackerey Trauma Care, Opposite Jogeshwari Vikhroli Link Road, Jogeshwari East", "addr:postcode": "400060", "addr:state": "Maharashtra", "addr:street": "Western Express Highway", "amenity": "hospital", "healthcare": "hospital", "healthcare:speciality": "trauma", "name": "Hindu Hruday Samrat Balasaheb Thackerey Trauma Care Municipal Hospital", "name:etymology:wikidata": "Q61193", "opening_hours": "Mo-Su 07:00-23:00", "source": "OpenGovernmentData"}}, {"type": "way", "id": 628890939, "nodes": [5937631038, 5937631037, 5937631036, 5937631035, 5937631034, 5937631033, 5937631032, 5937631031, 5937631038], "tags": {"amenity": "hospital", "name": "Aarey Hospital"}}, {"type": "way", "id": 723323008, "nodes": [6784511284, 668708218, 6784511283, 6784511282, 6784511281, 6784511280, 6784511276, 5882322896, 6784511279, 6784511284], "tags": {"amenity": "hospital", "healthcare": "hospital", "name": "IIT Hospital"}}, {"type": "way", "id": 959572919, "nodes": [8878325463, 8878325462, 8878325461, 8878325460, 8878325463], "tags": {"addr:district": "Mumbai", "addr:full": "Tunga, Powai, Andheri East, Mumbai", "addr:postcode": "400072", "addr:state": "Maharashtra", "amenity": "hospital", "name": "Nirali A M Naik Charitable Health-Care Facility", "name:etymology:wikidata": "Q2121969", "source": "Local Knowledge"}}, {"type": "way", "id": 1123412924, "nodes": [10273976408, 10273979012, 10273979011, 10273979010, 10273979009, 10273976408], "tags": {"addr:district": "Mumbai Suburban", "addr:full": "Gulmohar Road, Gulmohar Colony, Andheri West, Mumbai", "addr:postcode": "400058", "addr:state": "Maharastra", "amenity": "hospital", "name": "Khubchandani Hospital", "source": "Local Knowledge"}}, {"type": "way", "id": 1247980197, "nodes": [11601087254, 11601087255, 11601087256, 11601087257, 11601087254], "tags": {"amenity": "hospital", "emergency": "yes", "healthcare": "hospital", "healthcare:speciality": "emergency", "name": "jansava hospital"}}, {"type": "way", "id": 1291729684, "nodes": [11975195997, 11975195996, 11975195995, 8797192964, 11975195994, 11975195993, 11975195992, 11975195991, 11975195990, 11975195989, 11975195997], "tags": {"addr:district": "Mumbai", "addr:full": "Gandhi Nagar, Kirti Vihar, Ghatkopar West, Mumbai", "addr:postcode": "400086", "addr:state": "Maharashtra", "amenity": "hospital", "name": "Sarvodaya Hospital", "source": "Local Knowledge"}}, {"type": "way", "id": 1442093565, "nodes": [13232407990, 13232407991, 13232407992, 13232407993, 13232407994, 13232407995, 13232407996, 13232407990], "tags": {"addr:full": "11th Road, Golibar, Santacruz East", "addr:postcode": "400055", "addr:state": "Maharashtra", "amenity": "hospital", "healthcare": "hospital", "name": "V.N. Desai Hospital", "name:en": "V.N. Desai Hospital", "operator": "BMC", "operator:type": "government", "website": "https://mumbaisuburban.gov.in/en/public-utility/v-n-desai-municipal-general-hospital/"}}, {"type": "way", "id": 1447315313, "nodes": [3589607630, 3589607625, 3589607622, 3589607628, 3589607630], "tags": {"addr:city": "Mumbai", "addr:postcode": "400054", "addr:street": "Besant Road", "amenity": "hospital", "description": "it is a nursing home", "healthcare": "hospital", "healthcare:speciality": "general", "name": "Mangal nursing home", "website": "https://www.justdial.com/Mumbai/Mangal-Multispeciality-Hospital-ICU-Near-Santacurz-Station-Santacruz-West/022PXX22-XX22-121008193335-N5M5_BZDET"}}, {"type": "way", "id": 1451543691, "nodes": [13312852815, 13312852816, 13312852817, 13312852818, 13312852819, 13312852815], "tags": {"addr:district": "Mumbai", "addr:housenumber": "1234", "addr:postcode": "400058", "addr:street": "Swami Vivekanand Road", "amenity": "hospital", "emergency": "yes", "healthcare": "hospital", "healthcare:speciality": "general;psychiatry", "name": "hehehe", "operator": "wert"}}]}