{"version": 0.6, "generator": "Overpass API 0.7.62.8 e802775f", "osm3s": {"timestamp_osm_base": "2026-01-13T04:17:00Z", "copyright": "The data included in this document is from www.openstreetmap.org. The data is made available under ODbL."}, "elements": [{"type": "node", "id": 349270023, "lat": 17.4444337, "lon": 78.3860746, "tags": {"addr:district": "Hyderabad", "addr:full": "Plot No 8 & 9, Arunodaya Cooperative Housing Society, Vittal Rao nagar, Madhapur", "addr:postcode": "500081", "addr:state": "Telangana", "amenity": "hospital", "healthcare": "hospital", "name": "Image Hospitals", "name:te": "\u0c07\u0c2e\u0c47\u0c1c\u0c4d \u0c39\u0c3e\u0c38\u0c4d\u0c2a\u0c3f\u0c1f\u0c32\u0c4d\u0c38\u0c4d", "source": "OpenGovernmentData"}}, {"type": "node", "id": 1215214084, "lat": 17.4629614, "lon": 78.3673949, "tags": {"addr:city": "Hyderabad", "addr:full": "Plot No: 3 & 4, Jayalaxmi Apartments, Beside Bajaj Electronics, Near Kondapur X Roads", "addr:postcode": "500084", "addr:state": "Telangana", "amenity": "hospital", "contact:phone": "04023119469; 40188229", "healthcare": "hospital", "name": "LEAF HOSPITAL", "operator:type": "private", "source": "OpenGovernmentData"}}, {"type": "node", "id": 1224523179, "lat": 17.4535178, "lon": 78.364084, "tags": {"amenity": "hospital", "emergency": "no", "healthcare": "hospital", "name": "Ambicare Hospital"}}, {"type": "node", "id": 1702266641, "lat": 17.4696017, "lon": 78.3660584, "tags": {"amenity": "hospital", "healthcare": "hospital", "name": "haritha hospitals"}}, {"type": "node", "id": 2101693334, "lat": 17.4627567, "lon": 78.3524066, "tags": {"emergency": "yes"}}, {"type": "node", "id": 2101693335, "lat": 17.4626319, "lon": 78.3535372}, {"type": "node", "id": 2101693336, "lat": 17.4636422, "lon": 78.3524786}, {"type": "node", "id": 2101693337, "lat": 17.4635118, "lon": 78.3536231}, {"type": "node", "id": 2600832597, "lat": 17.417897, "lon": 78.3400705}, {"type": "node", "id": 2600832598, "lat": 17.4185739, "lon": 78.3389456}, {"type": "node", "id": 2600832599, "lat": 17.4174322, "lon": 78.3381909}, {"type": "node", "id": 2600832600, "lat": 17.4167552, "lon": 78.3393157}, {"type": "node", "id": 3616700283, "lat": 17.4465602, "lon": 78.3839619}, {"type": "node", "id": 3616700284, "lat": 17.4467102, "lon": 78.3838326}, {"type": "node", "id": 3616700286, "lat": 17.4468102, "lon": 78.3842808}, {"type": "node", "id": 3616700287, "lat": 17.4469603, "lon": 78.3841515}, {"type": "node", "id": 3619348034, "lat": 17.4599321, "lon": 78.3660837, "tags": {"amenity": "hospital", "healthcare": "hospital", "name": "Apoolo Clinic"}}, {"type": "node", "id": 4132325566, "lat": 17.4182315, "lon": 78.3395147}, {"type": "node", "id": 4226395189, "lat": 17.4708232, "lon": 78.3098931}, {"type": "node", "id": 4226395190, "lat": 17.4708404, "lon": 78.3110992}, {"type": "node", "id": 4226395191, "lat": 17.4713115, "lon": 78.3110918}, {"type": "node", "id": 4226395192, "lat": 17.4713188, "lon": 78.3116012}, {"type": "node", "id": 4226395193, "lat": 17.4704397, "lon": 78.311615}, {"type": "node", "id": 4226395194, "lat": 17.4701604, "lon": 78.3113653}, {"type": "node", "id": 4226395197, "lat": 17.4701493, "lon": 78.3105839}, {"type": "node", "id": 4226395198, "lat": 17.4706805, "lon": 78.3105756}, {"type": "node", "id": 4226395199, "lat": 17.4706708, "lon": 78.3098955}, {"type": "node", "id": 4452950392, "lat": 17.4309578, "lon": 78.3720084}, {"type": "node", "id": 4679716389, "lat": 17.466147, "lon": 78.3677443, "tags": {"addr:full": "# 1-112 / 86, Survey No 5 / EE, Beside Andhra Bank, Near RTA Office,Kondapur, Serilingampally Mandal", "addr:postcode": "500084", "addr:state": "Telangana", "amenity": "hospital", "contact:phone": "040-67505050", "healthcare": "hospital", "name": "KIMS HOSPITAL", "name:en": "KIMS Hospitals", "operator:type": "private", "source": "OpenGovernmentData", "website": "www.kimshospitals.in"}}, {"type": "node", "id": 5405055776, "lat": 17.4422328, "lon": 78.3587144, "tags": {"addr:district": "Hyderabad", "addr:full": "Plot Number 4, 5, 23 and 24, Gachibowli Stadium Main Road", "addr:postcode": "500032", "addr:state": "Telangana", "amenity": "hospital", "email": "info@himagirihospitals.com", "emergency_telephone_code": "040 23001111", "fax": "040 2300 4204", "healthcare": "hospital", "healthcare:speciality": "multi specialty", "medical_system": "Allopathic", "name": "Himagiri Hospital", "opening_hours": "Su 09:00-21:00", "operator:type": "private", "phone": "040 23004206;040 23004207;040 23004208;040 23004209", "source": "OpenGovernmentData", "website": "https://www.himagirihospitals.com/"}}, {"type": "node", "id": 5682059254, "lat": 17.4788093, "lon": 78.3202299}, {"type": "node", "id": 5682059255, "lat": 17.4788008, "lon": 78.3203676}, {"type": "node", "id": 5682059256, "lat": 17.4786931, "lon": 78.3203696}, {"type": "node", "id": 5682059257, "lat": 17.4786997, "lon": 78.320219}, {"type": "node", "id": 5956425355, "lat": 17.4305631, "lon": 78.3717128}, {"type": "node", "id": 5956425356, "lat": 17.4301131, "lon": 78.3723728}, {"type": "node", "id": 5956425357, "lat": 17.4305078, "lon": 78.3726684}, {"type": "node", "id": 6046241877, "lat": 17.4469413, "lon": 78.3796635}, {"type": "node", "id": 6046241878, "lat": 17.4466598, "lon": 78.3795938}, {"type": "node", "id": 6046241879, "lat": 17.4466419, "lon": 78.3796581}, {"type": "node", "id": 6046241880, "lat": 17.4469276, "lon": 78.3797438}, {"type": "node", "id": 6151537449, "lat": 17.4503845, "lon": 78.3825608, "tags": {"amenity": "hospital", "healthcare": "hospital", "healthcare:speciality": "dental_oral_maxillo_facial_surgery;orthodontics", "level": "3", "name": "Apollo Dental Clinic, Hitech City", "operator": "Apollo Hospitals", "operator:type": "private", "operator:wikidata": "Q4780321"}}, {"type": "node", "id": 6513396181, "lat": 17.4016591, "lon": 78.3848655, "tags": {"addr:district": "Hyderabad", "addr:full": "Near Bus Stop Manikonda,Puppalaguda Manikonda Main Road", "addr:postcode": "500089", "addr:state": "Telangana", "amenity": "hospital", "name": "Sri Balaji Hospital", "source": "OpenGovernmentData"}}, {"type": "node", "id": 6536715096, "lat": 17.4707013, "lon": 78.3109143, "tags": {"addr:district": "Hyderabad", "addr:full": "1-100/1/CCH, Near Aparna Sarovar, Nallagandla, Serilingampally", "addr:postcode": "500019", "addr:state": "Telangana", "amenity": "hospital", "contact:phone": "18002082000", "emergency": "yes", "healthcare": "hospital", "name": "American Oncology Institute", "source": "OpenGovernmentData", "website": "https://www.americanoncology.com"}}, {"type": "node", "id": 6536715097, "lat": 17.4707742, "lon": 78.3113113, "tags": {"addr:district": "Hyderabad", "addr:full": "Near Aparna Sarovar, Nallagandla, Serilingampally", "addr:postcode": "500019", "addr:state": "Telangana", "aeroway": "no", "amenity": "hospital", "contact:email": "info@citizenshospitals.com", "emergency": "yes", "health_facility:type": "Outpatient and Inpatient Services;x ray and ultrasound;ECG;2D Echo Digital;lab services through our partner;AmPath", "healthcare": "hospital", "healthcare:speciality": "Anesthesiology;Bariatric Surgery;Cardiology;Critical Care;Dentistry;Dermatology;Diabetology;ENT;Gastroenterology;General Surgery;Internal Medicine;Nephrology;Neurology;Gynaecology;Orthopedics;Pediatrics;Surgical Oncology;Urology", "medical_system": "Allopathic", "name": "Citizens Specialty Hospital", "operator:type": "private", "phone": "040 67191919", "source": "OpenGovernmentData", "website": "https://www.citizenshospitals.com/", "wheelchair": "yes"}}, {"type": "node", "id": 6537360032, "lat": 17.4506967, "lon": 78.3640308, "tags": {"addr:district": "Hyderabad", "addr:full": "Opp. Jayabheri Enclave, Anjaiah Nagar, Near Botanical Garden, Gachibowli", "addr:postcode": "500032", "addr:state": "Telangana", "amenity": "hospital", "healthcare": "hospital", "name": "Rajitha Hospital", "source": "OpenGovernmentData"}}, {"type": "node", "id": 6548782136, "lat": 17.4464363, "lon": 78.3786482, "tags": {"addr:city": "Hyderabad", "addr:district": "Rangareddy", "addr:full": "Plot No:. 7, Sy. No. 64, Behind Cyber Towers, Patrika Nagar, Hitech City, Near IBIS Hotel Lane, Madhapur", "addr:postcode": "500081", "addr:state": "Telangana", "amenity": "hospital", "contact:phone": "4067076700", "email": "info@maxcuresuyosha.com", "healthcare": "hospital", "name": "MAXCURE SUYOSHA WOMAN & CHILD HOSPITAL", "operator:type": "private", "source": "OpenGovernmentData", "website": "https://www.maxcuresuyosha.com/"}}, {"type": "node", "id": 6548854401, "lat": 17.4497269, "lon": 78.3672388, "tags": {"addr:district": "Hyderabad", "addr:full": "ANJAIAH NAGAR COMMUNITY HALL ROAD, GACHIBOWLI", "addr:postcode": "500032", "addr:state": "Telangana", "amenity": "hospital", "contact:phone": "4031000697", "healthcare": "hospital", "name": "Kakatiya Hospital", "operator:type": "private", "source": "OpenGovernmentData"}}, {"type": "node", "id": 6549184413, "lat": 17.4448396, "lon": 78.3855052, "tags": {"addr:district": "Hyderabad", "addr:full": "#1-120/3, Plot No.3, Behind Karachi Bakery, Survey No.64, Madhapur", "addr:postcode": "500081", "addr:state": "Telangana", "amenity": "hospital", "contact:phone": "040 67108108", "healthcare": "hospital", "name": "Oakridge Hospitals", "operator:type": "private", "source": "OpenGovernmentData", "website": "http://oakridgehospitals.com/"}}, {"type": "node", "id": 6549198596, "lat": 17.4620023, "lon": 78.3669068, "tags": {"addr:city": "Hyderabad", "addr:full": "H.No: 2-41/11/3 & 4, QZ PLAZA, KOTHAGUDA CROSS ROADS, KONDAPUR, KOTHAGUDA (K.V.Rangareddy), SERILINGAMPALLY", "addr:postcode": "500084", "addr:state": "Telangana", "amenity": "hospital", "contact:phone": "23005789", "healthcare": "hospital", "name": "REFRACTO EYE HOSPITAL (A GROUP OF CREDIBLE HEALTH CARE PVT LTD )", "operator:type": "private", "source": "OpenGovernmentData"}}, {"type": "node", "id": 6549400717, "lat": 17.4194759, "lon": 78.3715081, "tags": {"addr:city": "Hyderabad", "addr:full": "Plot No. 1276, Road No. 63A, Jubilee Hills", "addr:postcode": "500033", "addr:state": "Telangana", "amenity": "hospital", "contact:phone": "040 6534448 ;040 23558855 ;040 23552999", "healthcare": "hospital", "name": "PACIFIC CLINICS (A Unit of Pacific Hospitals Pvt Ltd.)", "operator:type": "private", "source": "OpenGovernmentData"}}, {"type": "node", "id": 6549425557, "lat": 17.4438231, "lon": 78.3666245}, {"type": "node", "id": 6562677269, "lat": 17.4300284, "lon": 78.3742265, "tags": {"addr:district": "Hyderabad", "addr:full": "3rd Floor, Millennium Square, Near Commissionerate of Police, Gachibowli", "addr:postcode": "500032", "addr:state": "Telangana", "amenity": "hospital", "contact:mobile": "040-69000370", "healthcare": "hospital", "healthcare:speciality": "Maternity;Gynaecology;Pediatrics;Fertility;Intensive Care;Fetal Care;Cosmetology", "medical_system": "Allopathic", "name": "Motherhood Clinic", "operator:type": "private", "source": "OpenGovernmentData"}}, {"type": "node", "id": 6811748994, "lat": 17.4279239, "lon": 78.3240814, "tags": {"addr:district": "Ranga Reddy", "addr:full": "H. No. 5-1/99/A/B, Near Padmasree Gardens, Gowli Doddi, Hyderabad", "addr:postcode": "500032", "addr:state": "Telangana", "amenity": "hospital", "contact:mobile": "7337456268", "email": "info@srijahospitals.com", "name": "Srija Hospital", "source": "OpenGovernmentData", "website": "https://srijahospitals.com/"}}, {"type": "node", "id": 6811749146, "lat": 17.4795083, "lon": 78.3202454, "tags": {"addr:district": "Hyderabad", "addr:full": "ADARSH NAGAR, OPPOOSITE TO GULMOHAR PARK, Serilingampally", "addr:state": "Telangana", "amenity": "hospital", "healthcare": "hospital", "name": "Shreya Hospitals", "operator:type": "private", "source": "OpenGovernmentData"}}, {"type": "node", "id": 6811749150, "lat": 17.4003589, "lon": 78.382573, "tags": {"addr:district": "Hyderabad", "addr:full": "Opp. Indian Bank, Puppalaguda, Manikonda", "addr:postcode": "500089", "addr:state": "Telangana", "amenity": "hospital", "name": "Shobha Hospital", "source": "OpenGovernmentData"}}, {"type": "node", "id": 6855228385, "lat": 17.4659669, "lon": 78.3678073, "tags": {"addr:street": "Gachibowli - Miyapur Highway", "amenity": "hospital", "healthcare": "hospital", "name": "KIMS Cruddle", "opening_hours": "24/7"}}, {"type": "node", "id": 6937779552, "lat": 17.4594547, "lon": 78.3659801, "tags": {"amenity": "hospital", "healthcare": "hospital", "name": "Apollo"}}, {"type": "node", "id": 8013052988, "lat": 17.4423249, "lon": 78.3665192}, {"type": "node", "id": 8013052989, "lat": 17.442449, "lon": 78.3663992}, {"type": "node", "id": 8013052990, "lat": 17.4425453, "lon": 78.3663408}, {"type": "node", "id": 8013052991, "lat": 17.4426444, "lon": 78.3660974}, {"type": "node", "id": 8013052992, "lat": 17.4427228, "lon": 78.3659137}, {"type": "node", "id": 8013052993, "lat": 17.4428834, "lon": 78.3655456}, {"type": "node", "id": 8013052994, "lat": 17.4430817, "lon": 78.3652975}, {"type": "node", "id": 8013052995, "lat": 17.4423601, "lon": 78.3664213}, {"type": "node", "id": 8013052996, "lat": 17.4423857, "lon": 78.3665554}, {"type": "node", "id": 8013052997, "lat": 17.4430535, "lon": 78.3667338}, {"type": "node", "id": 8013052998, "lat": 17.4430446, "lon": 78.3668183}, {"type": "node", "id": 8013052999, "lat": 17.4437124, "lon": 78.3668666}, {"type": "node", "id": 8013053000, "lat": 17.4437758, "lon": 78.3672729}, {"type": "node", "id": 8013053001, "lat": 17.4438186, "lon": 78.3674151}, {"type": "node", "id": 8013053002, "lat": 17.4440918, "lon": 78.3670744}, {"type": "node", "id": 8013053003, "lat": 17.4440214, "lon": 78.3669195}, {"type": "node", "id": 8013053004, "lat": 17.4440016, "lon": 78.3668961}, {"type": "node", "id": 8013053005, "lat": 17.4439798, "lon": 78.3668867}, {"type": "node", "id": 8013053006, "lat": 17.4439517, "lon": 78.3668907}, {"type": "node", "id": 8013053007, "lat": 17.4439191, "lon": 78.3668961}, {"type": "node", "id": 8013053008, "lat": 17.4438756, "lon": 78.3668947}, {"type": "node", "id": 8013053009, "lat": 17.4438583, "lon": 78.3668813}, {"type": "node", "id": 8013053010, "lat": 17.4437137, "lon": 78.3658011}, {"type": "node", "id": 8013053011, "lat": 17.4436043, "lon": 78.3651473}, {"type": "node", "id": 8013053012, "lat": 17.4434911, "lon": 78.3651553}, {"type": "node", "id": 8013053013, "lat": 17.4434322, "lon": 78.3649756}, {"type": "node", "id": 8013053014, "lat": 17.443344, "lon": 78.3649857}, {"type": "node", "id": 8013053015, "lat": 17.4432762, "lon": 78.3650775}, {"type": "node", "id": 8739430485, "lat": 17.3988443, "lon": 78.3652937, "tags": {"addr:city": "Hyderabad", "addr:housenumber": "Hallmark Empyrean Commercial Complex", "addr:postcode": "500089", "addr:street": "Puppalaguda - Narsingi Road", "amenity": "hospital", "description": "Gynecologist, Fertility specialist, Laparoscopy surgeon, Cosmetic Gynecologist", "healthcare": "hospital", "healthcare:speciality": "gynaecology;maternity;cosmetic;fertility;surgery", "name": "AMVI Hospital", "phone": "+91 9100009669", "website": "https://www.amvihospitals.com/"}}, {"type": "node", "id": 8739449727, "lat": 17.3987165, "lon": 78.3653, "tags": {"addr:city": "Hyderabad", "addr:housenumber": "AMVI Hospital", "addr:postcode": "500089", "addr:street": "Puppalaguda - Narsingi Road", "amenity": "hospital", "description": "Gynecologist, Fertility Specialist, Laparoscopy surgeon, Cosmetic Gynecologist", "email": "amvihospitals@gmail.com", "healthcare": "hospital", "healthcare:speciality": "gynaecology;fertility;surgery;cosmetic", "name": "Dr Shaivalini - Gynecologist", "operator": "Dr Shaivalini", "operator:type": "private", "phone": "9100009669", "website": "https://www.amvihospitals.com/", "wheelchair": "yes"}}, {"type": "node", "id": 8747950688, "lat": 17.4446234, "lon": 78.384659, "tags": {"addr:district": "Rangareddy", "addr:full": "Vittal Rao Nagar, HITEC City, Madhapur", "addr:postcode": "500081", "addr:state": "Telangana", "amenity": "hospital", "healthcare": "hospital", "name": "Hegde Hospital", "source": "Local Knowledge"}}, {"type": "node", "id": 8748429666, "lat": 17.4554623, "lon": 78.3720097, "tags": {"addr:district": "Rangareddy", "addr:full": "Survey No.9, White Field Road, HITEC City", "addr:postcode": "500081", "addr:state": "Telangana", "amenity": "hospital", "healthcare": "hospital", "name": "Rainbow Children Hospital", "source": "Local Knowledge"}}, {"type": "node", "id": 8751771666, "lat": 17.4644176, "lon": 78.3682452, "tags": {"addr:district": "Rangareddy", "addr:full": "Door no 1-111/4/46 & 48/E beside NISUM, Khanamet Road, Kondapur, HITEC City", "addr:postcode": "500084", "addr:state": "Telangana", "amenity": "hospital", "healthcare": "hospital", "name": "Health Valley Hospital", "source": "Local Knowledge"}}, {"type": "node", "id": 8759381105, "lat": 17.4507108, "lon": 78.3631503, "tags": {"addr:district": "Hyderabad", "addr:full": "Plot NO.21, Level, 2, Jayabheri Enclave, Gachibowli, Hyderabad", "addr:postcode": "500032", "addr:state": "Telangana", "amenity": "hospital", "healthcare": "hospital", "name": "Praba's VCare Health Clinic (P) Ltd, Gachibowli", "source": "Local Knowledge"}}, {"type": "node", "id": 10150942414, "lat": 17.4605484, "lon": 78.3547514, "tags": {"amenity": "hospital", "healthcare": "hospital"}}, {"type": "node", "id": 10250377758, "lat": 17.4168548, "lon": 78.3391502}, {"type": "node", "id": 10790318146, "lat": 17.4310175, "lon": 78.3716983, "tags": {"amenity": "hospital", "brand": "Dr Agarwals", "healthcare": "hospital", "name": "Dr Agarwals Eye Hospital", "operator": "Dr. Agarwal's Eye Hospital", "operator:type": "private", "operator:wikidata": "Q17052044"}}, {"type": "node", "id": 11230719677, "lat": 17.4707752, "lon": 78.3116097}, {"type": "node", "id": 11770988839, "lat": 17.4364246, "lon": 78.3675806, "tags": {"amenity": "hospital", "check_date": "2024-03-29", "healthcare": "hospital", "name": "Omega Hospitals"}}, {"type": "node", "id": 11770993380, "lat": 17.4622687, "lon": 78.384176, "tags": {"amenity": "hospital", "check_date": "2024-03-29", "healthcare": "hospital", "name": "Yashoda Hospitals"}}, {"type": "node", "id": 12047779405, "lat": 17.4018633, "lon": 78.349914}, {"type": "node", "id": 12047779406, "lat": 17.4019457, "lon": 78.3495358}, {"type": "node", "id": 12047779407, "lat": 17.4015068, "lon": 78.3495054}, {"type": "node", "id": 12047779408, "lat": 17.4015113, "lon": 78.3492836}, {"type": "node", "id": 12047779409, "lat": 17.4013664, "lon": 78.3492929}, {"type": "node", "id": 12047779413, "lat": 17.4011316, "lon": 78.3506388}, {"type": "node", "id": 12047779414, "lat": 17.401321, "lon": 78.3506645}, {"type": "node", "id": 12047779415, "lat": 17.4014748, "lon": 78.3504684}, {"type": "node", "id": 12047779416, "lat": 17.401795, "lon": 78.3502865}, {"type": "node", "id": 12945249862, "lat": 17.4012321, "lon": 78.3501071}, {"type": "node", "id": 12945249863, "lat": 17.4013291, "lon": 78.3495778}, {"type": "node", "id": 12951255501, "lat": 17.4635854, "lon": 78.3530355}, {"type": "node", "id": 13285248846, "lat": 17.4482414, "lon": 78.3605759, "tags": {"amenity": "hospital", "check_date": "2025-11-06", "healthcare": "hospital", "name": "Pi Health Hospital"}}, {"type": "node", "id": 13423743515, "lat": 17.4276743, "lon": 78.3749073, "tags": {"amenity": "hospital", "emergency": "yes", "healthcare": "hospital", "name": "Arete Hospitals"}}, {"type": "way", "id": 200173462, "nodes": [2101693336, 12951255501, 2101693337, 2101693335, 2101693334, 2101693336], "tags": {"addr:district": "Hyderabad", "addr:full": "1-55/3, Near Chirec International School, Kondapur", "addr:postcode": "500084", "addr:state": "Telangana", "addr:street": "Sri Ram Nagar", "addr:subdistrict": "Serilingampally", "amenity": "hospital", "emergency": "yes", "healthcare": "hospital", "landuse": "hospital Grounds", "name": "Government Area Hospital, Kondapur", "source": "OpenGovernmentData"}}, {"type": "way", "id": 254295845, "nodes": [2600832597, 4132325566, 2600832598, 2600832599, 10250377758, 2600832600, 2600832597], "tags": {"addr:district": "Hyderabad", "addr:full": "Plot Number 3, Road Number 2, I.T and Financial District, Nanakramguda, Gachibowli", "addr:postcode": "500032", "addr:state": "Telangana", "amenity": "hospital", "contact:tollfree": "1800 108 1007", "emergency": "yes", "emergency_telephone_code": "040 67000111", "health_facility:type": "Surgical Specialities and Operation Theatres; ICU; ATM; WIFI; Business Centre", "healthcare": "hospital", "healthcare:speciality": "multi specialty", "medical_system": "Allopathic", "name": "Continental Hospitals", "operator:type": "private", "phone": "040-67000000; 040-67000071", "source": "OpenGovernmentData", "website": "https://www.continentalhospitals.com/"}}, {"type": "way", "id": 356159628, "nodes": [3616700284, 3616700287, 3616700286, 3616700283, 3616700284], "tags": {"addr:district": "Hyderabad", "addr:full": "Plot No:23, Huda Techno Enclave, Patrika Nagar, Beside Avasa Hotel, Pillar No. 18, MADHAPUR", "addr:postcode": "500081", "addr:state": "Telangana", "amenity": "hospital", "building": "yes", "building:levels": "5", "contact:phone": "040 48486868", "healthcare": "hospital", "name": "Pace Hospitals", "operator:type": "private", "source": "OpenGovernmentData"}}, {"type": "way", "id": 422917298, "nodes": [4226395189, 4226395190, 4226395191, 4226395192, 11230719677, 4226395193, 4226395194, 4226395197, 4226395198, 4226395199, 4226395189], "tags": {"amenity": "hospital", "healthcare": "hospital"}}, {"type": "way", "id": 596480014, "nodes": [5682059254, 5682059255, 5682059256, 5682059257, 5682059254], "tags": {"amenity": "hospital", "healthcare": "hospital"}}, {"type": "way", "id": 630869585, "nodes": [5956425355, 5956425356, 5956425357, 4452950392, 5956425355], "tags": {"addr:street": "Hi Tech City Main Road", "amenity": "hospital", "check_date": "2024-03-29", "healthcare": "hospital", "internet_access": "wlan", "name": "Care Hospitals", "name:en": "Care Hospitals", "opening_hours": "24/7", "phone": "040-33623500", "website": "https://www.carehospitals.com/hitechcity/"}}, {"type": "way", "id": 642171981, "nodes": [6046241877, 6046241878, 6046241879, 6046241880, 6046241877], "tags": {"amenity": "hospital", "building": "yes", "healthcare": "hospital"}}, {"type": "way", "id": 859663303, "nodes": [8013052999, 8013052998, 8013052997, 8013052996, 8013052988, 8013052995, 8013052989, 8013052990, 8013052991, 8013052992, 8013052993, 8013052994, 8013053015, 8013053014, 8013053013, 8013053012, 8013053011, 8013053010, 6549425557, 8013053009], "tags": {"barrier": "wall", "source": "OpenGovernmentData"}}, {"type": "way", "id": 872949694, "nodes": [8013053009, 8013053008, 8013053007, 8013053006, 8013053005, 8013053004, 8013053003, 8013053002, 8013053001, 8013053000, 8013052999], "tags": {"source": "OpenGovernmentData"}}, {"type": "way", "id": 1300732264, "nodes": [12047779409, 12945249863, 12945249862, 12047779413, 12047779414, 12047779415, 12047779416, 12047779405, 12047779406, 12047779407, 12047779408, 12047779409], "tags": {"amenity": "hospital", "healthcare": "hospital", "name": "Sankaraya Eye Hospital"}}, {"type": "relation", "id": 11902466, "members": [{"type": "way", "ref": 872949694, "role": "outer"}, {"type": "way", "ref": 859663303, "role": "outer"}], "tags": {"addr:city": "Hyderabad", "addr:district": "Rangareddy", "addr:full": "Plot No 2/3/4/5, Survey No. 136/1, Mindspace Road, Gachibowli", "addr:postcode": "500032", "addr:state": "Telangana", "amenity": "hospital", "contact:email": "info@aighospitals.com", "contact:phone": "040 42444222", "description": "A UNIT OF ASIAN INSTITUTE OF GASTROENTEROLOGY PVT LTD", "healthcare": "hospital", "name": "AIG HOSPITALS", "operator:type": "private", "type": "multipolygon", "website": "https://aighospitals.com"}}]}