{"version": 0.6, "generator": "Overpass API 0.7.62.8 e802775f", "osm3s": {"timestamp_osm_base": "2026-01-12T18:36:15Z", "copyright": "The data included in this document is from www.openstreetmap.org. The data is made available under ODbL."}, "elements": [{"type": "node", "id": 443612463, "lat": 13.0371728, "lon": 77.6409543, "tags": {"amenity": "hospital", "name": "Sri Vijayalakshmi Pragathi Hospital", "name:kn": "\u0cb6\u0ccd\u0cb0\u0cc0 \u0cb5\u0cbf\u0c9c\u0caf\u0cb2\u0c95\u0ccd\u0cb7\u0ccd\u0cae\u0cc0 \u0caa\u0ccd\u0cb0\u0c97\u0ca4\u0cbf \u0c86\u0cb8\u0ccd\u0caa\u0ca4\u0ccd\u0cb0\u0cc6"}}, {"type": "node", "id": 1464782617, "lat": 13.0973922, "lon": 77.5964894, "tags": {"amenity": "hospital", "name": "Deeksha Orthopaedic Hospital"}}, {"type": "node", "id": 1464782936, "lat": 13.0993739, "lon": 77.5958636}, {"type": "node", "id": 1464783198, "lat": 13.0997316, "lon": 77.5980216, "tags": {"amenity": "hospital", "name": "Shushrusha Hospital"}}, {"type": "node", "id": 1611862023, "lat": 13.0512768, "lon": 77.5943195}, {"type": "node", "id": 1611862035, "lat": 13.0506624, "lon": 77.5934113}, {"type": "node", "id": 1611862042, "lat": 13.0514034, "lon": 77.593583}, {"type": "node", "id": 1611862066, "lat": 13.0505027, "lon": 77.5941371}, {"type": "node", "id": 1988322107, "lat": 13.0834023, "lon": 77.6348642, "tags": {"amenity": "hospital", "name": "Dhanavantri Hospital", "name:kn": "\u0ca7\u0ca8\u0cb5\u0c82\u0ca4\u0ccd\u0cb0\u0cbf \u0c86\u0cb8\u0ccd\u0caa\u0ca4\u0ccd\u0cb0\u0cc6"}}, {"type": "node", "id": 4445179843, "lat": 13.0830463, "lon": 77.6347174, "tags": {"addr:city": "Bangalore", "addr:housenumber": "No.30", "addr:postcode": "560064", "addr:street": "Thanisandra Main Road, Chokkanahalli", "amenity": "hospital", "name": "Regal Hospital", "phone": "08033082383", "website": "https://regalhospital.com/"}}, {"type": "node", "id": 4544234694, "lat": 13.0957329, "lon": 77.6273067, "tags": {"addr:district": "Bengaluru Urban", "addr:full": "Agrahara Badavane, Bengaluru", "addr:postcode": "560064", "addr:state": "Karnataka", "amenity": "hospital", "name": "Agarahara Government Hospital", "name:kn": "\u0cb8\u0cb0\u0ccd\u0c95\u0cbe\u0cb0\u0cbf \u0c86\u0cb8\u0ccd\u0caa\u0ca4\u0ccd\u0cb0\u0cc6", "source": "Local Knowledge"}}, {"type": "node", "id": 4800411936, "lat": 13.0995076, "lon": 77.5967218}, {"type": "node", "id": 4800411937, "lat": 13.0991343, "lon": 77.596437}, {"type": "node", "id": 4800411938, "lat": 13.1000088, "lon": 77.596113}, {"type": "node", "id": 5112189133, "lat": 13.0669233, "lon": 77.6393713}, {"type": "node", "id": 5112189134, "lat": 13.0669011, "lon": 77.639487}, {"type": "node", "id": 5112189135, "lat": 13.0667751, "lon": 77.6394615}, {"type": "node", "id": 5112189136, "lat": 13.0667973, "lon": 77.6393458}, {"type": "node", "id": 5520252375, "lat": 13.0552027, "lon": 77.6028234, "tags": {"addr:district": "Bengaluru Urban", "addr:full": "Bhuvaneswari Nagar, Hebbal Kempapura, Bengaluru", "addr:postcode": "560024", "addr:state": "Karnataka", "amenity": "hospital", "healthcare": "yes", "name": "Care Health", "source": "Local Knowledge"}}, {"type": "node", "id": 5966255497, "lat": 13.066842, "lon": 77.6390545, "tags": {"amenity": "hospital", "name": "Bangalore Prime Hospital"}}, {"type": "node", "id": 5983331355, "lat": 13.118638, "lon": 77.6078781, "tags": {"amenity": "hospital", "name": "CyteCare", "name:ar": "\u0628\u062a\u064a \u0633\u0643\u0627\u0646"}}, {"type": "node", "id": 6779119335, "lat": 13.0665572, "lon": 77.59647, "tags": {"amenity": "hospital", "name": "Venus Bone & Joint Centre", "opening_hours": "Mo-Su 10:00-21:00"}}, {"type": "node", "id": 6809569067, "lat": 13.0992387, "lon": 77.5970187}, {"type": "node", "id": 6809733828, "lat": 13.0981599, "lon": 77.5969292}, {"type": "node", "id": 6809733829, "lat": 13.0981441, "lon": 77.5971325}, {"type": "node", "id": 6809733830, "lat": 13.0983124, "lon": 77.597165}, {"type": "node", "id": 6809733831, "lat": 13.0983361, "lon": 77.5969496}, {"type": "node", "id": 6809739530, "lat": 13.0990243, "lon": 77.5969099}, {"type": "node", "id": 6809739537, "lat": 13.0993447, "lon": 77.5968756}, {"type": "node", "id": 6809739538, "lat": 13.0990763, "lon": 77.5967124}, {"type": "node", "id": 6938005237, "lat": 13.0370143, "lon": 77.6238732, "tags": {"addr:district": "Bengaluru Urban", "addr:full": "#978, 18Th Cross,14Th Main, 5Th Block, 1st Stage,H.B.R.Layout", "addr:postcode": "560043", "addr:state": "Karnataka", "amenity": "hospital", "name": "Sri Sai Hospital, Bengaluru Urban", "source": "OpenGovernmentData"}}, {"type": "node", "id": 6938695174, "lat": 13.0398217, "lon": 77.6230843, "tags": {"addr:district": "Bengaluru Urban", "addr:full": "Nagarwara", "addr:postcode": "560045", "addr:state": "Karnataka", "amenity": "hospital", "name": "J M J Hospital, Bengaluru Urban", "source": "OpenGovernmentData"}}, {"type": "node", "id": 6938777940, "lat": 13.0945892, "lon": 77.594104, "tags": {"addr:district": "Bengaluru Urban", "addr:full": "No 150/3 Jnrt Mansion B.B. Road", "addr:postcode": "560064", "addr:state": "Karnataka", "amenity": "hospital", "check_date": "2024-09-27", "name": "North City CT Scan", "source": "OpenGovernmentData"}}, {"type": "node", "id": 6939311791, "lat": 13.0373572, "lon": 77.6409059, "tags": {"addr:district": "Bengaluru Urban", "addr:full": "#3/666, Hennur Bande,Hennur Main Road, Kalayan Nagar Post,International Link Road", "addr:postcode": "560043", "addr:state": "Karnataka", "amenity": "hospital", "name": "Shree Vijayalakshmi Hospital and Trauma Centre", "source": "OpenGovernmentData"}}, {"type": "node", "id": 6944231456, "lat": 13.0555559, "lon": 77.6517145, "tags": {"addr:district": "Bengaluru Urban", "addr:full": "85 Byrathi, Hennur Main Road,Near Kothnur Police Station", "addr:postcode": "560077", "addr:state": "Karnataka", "amenity": "hospital", "name": "Medi Derma Hospital", "source": "OpenGovernmentData"}}, {"type": "node", "id": 6944464779, "lat": 13.1215236, "lon": 77.6126106, "tags": {"addr:district": "Bengaluru Urban", "addr:full": "Near Bagalur Cross Signal,International Airport Main Road,Yelahanka", "addr:postcode": "560063", "addr:state": "Karnataka", "amenity": "hospital", "name": "Saranalaya Hospital", "source": "OpenGovernmentData"}}, {"type": "node", "id": 6944577884, "lat": 13.0657486, "lon": 77.5992653, "tags": {"addr:district": "Bengaluru Urban", "addr:full": "No. 1, Near Water Tank Jakkur Main Road Amruthahalli", "addr:postcode": "560092", "addr:state": "Karnataka", "amenity": "hospital", "name": "Amrutha Hospital", "name:kn": "\u0c85\u0c82\u0cac\u0cc1\u0cb0\u0ccd \u0cac\u0cbf\u0cb0\u0cbf\u0caf\u0cbe\u0ca8\u0cbf", "source": "OpenGovernmentData"}}, {"type": "node", "id": 7213498681, "lat": 13.0701337, "lon": 77.6329103, "tags": {"addr:district": "Bengaluru Urban", "addr:full": "Sri Balaji Krupa Layout", "addr:postcode": "560077", "addr:state": "Karnataka", "amenity": "hospital", "name": "Sai Hospital", "source": "OpenGovernmentData"}}, {"type": "node", "id": 7228243337, "lat": 13.1187812, "lon": 77.607793}, {"type": "node", "id": 7228243338, "lat": 13.1185496, "lon": 77.607733}, {"type": "node", "id": 7577248218, "lat": 13.0524836, "lon": 77.6120857, "tags": {"addr:district": "Bengaluru Urban", "addr:full": "Mariyannapalya, Thanisandra, Bengaluru", "addr:postcode": "560024", "addr:state": "Karnataka", "amenity": "hospital", "check_date": "2024-07-05", "name": "Navya Hospital", "source": "Local Knowledge"}}, {"type": "node", "id": 7577248224, "lat": 13.0528211, "lon": 77.6041042, "tags": {"addr:district": "Bengaluru Urban", "addr:full": "Hebbal Kempapura, Bengaluru", "addr:postcode": "560024", "addr:state": "Karnataka", "amenity": "hospital", "check_date": "2024-07-08", "name": "Icon Hospital", "source": "Local Knowledge"}}, {"type": "node", "id": 7577248265, "lat": 13.065863, "lon": 77.604213, "tags": {"addr:district": "Bengaluru Urban", "addr:full": "Swami Vivekananda Layout, Amrutahalli, Bengaluru", "addr:postcode": "560092", "addr:state": "Karnataka", "amenity": "hospital", "name": "Axis Hospital", "source": "Local Knowledge"}}, {"type": "node", "id": 7577248269, "lat": 13.0658472, "lon": 77.5992844, "tags": {"addr:district": "Bengaluru Urban", "addr:full": "Talacauvery Layout, Sneha Nagar, Byatarayanapura, Bengaluru", "addr:postcode": "560092", "addr:state": "Karnataka", "amenity": "hospital", "healthcare": "hospital", "name": "Eswar Women and Day Care Hospital", "source": "Local Knowledge"}}, {"type": "node", "id": 7579683177, "lat": 13.1051735, "lon": 77.6027864, "tags": {"addr:district": "Bengaluru Urban", "addr:full": "Kogilu Main Road, Maruthi Nagar, Yelahanka, Bengaluru", "addr:postcode": "560064", "addr:state": "Karnataka", "amenity": "hospital", "name": "NDR Multi Speciality Hospital", "source": "Local Knowledge"}}, {"type": "node", "id": 7579683193, "lat": 13.120977, "lon": 77.6176084, "tags": {"addr:district": "Bengaluru Urban", "addr:full": "Dwarka Nagar, Bengaluru", "addr:postcode": "560064", "addr:state": "Karnataka", "amenity": "hospital", "name": "Valens Hospitals", "source": "Local Knowledge"}}, {"type": "node", "id": 7579683207, "lat": 13.1179919, "lon": 77.6084693}, {"type": "node", "id": 7579683213, "lat": 13.102578, "lon": 77.627895, "tags": {"addr:district": "Bengaluru Urban", "addr:full": "Agrahara Badavane, Bengaluru", "addr:postcode": "560064", "addr:state": "Karnataka", "amenity": "hospital", "name": "Amruth Hospital", "name:kn": "\u0c85\u0cae\u0cc3\u0ca4 \u0c86\u0cb8\u0ccd\u0caa\u0ca4\u0ccd\u0cb0\u0cc6", "source": "Local Knowledge"}}, {"type": "node", "id": 7579683217, "lat": 13.121743, "lon": 77.629478, "tags": {"addr:district": "Bengaluru Urban", "addr:full": "Saralaya Layout, Kattigenahalli, Bengaluru", "addr:postcode": "560064", "addr:state": "Karnataka", "amenity": "hospital", "name": "Saralaya Hospital", "source": "Local Knowledge"}}, {"type": "node", "id": 7579683219, "lat": 13.101335, "lon": 77.59858, "tags": {"addr:district": "Bengaluru Urban", "addr:full": "BB Road, Yelahanka, Bengaluru", "addr:postcode": "560064", "addr:state": "Karnataka", "amenity": "hospital", "name": "Apurva Hospital", "source": "Local Knowledge"}}, {"type": "node", "id": 7579683220, "lat": 13.1215701, "lon": 77.6126077, "tags": {"addr:district": "Bengaluru Urban", "addr:full": "Vinayak Nagar, Kattigenahalli, Bengaluru", "addr:postcode": "560063", "addr:state": "Karnataka", "amenity": "hospital", "name": "Om Shakthi Hospital", "source": "Local Knowledge"}}, {"type": "node", "id": 7579683225, "lat": 13.1025229, "lon": 77.6278506, "tags": {"addr:district": "Bengaluru Urban", "addr:full": "Kogilu Layout, Srinivaspur, Bengaluru", "addr:postcode": "560064", "addr:state": "Karnataka", "amenity": "hospital", "name": "Shadab Hospital", "source": "Local Knowledge"}}, {"type": "node", "id": 7579683232, "lat": 13.098909, "lon": 77.596219, "tags": {"addr:district": "Bengaluru Urban", "addr:full": "Gandhi Nagar, Yelahanka, Bengaluru", "addr:postcode": "560064", "addr:state": "Karnataka", "amenity": "hospital", "name": "Jayalakshmi Hospital", "source": "Local Knowledge"}}, {"type": "node", "id": 7579683237, "lat": 13.10051, "lon": 77.595603, "tags": {"addr:district": "Bengaluru Urban", "addr:full": "Gandhi Nagar, Yelahanka, Bengaluru", "addr:postcode": "560064", "addr:state": "Karnataka", "amenity": "hospital", "name": "NDR Orthopaedic", "source": "Local Knowledge"}}, {"type": "node", "id": 7579683240, "lat": 13.1215659, "lon": 77.6250507, "tags": {"addr:district": "Bengaluru Urban", "addr:full": "Kattigenahalli, Bengaluru", "addr:postcode": "560064", "addr:state": "Karnataka", "amenity": "hospital", "name": "Sri Arogya Hospital", "source": "Local Knowledge"}}, {"type": "node", "id": 7579683247, "lat": 13.1213668, "lon": 77.6174817, "tags": {"addr:district": "Bengaluru Urban", "addr:full": "Bagalur Main Road, Vinayak Nagar, Kattigenahalli, Bengaluru", "addr:postcode": "560064", "addr:state": "Karnataka", "amenity": "hospital", "name": "Sapthagiri Hospital", "source": "Local Knowledge"}}, {"type": "node", "id": 7579683251, "lat": 13.0981485, "lon": 77.596139, "tags": {"addr:district": "Bengaluru Urban", "addr:full": "Gandhi Nagar, Yelahanka, Bengaluru", "addr:postcode": "560064", "addr:state": "Karnataka", "amenity": "hospital", "name": "Pavan Hospitals", "source": "Local Knowledge"}}, {"type": "node", "id": 7579683258, "lat": 13.1026581, "lon": 77.6297932, "tags": {"addr:district": "Bengaluru Urban", "addr:full": "Kogilu Layout, Srinivaspur, Bengaluru", "addr:postcode": "560064", "addr:state": "Karnataka", "amenity": "hospital", "name": "Varsha Hospital", "source": "Local Knowledge"}}, {"type": "node", "id": 9527967835, "lat": 13.0544507, "lon": 77.6316369, "tags": {"amenity": "hospital", "name": "Shree Manyata Hospitals"}}, {"type": "node", "id": 9583509829, "lat": 13.0654167, "lon": 77.5935557}, {"type": "node", "id": 9583509830, "lat": 13.0654309, "lon": 77.5939331}, {"type": "node", "id": 9583509831, "lat": 13.0657388, "lon": 77.5939209}, {"type": "node", "id": 9583509833, "lat": 13.0657246, "lon": 77.5935435}, {"type": "node", "id": 9895573793, "lat": 13.1185209, "lon": 77.6086074}, {"type": "node", "id": 10162630524, "lat": 13.0950516, "lon": 77.5992599}, {"type": "node", "id": 10162630525, "lat": 13.095194, "lon": 77.5981065}, {"type": "node", "id": 10310592617, "lat": 13.0970149, "lon": 77.6473961}, {"type": "node", "id": 10688570445, "lat": 13.0398699, "lon": 77.6405164}, {"type": "node", "id": 10688570446, "lat": 13.0398782, "lon": 77.6408677}, {"type": "node", "id": 10688570448, "lat": 13.0404638, "lon": 77.6405016}, {"type": "node", "id": 10731125349, "lat": 13.048083, "lon": 77.628791, "tags": {"amenity": "hospital", "name": "Suraksha Hospital"}}, {"type": "node", "id": 10866713099, "lat": 13.0974777, "lon": 77.6481082}, {"type": "node", "id": 10866713100, "lat": 13.097691, "lon": 77.6475458}, {"type": "node", "id": 10866713101, "lat": 13.0968569, "lon": 77.6478758}, {"type": "node", "id": 11818074027, "lat": 13.0951049, "lon": 77.5988225}, {"type": "node", "id": 11818722309, "lat": 13.1184751, "lon": 77.6087174}, {"type": "node", "id": 11818722310, "lat": 13.1181186, "lon": 77.6076941}, {"type": "node", "id": 12056743550, "lat": 13.0988482, "lon": 77.5978974, "tags": {"amenity": "hospital", "name": "Ashwini Hospital"}}, {"type": "node", "id": 12784988443, "lat": 13.0947367, "lon": 77.5991305}, {"type": "node", "id": 12784988444, "lat": 13.0947682, "lon": 77.5989917}, {"type": "node", "id": 12784988445, "lat": 13.0948557, "lon": 77.5987362}, {"type": "node", "id": 12784988446, "lat": 13.0949705, "lon": 77.5980299}, {"type": "node", "id": 12848276816, "lat": 13.0404721, "lon": 77.6408529}, {"type": "node", "id": 13119704697, "lat": 13.1150719, "lon": 77.6337691}, {"type": "node", "id": 13119704698, "lat": 13.1150331, "lon": 77.6340479}, {"type": "node", "id": 13119704699, "lat": 13.1152061, "lon": 77.6340733}, {"type": "node", "id": 13119704700, "lat": 13.1152449, "lon": 77.6337945}, {"type": "way", "id": 160906231, "nodes": [1611862042, 1611862023, 1611862066, 1611862035, 1611862042], "tags": {"addr:district": "Bengaluru Urban", "addr:full": "Kirloskar Business Park, Bellary Road Hebbal", "addr:postcode": "560024", "addr:state": "Karnataka", "alt_name": "Columbia Asia Hospital", "amenity": "hospital", "emergency": "yes", "healthcare": "hospital", "name": "Manipal Hospital", "name:kn": "\u0c95\u0cca\u0cb2\u0c82\u0cac\u0cbf\u0caf \u0c8f\u0cb7\u0ccd\u0caf\u0cbe \u0c86\u0cb8\u0ccd\u0caa\u0ca4\u0ccd\u0cb0\u0cc6", "source": "OpenGovernmentData"}}, {"type": "way", "id": 487591672, "nodes": [4800411938, 1464782936, 4800411937, 4800411936, 4800411938], "tags": {"addr:district": "Bangalore", "addr:full": "Bagaluru Cross, Yelahanka, Armed Police Training School", "addr:postcode": "560063", "addr:state": "Karnataka", "addr:subdistrict": "Bangalore North", "amenity": "hospital", "healthcare": "hospital", "name": "Yelahanka Government Hospital", "name:kn": "\u0caf\u0cb2\u0cb9\u0c82\u0c95 \u0cb8\u0cb0\u0ccd\u0c95\u0cbe\u0cb0\u0cbf \u0c86\u0cb8\u0ccd\u0caa\u0ca4\u0ccd\u0cb0\u0cc6", "source": "OpenGovernmentData"}}, {"type": "way", "id": 525508983, "nodes": [5112189133, 5112189134, 5112189135, 5112189136, 5112189133], "tags": {"amenity": "hospital", "emergency": "yes", "name": "Shirdi Sai Hospital", "name:kn": "\u0cb6\u0cbf\u0cb0\u0ca1\u0cbf \u0cb8\u0cbe\u0caf\u0cbf \u0c86\u0cb8\u0ccd\u0caa\u0ca4\u0ccd\u0cb0\u0cc6"}}, {"type": "way", "id": 726497370, "nodes": [6809739530, 6809569067, 6809739537, 6809739538, 6809739530], "tags": {"amenity": "hospital", "healthcare": "hospital", "name": "Government Hospital", "name:kn": "\u0cb8\u0cb0\u0ccd\u0c95\u0cbe\u0cb0\u0cbf \u0c86\u0cb8\u0ccd\u0caa\u0ca4\u0ccd\u0cb0\u0cc6"}}, {"type": "way", "id": 726506664, "nodes": [6809733828, 6809733829, 6809733830, 6809733831, 6809733828], "tags": {"addr:district": "Bengaluru Urban", "addr:full": "387/347, Next To Post Office, B.B.Road Nehru Nagar, Yehlanka Old Town", "addr:postcode": "560064", "addr:state": "Karnataka", "amenity": "hospital", "healthcare": "hospital", "name": "Deeksha Hospital", "name:kn": "\u0ca6\u0cc0\u0c95\u0ccd\u0cb7 \u0c86\u0cb8\u0ccd\u0caa\u0ca4\u0ccd\u0cb0\u0cc6", "source": "OpenGovernmentData"}}, {"type": "way", "id": 1040899015, "nodes": [9583509833, 9583509831, 9583509830, 9583509829, 9583509833], "tags": {"amenity": "hospital", "name": "Rainbow Children's Hospital"}}, {"type": "way", "id": 1110808778, "nodes": [12784988443, 12784988444, 12784988445, 12784988446, 10162630525, 11818074027, 10162630524, 12784988443], "tags": {"amenity": "hospital", "name": "Sparsh Hospital"}}, {"type": "way", "id": 1148876100, "nodes": [12848276816, 10688570446, 10688570445, 10688570448, 12848276816], "tags": {"amenity": "hospital", "building": "hospital", "building:levels": "7", "building:levels:underground": "3", "height": "29.85", "name": "Sparsh Hospital, Hennur", "operator": "Sparsh Hospital"}}, {"type": "way", "id": 1168448945, "nodes": [10866713099, 10866713100, 10310592617, 10866713101, 10866713099], "tags": {"addr:city": "Bengaluru", "addr:postcode": "562149", "addr:street": "Kannuru Main Road, Mitganahalli, Bellahalli", "amenity": "hospital", "healthcare": "hospital", "name": "Government Primary Health Centre", "name:kn": "\u0cb8\u0cb0\u0ccd\u0c95\u0cbe\u0cb0\u0cbf \u0caa\u0ccd\u0cb0\u0cbe\u0ca5\u0cae\u0cbf\u0c95 \u0c86\u0cb0\u0ccb\u0c97\u0ccd\u0caf \u0c95\u0cc7\u0c82\u0ca6\u0ccd\u0cb0", "operator": "Health and Family Welfare Development", "operator:type": "government"}}, {"type": "way", "id": 1272767220, "nodes": [7228243337, 7228243338, 11818722310, 7579683207, 11818722309, 9895573793, 7228243337], "tags": {"addr:district": "Bengaluru Urban", "addr:full": "BSF Campus, Yelahanka, Bengaluru", "addr:postcode": "560064", "addr:state": "Karnataka", "amenity": "hospital", "name": "Brains Hospital", "source": "Local Knowledge"}}, {"type": "way", "id": 1427144679, "nodes": [13119704700, 13119704699, 13119704698, 13119704697, 13119704700], "tags": {"amenity": "hospital", "building": "hospital", "name": "Apex Hospital"}}]}