{"version": 0.6, "generator": "Overpass API 0.7.62.8 e802775f", "osm3s": {"timestamp_osm_base": "2026-01-12T14:52:00Z", "copyright": "The data included in this document is from www.openstreetmap.org. The data is made available under ODbL."}, "elements": [{"type": "node", "id": 272710466, "lat": 12.8676135, "lon": 77.5819244, "tags": {"highway": "bus_stop", "loc_name": "J.P.NAGARA 8TH PHASE", "name": "Surabhi Layout", "name:en": "Surabhi Layout", "name:kn": "\u0cb8\u0cc1\u0cb0\u0cad\u0cbf \u0ca8\u0c97\u0cb0", "network": "BMTC", "operator": "BMTC", "public_transport": "platform"}}, {"type": "node", "id": 272710467, "lat": 12.8675421, "lon": 77.5818684, "tags": {"bus": "yes", "name": "Surabhi Layout", "name:en": "Surabhi Layout", "network": "BMTC", "operator": "BMTC", "public_transport": "stop_position"}}, {"type": "node", "id": 272710482, "lat": 12.8656785, "lon": 77.5810417, "tags": {"alt_name": "Jambusavari Dinne", "highway": "bus_stop", "loc_name": "JP Nagara 8th Phase", "name": "Jambu Savari Dinne", "name:en": "Jambu Savari Dinne", "name:kn": "\u0c9c\u0c82\u0cac\u0cc2\u0cb8\u0cb5\u0cbe\u0cb0\u0cbf \u0ca6\u0cbf\u0ca8\u0ccd\u0ca8\u0cc6", "network": "BMTC", "operator": "BMTC", "public_transport": "platform", "shelter": "yes"}}, {"type": "node", "id": 272710511, "lat": 12.8685299, "lon": 77.5767089, "tags": {"alt_name": "Royal Lake Residency", "bus": "yes", "highway": "bus_stop", "loc_name": "JP Nagara 9th Phase", "name": "Royal Layout", "name:en": "Royal Layout", "network": "BMTC", "network:wikidata": "Q3345039", "operator": "BMTC", "public_transport": "platform"}}, {"type": "node", "id": 272710541, "lat": 12.8740314, "lon": 77.5732065, "tags": {"alt_name": "Sarathy Nagar", "bench": "yes", "highway": "bus_stop", "name": "Sarathi Nagara", "name:en": "Sarathi Nagara", "name:kn": "\u0cb8\u0cbe\u0cb0\u0ca5\u0cbf \u0ca8\u0c97\u0cb0", "network": "BMTC", "operator": "BMTC", "public_transport": "platform", "shelter": "yes"}}, {"type": "node", "id": 272710577, "lat": 12.876373, "lon": 77.5670619, "tags": {"bus": "yes", "highway": "bus_stop", "loc_name": "Glass Factory", "name": "Glass Factory", "name:en": "Glass Factory", "network": "BMTC", "network:wikidata": "Q3345039", "operator": "BMTC", "public_transport": "stop_position"}}, {"type": "node", "id": 272710629, "lat": 12.8829627, "lon": 77.5661611, "tags": {"bus": "yes", "highway": "bus_stop", "loc_name": "Bank Colony", "name": "Konanakunte Reliance Fresh", "name:en": "Konanakunte Reliance Fresh", "network": "BMTC", "operator": "BMTC", "public_transport": "platform", "shelter": "yes"}}, {"type": "node", "id": 272710649, "lat": 12.8854474, "lon": 77.5668298, "tags": {"bench": "no", "covered": "no", "highway": "bus_stop", "name": "Konanakunte", "name:en": "Konanakunte", "name:kn": "\u0c95\u0cca\u0ca3\u0ca8\u0c95\u0cc1\u0c82\u0c9f\u0cc6", "network": "BMTC", "operator": "BMTC", "public_transport": "platform", "shelter": "no"}}, {"type": "node", "id": 272717124, "lat": 12.8745483, "lon": 77.5841504, "tags": {"bus": "yes", "name": "Water Tank Kothnuru Dinne", "name:en": "Water Tank Kothnuru Dinne", "network": "BMTC", "operator": "BMTC", "public_transport": "stop_position"}}, {"type": "node", "id": 272717134, "lat": 12.8769496, "lon": 77.5840405, "tags": {"bin": "no", "highway": "bus_stop", "lit": "yes", "loc_name": "J.P.NAGARA 8TH PHASE", "name": "Kothnuru Dinne", "name:en": "Kothnuru Dinne", "name:kn": "\u0c95\u0cca\u0ca4\u0ca8\u0cc2\u0cb0\u0cc1 \u0ca6\u0cbf\u0ca3\u0ccd\u0ca3\u0cc6", "network": "BMTC", "operator": "BMTC", "public_transport": "platform"}}, {"type": "node", "id": 306592300, "lat": 12.9369641, "lon": 77.6015344, "tags": {"highway": "traffic_signals", "traffic_signals": "signal"}}, {"type": "node", "id": 382803182, "lat": 12.9014849, "lon": 77.5734716, "tags": {"highway": "bus_stop", "loc_name": "Kanakapura Road", "name": "Jaraganahalli Cross"}}, {"type": "node", "id": 382826644, "lat": 12.8921358, "lon": 77.5720595, "tags": {"highway": "bus_stop", "name": "Ganapathipura", "name:kn": "\u0c97\u0ca3\u0caa\u0ca4\u0cbf\u0caa\u0cc1\u0cb0"}}, {"type": "node", "id": 388463954, "lat": 12.8642963, "lon": 77.5327174, "tags": {"highway": "bus_stop", "name": "Vajramuneshwara Gate", "name:kn": "\u0cb5\u0c9c\u0ccd\u0cb0 \u0cae\u0cc1\u0ca8\u0cc7\u0cb6\u0ccd\u0cb5\u0cb0 \u0c97\u0cc7\u0c9f\u0ccd"}}, {"type": "node", "id": 388463964, "lat": 12.8754279, "lon": 77.5433865, "tags": {"highway": "bus_stop", "name": "Byana Palya, Vajarahalli"}}, {"type": "node", "id": 388469089, "lat": 12.8426053, "lon": 77.5178602, "tags": {"highway": "bus_stop", "loc_name": "Kanakapura Road", "name": "Kuppa Reddy Kere", "name:kn": "\u0c95\u0cc1\u0caa\u0ccd\u0caa\u0cbe\u0cb0\u0cc6\u0ca1\u0ccd\u0ca1\u0cbf \u0c95\u0cc6\u0cb0\u0cc6", "public_transport": "platform"}}, {"type": "node", "id": 388469098, "lat": 12.8491937, "lon": 77.5220679, "tags": {"alt_name": "Agara Cross", "alt_name:kn": "\u0c85\u0c97\u0cb0 \u0c85\u0ca1\u0ccd\u0ca1", "highway": "bus_stop", "loc_name": "Kanakapura Road", "name": "Chinnayyanapalya Silk Farm", "name:en": "Chinnayyanapalya Silk Farm", "network": "BMTC", "operator": "BMTC", "public_transport": "platform"}}, {"type": "node", "id": 388469099, "lat": 12.8490827, "lon": 77.5220958, "tags": {"bus": "yes", "name": "Chinnayyanapalya Silk Farm", "name:en": "Chinnayyanapalya Silk Farm", "network": "BMTC", "operator": "BMTC", "public_transport": "stop_position"}}, {"type": "node", "id": 388469108, "lat": 12.8538203, "lon": 77.5234663, "tags": {"highway": "bus_stop", "loc_name": "Kanakapura Road", "name": "Silk Farm"}}, {"type": "node", "id": 388469690, "lat": 12.8367727, "lon": 77.5160345, "tags": {"highway": "bus_stop", "loc_name": "Kanakapura Road", "name": "Shanimahathma Temple", "name:kn": "\u0cb6\u0ca8\u0cbf \u0cae\u0cb9\u0cbe\u0ca4\u0ccd\u0cae"}}, {"type": "node", "id": 388470022, "lat": 12.8203216, "lon": 77.5139901, "tags": {"bus": "yes", "highway": "bus_stop", "loc_name": "Kanakapura Road", "name": "Udi Palya Udayapalya", "name:kn": "\u0c89\u0ca6\u0caf\u0caa\u0cbe\u0cb3\u0ccd\u0caf", "public_transport": "platform"}}, {"type": "node", "id": 432841703, "lat": 12.8990521, "lon": 77.5578197, "tags": {"highway": "bus_stop", "name": "ISRO Layout", "name:kn": "\u0c87\u0cb8\u0ccd\u0cb0\u0ccb \u0cb2\u0cc7\u0c94\u0c9f\u0ccd"}}, {"type": "node", "id": 435688178, "lat": 12.8916486, "lon": 77.5603924, "tags": {"highway": "bus_stop", "loc_name": "KONANA KUNTE CROSS", "name": "Ragi Machine", "name:en": "Ragi Machine", "network": "BMTC", "operator": "BMTC", "public_transport": "platform"}}, {"type": "node", "id": 435688188, "lat": 12.8939792, "lon": 77.5563911, "tags": {"bus": "yes", "highway": "bus_stop", "loc_name": "VASANTHAPUR", "name": "DAV Public School", "public_transport": "platform"}}, {"type": "node", "id": 435688194, "lat": 12.8950921, "lon": 77.5550909, "tags": {"bus": "yes", "highway": "bus_stop", "loc_name": "VASANTHAPUR", "name": "Pipeline Vasanthapura", "name:en": "Pipeline Vasanthapura", "name:kn": "\u0caa\u0cc8\u0caa\u0ccd \u0cb2\u0cc8\u0ca8\u0ccd", "network": "BMTC", "operator": "BMTC", "public_transport": "platform"}}, {"type": "node", "id": 435688203, "lat": 12.8963443, "lon": 77.5524195, "tags": {"bus": "yes", "highway": "bus_stop", "name": "Vasanthapura", "name:en": "Vasanthapura", "name:kn": "\u0cb5\u0cb8\u0c82\u0ca4\u0caa\u0cc1\u0cb0", "network": "BMTC", "operator": "BMTC", "public_transport": "platform"}}, {"type": "node", "id": 435688212, "lat": 12.8964116, "lon": 77.5483851, "tags": {"highway": "bus_stop", "name": "Yadalam Nagara", "name:en": "Yadalam Nagara", "network": "BMTC", "operator": "BMTC", "public_transport": "platform"}}, {"type": "node", "id": 435688218, "lat": 12.8975842, "lon": 77.5464565, "tags": {"alt_name": "Subramanyapura Co-operative Society", "highway": "bus_stop", "name": "Subramanyapura KEB", "name:en": "Subramanyapura KEB", "network": "BMTC", "operator": "BMTC", "public_transport": "platform"}}, {"type": "node", "id": 435688219, "lat": 12.8976193, "lon": 77.5463589, "tags": {"bus": "yes", "name": "Subramanyapura KEB", "name:en": "Subramanyapura KEB", "name:kn": "\u0cb8\u0cc1\u0cac\u0ccd\u0cb0\u0cae\u0ca3\u0ccd\u0caf\u0caa\u0cc1\u0cb0", "network": "BMTC", "operator": "BMTC", "public_transport": "stop_position"}}, {"type": "node", "id": 435688236, "lat": 12.9049372, "lon": 77.5434901, "tags": {"highway": "bus_stop", "name": "Utharahalli", "name:kn": "\u0c89\u0ca4\u0ccd\u0ca4\u0cb0\u0cb9\u0cb3\u0ccd\u0cb3\u0cbf"}}, {"type": "node", "id": 447180598, "lat": 12.8926306, "lon": 77.5429315, "tags": {"bus": "yes", "highway": "bus_stop", "name": "Jayanagar HBCS Layout", "public_transport": "platform"}}, {"type": "node", "id": 456024917, "lat": 12.8675836, "lon": 77.5657088, "tags": {"bus": "yes", "highway": "bus_stop", "loc_name": "AVALAHALLI", "name": "Nandi Garden Kothanur", "name:en": "Nandi Garden Kothanur", "network": "BMTC", "operator": "BMTC", "public_transport": "platform"}}, {"type": "node", "id": 456024938, "lat": 12.8589342, "lon": 77.5632589, "tags": {"highway": "bus_stop", "name": "Kidwai Layout", "name:en": "Kidwai Layout", "network": "BMTC", "operator": "BMTC", "public_transport": "platform"}}, {"type": "node", "id": 560654683, "lat": 12.8294155, "lon": 77.5877321, "tags": {"bench": "no", "highway": "bus_stop", "loc_name": "Bannerghatta Road", "name": "AMC College", "name:en": "AMC College", "network": "BMTC", "operator": "BMTC", "public_transport": "platform", "shelter": "no"}}, {"type": "node", "id": 560654686, "lat": 12.8254027, "lon": 77.5863275, "tags": {"alt_name": "Jalli Machine", "bus": "yes", "highway": "bus_stop", "loc_name": "Bannerghatta Road", "name": "Sampangiram Nagara", "name:en": "Sampangiram Nagara", "network": "BMTC", "network:wikidata": "Q3345039", "operator": "BMTC", "public_transport": "platform"}}, {"type": "node", "id": 699576761, "lat": 12.9023765, "lon": 77.5734387}, {"type": "node", "id": 699576769, "lat": 12.9066441, "lon": 77.5732362}, {"type": "node", "id": 699576774, "lat": 12.9034829, "lon": 77.5732659}, {"type": "node", "id": 699576784, "lat": 12.8960361, "lon": 77.57014, "tags": {"alt_name": "Puttenahalli", "code": "PUTH", "name": "Yelachenahalli", "name:kn": "\u0caa\u0cc1\u0c9f\u0ccd\u0c9f\u0cc7\u0ca8\u0cb9\u0cb3\u0ccd\u0cb3\u0cbf", "network": "Namma Metro", "note": "Contributors are requested to not edit the \"network\" and the \"operator\" tags. (2023/11/08)", "operator": "Bangalore Metro Rail Corporation Limited", "public_transport": "stop_position", "public_transport:version": "2", "railway": "stop", "source": "http://www.bmrc.co.in/English/Network.htm", "subway": "yes", "wheelchair": "yes"}}, {"type": "node", "id": 699576797, "lat": 12.9053055, "lon": 77.5733704}, {"type": "node", "id": 699576799, "lat": 12.8996823, "lon": 77.5729151}, {"type": "node", "id": 699576807, "lat": 12.9011752, "lon": 77.5733542}, {"type": "node", "id": 939097359, "lat": 12.9030228, "lon": 77.5617802}, {"type": "node", "id": 1148858377, "lat": 12.9000062, "lon": 77.5730137}, {"type": "node", "id": 1148858382, "lat": 12.8986418, "lon": 77.5665904, "tags": {"highway": "bus_stop", "name": "Kashinagara", "name:kn": "\u0c95\u0cbe\u0cb6\u0cbf\u0ca8\u0c97\u0cb0"}}, {"type": "node", "id": 1210179996, "lat": 12.860915, "lon": 77.5853472, "tags": {"bus": "yes", "name": "Bhagya Nagara", "name:en": "Bhagya Nagara", "name:kn": "\u0cad\u0cbe\u0c97\u0ccd\u0caf \u0ca8\u0c97\u0cb0", "network": "BMTC", "operator": "BMTC", "public_transport": "stop_position"}}, {"type": "node", "id": 1318917198, "lat": 12.8844598, "lon": 77.5516935, "tags": {"bench": "yes", "bin": "yes", "check_date:shelter": "2023-04-30", "highway": "bus_stop", "loc_name": "GUBLALA", "name": "Gubbalala Cross", "shelter": "yes", "tactile_paving": "no"}}, {"type": "node", "id": 1318987637, "lat": 12.8901806, "lon": 77.5641528, "tags": {"bench": "yes", "bin": "no", "bus": "yes", "highway": "bus_stop", "lit": "yes", "name": "Konanakunte Cross", "name:kn": "\u0c95\u0cca\u0ca3\u0ca8\u0c95\u0cc1\u0c82\u0c9f\u0cc6 \u0c95\u0ccd\u0cb0\u0cbe\u0cb8\u0ccd", "public_transport": "platform", "shelter": "yes"}}, {"type": "node", "id": 1326430789, "lat": 12.8977428, "lon": 77.585959, "tags": {"highway": "bus_stop", "loc_name": "J.P.NAGARA 7TH PHASE", "name": "Shobha Tulip JP Nagara", "name:en": "Shobha Tulip JP Nagara", "network": "BMTC", "operator": "BMTC", "public_transport": "platform", "wheelchair": "limited"}}, {"type": "node", "id": 1336663427, "lat": 12.8854954, "lon": 77.5750342, "tags": {"highway": "bus_stop", "loc_name": "CHUNCHAGHATTA", "name": "Chunchaghatta", "name:kn": "\u0c9a\u0cc1\u0c82\u0c9a\u0c98\u0c9f\u0ccd\u0c9f"}}, {"type": "node", "id": 1336687526, "lat": 12.8760626, "lon": 77.5737784, "tags": {"bus": "yes", "highway": "bus_stop", "name": "Adithya Nagara", "name:kn": "\u0c86\u0ca6\u0cbf\u0ca4\u0ccd\u0caf\u0ca8\u0c97\u0cb0", "public_transport": "platform"}}, {"type": "node", "id": 1345825866, "lat": 12.8228997, "lon": 77.5286083, "tags": {"bus": "yes", "highway": "bus_stop", "name": "Nallakkanadoddi", "name:kn": "\u0ca8\u0cb2\u0ccd\u0cb2\u0c95\u0ccd\u0c95\u0ca8\u0ca6\u0cca\u0ca1\u0ccd\u0ca1\u0cbf", "public_transport": "platform"}}, {"type": "node", "id": 1345825916, "lat": 12.8350827, "lon": 77.5270503, "tags": {"bus": "yes", "highway": "bus_stop", "loc_name": "VADERAHALLI", "name": "Vaddarapalya", "name:kn": "\u0cb5\u0ca1\u0ccd\u0ca1\u0cb0\u0caa\u0cbe\u0cb3\u0ccd\u0caf", "public_transport": "platform"}}, {"type": "node", "id": 1397248004, "lat": 12.8993288, "lon": 77.5913849, "tags": {"highway": "bus_stop", "name": "Vinayaka Nagara Telecom Layout", "name:kn": "\u0c9f\u0cc6\u0cb2\u0cc6\u0c95\u0cbe\u0cae\u0ccd \u0cac\u0ca1\u0cbe\u0cb5\u0ca3\u0cc6"}}, {"type": "node", "id": 1565099119, "lat": 12.9074812, "lon": 77.5731495, "tags": {"code": "JPN", "name": "Jaya Prakash Nagar", "name:kn": "\u0c9c\u0caf\u0caa\u0ccd\u0cb0\u0c95\u0cbe\u0cb6 \u0ca8\u0cbe\u0cb0\u0cbe\u0caf\u0ca3 \u0ca8\u0c97\u0cb0", "network": "Namma Metro", "note": "Contributors are requested to not edit the \"network\" and the \"operator\" tags. (2023/11/08)", "operator": "Bangalore Metro Rail Corporation Limited", "public_transport": "stop_position", "public_transport:version": "2", "railway": "stop", "short_name": "J P Nagar", "source": "http://www.bmrc.co.in/English/Network.htm", "subway": "yes", "wheelchair": "yes"}}, {"type": "node", "id": 1565099138, "lat": 12.8977588, "lon": 77.5716465}, {"type": "node", "id": 1565099153, "lat": 12.8967948, "lon": 77.5708245}, {"type": "node", "id": 1577747842, "lat": 12.8794146, "lon": 77.5455999}, {"type": "node", "id": 1577747843, "lat": 12.8949932, "lon": 77.5692191}, {"type": "node", "id": 1577747847, "lat": 12.8627735, "lon": 77.530806}, {"type": "node", "id": 1577747855, "lat": 12.8747967, "lon": 77.5423538}, {"type": "node", "id": 1577747860, "lat": 12.8897372, "lon": 77.563618}, {"type": "node", "id": 1577747865, "lat": 12.8758213, "lon": 77.5439311}, {"type": "node", "id": 1577747868, "lat": 12.8831324, "lon": 77.5475216}, {"type": "node", "id": 1577747874, "lat": 12.8904835, "lon": 77.5644343}, {"type": "node", "id": 1577747877, "lat": 12.8604109, "lon": 77.5292106}, {"type": "node", "id": 1577747881, "lat": 12.8761403, "lon": 77.5441844}, {"type": "node", "id": 1577747884, "lat": 12.8816785, "lon": 77.5465144}, {"type": "node", "id": 1577747885, "lat": 12.8707251, "lon": 77.5378837}, {"type": "node", "id": 1577747894, "lat": 12.8862606, "lon": 77.5579868}, {"type": "node", "id": 1577747896, "lat": 12.8743119, "lon": 77.5412876}, {"type": "node", "id": 1577747900, "lat": 12.8670555, "lon": 77.5350065}, {"type": "node", "id": 1577747902, "lat": 12.8753154, "lon": 77.5433884}, {"type": "node", "id": 1577747904, "lat": 12.866038, "lon": 77.5342366}, {"type": "node", "id": 1577747905, "lat": 12.861435, "lon": 77.5298172}, {"type": "node", "id": 1577747909, "lat": 12.860867, "lon": 77.5294788}, {"type": "node", "id": 1577747911, "lat": 12.8827483, "lon": 77.5470185}, {"type": "node", "id": 1577747912, "lat": 12.8636242, "lon": 77.532077}, {"type": "node", "id": 1577747913, "lat": 12.8631881, "lon": 77.5314277}, {"type": "node", "id": 1577747915, "lat": 12.8828975, "lon": 77.5471404}, {"type": "node", "id": 1577747922, "lat": 12.8833326, "lon": 77.548092}, {"type": "node", "id": 1577747924, "lat": 12.8866668, "lon": 77.5592789}, {"type": "node", "id": 1577747925, "lat": 12.8644921, "lon": 77.5330171}, {"type": "node", "id": 1577747932, "lat": 12.8605979, "lon": 77.5293188}, {"type": "node", "id": 1577747933, "lat": 12.8858898, "lon": 77.5568757}, {"type": "node", "id": 1577747939, "lat": 12.8602616, "lon": 77.5291132}, {"type": "node", "id": 1577747943, "lat": 12.8643238, "lon": 77.5328619}, {"type": "node", "id": 1577747945, "lat": 12.8846652, "lon": 77.552925}, {"type": "node", "id": 1577747952, "lat": 12.862197, "lon": 77.5302856}, {"type": "node", "id": 1577747953, "lat": 12.8841215, "lon": 77.5511006}, {"type": "node", "id": 1577747955, "lat": 12.8766284, "lon": 77.5444246}, {"type": "node", "id": 1577747961, "lat": 12.8852865, "lon": 77.5549214}, {"type": "node", "id": 1577747962, "lat": 12.8881719, "lon": 77.5618091}, {"type": "node", "id": 1577747968, "lat": 12.8739539, "lon": 77.5407012}, {"type": "node", "id": 1577747973, "lat": 12.8736735, "lon": 77.5403602}, {"type": "node", "id": 1577747978, "lat": 12.8919891, "lon": 77.5661453}, {"type": "node", "id": 1577747981, "lat": 12.8625424, "lon": 77.5304964}, {"type": "node", "id": 1577747982, "lat": 12.8871348, "lon": 77.5604136}, {"type": "node", "id": 1577747984, "lat": 12.8830216, "lon": 77.5473191}, {"type": "node", "id": 1577748001, "lat": 12.8691171, "lon": 77.5365886}, {"type": "node", "id": 1577748002, "lat": 12.8953693, "lon": 77.5695482}, {"type": "node", "id": 1577748003, "lat": 12.8755361, "lon": 77.543658}, {"type": "node", "id": 1577748004, "lat": 12.8584166, "lon": 77.527996}, {"type": "node", "id": 1577748007, "lat": 12.8731484, "lon": 77.539826}, {"type": "node", "id": 1577748009, "lat": 12.8857094, "lon": 77.5562482}, {"type": "node", "id": 1577748011, "lat": 12.8939458, "lon": 77.5682123}, {"type": "node", "id": 1578382143, "lat": 13.0095903, "lon": 77.6139487, "tags": {"colour": "pink", "construction": "station", "construction:public_transport": "station", "construction:railway": "station", "construction:station": "subway", "frequency": "0", "name": "Tannery Road (u/c)", "name:kn": "\u0ca4\u0ca8\u0ccd\u0ca8\u0cc6\u0cb0\u0cbf \u0cb0\u0ccb\u0ca1\u0ccd", "network": "Namma Metro", "note": "Contributors are requested to not edit the \"network\" and the \"operator\" tags. (2023/11/08)", "operator": "Bangalore Metro Rail Corporation Limited", "subway": "yes", "voltage": "750"}}, {"type": "node", "id": 1578382496, "lat": 12.9494858, "lon": 77.6030353, "tags": {"colour": "pink", "construction": "station", "construction:public_transport": "station", "construction:railway": "station", "construction:station": "subway", "frequency": "0", "name": "Lakkasandra (u/c)", "name:kn": "\u0cb2\u0c95\u0ccd\u0c95\u0cb8\u0c82\u0ca6\u0ccd\u0cb0", "network": "Namma Metro", "note": "Contributors are requested to not edit the \"network\" and the \"operator\" tags. (2023/11/08)", "old_name": "MICO Bosch (u/c)", "operator": "Bangalore Metro Rail Corporation Limited", "subway": "yes", "voltage": "750"}}, {"type": "node", "id": 1578382711, "lat": 13.000549, "lon": 77.6093589, "tags": {"colour": "pink", "construction": "station", "construction:public_transport": "station", "construction:railway": "station", "construction:station": "subway", "frequency": "0", "name": "Pottery Town (u/c)", "name:kn": "\u0caa\u0cca\u0c9f\u0cb0\u0cbf \u0c9f\u0ccc\u0ca8\u0ccd", "network": "Namma Metro", "note": "Contributors are requested to not edit the \"network\" and the \"operator\" tags. (2023/11/08)", "operator": "Bangalore Metro Rail Corporation Limited", "subway": "yes", "voltage": "750"}}, {"type": "node", "id": 1578382785, "lat": 12.9652764, "lon": 77.6069478, "tags": {"colour": "pink", "construction": "station", "construction:public_transport": "station", "construction:railway": "station", "construction:station": "subway", "frequency": "0", "name": "Rashtriya Military School Metro Station (u/c)", "name:kn": "\u0cb0\u0cbe\u0cb7\u0ccd\u0c9f\u0ccd\u0cb0\u0cc0\u0caf \u0cae\u0cbf\u0cb2\u0cbf\u0c9f\u0cb0\u0cbf \u0cb6\u0cbe\u0cb2\u0cc6", "network": "Namma Metro", "note": "Contributors are requested to not edit the \"network\" and the \"operator\" tags. (2023/11/08)", "old_name": "Vellara Junction", "operator": "Bangalore Metro Rail Corporation Limited", "subway": "yes", "voltage": "750"}}, {"type": "node", "id": 1579059710, "lat": 13.0299575, "lon": 77.6207269, "tags": {"colour": "pink", "construction": "station", "construction:public_transport": "station", "construction:railway": "station", "construction:station": "subway", "frequency": "0", "name": "Kadugundanahalli (u/c)", "name:kn": "\u0c95\u0ca1\u0cc1\u0c97\u0cc1\u0c82\u0ca1\u0ca8\u0cb9\u0cb3\u0ccd\u0cb3\u0cbf", "network": "Namma Metro", "note": "Contributors are requested to not edit the \"network\" and the \"operator\" tags. (2023/11/08)", "operator": "Bangalore Metro Rail Corporation Limited", "subway": "yes", "voltage": "750"}}, {"type": "node", "id": 1579059713, "lat": 13.0173057, "lon": 77.6180179, "tags": {"colour": "pink", "construction": "station", "construction:public_transport": "station", "construction:railway": "station", "construction:station": "subway", "frequency": "0", "name": "Venkateshapura (u/c)", "name:kn": "\u0cb5\u0cc6\u0c82\u0c95\u0c9f\u0cc7\u0cb6\u0caa\u0cc1\u0cb0", "network": "Namma Metro", "note": "Contributors are requested to not edit the \"network\" and the \"operator\" tags. (2023/11/08)", "operator": "Bangalore Metro Rail Corporation Limited", "subway": "yes", "voltage": "750"}}, {"type": "node", "id": 1579059716, "lat": 12.9837893, "lon": 77.6020407, "tags": {"colour": "pink", "construction": "station", "construction:public_transport": "station", "construction:railway": "station", "construction:station": "subway", "frequency": "0", "name": "Shivajinagar (u/c)", "name:kn": "\u0cb6\u0cbf\u0cb5\u0cbe\u0c9c\u0cbf\u0ca8\u0c97\u0cb0", "network": "Namma Metro", "note": "Contributors are requested to not edit the \"network\" and the \"operator\" tags. (2023/11/08)", "operator": "Bangalore Metro Rail Corporation Limited", "subway": "yes", "voltage": "750"}}, {"type": "node", "id": 1579059734, "lat": 12.9919088, "lon": 77.6062779, "tags": {"colour": "pink", "construction": "station", "construction:public_transport": "station", "construction:railway": "station", "construction:station": "subway", "frequency": "0", "name": "Cantonment (u/c)", "name:kn": "\u0c95\u0c82\u0c9f\u0ccb\u0ca8\u0ccd\u0cae\u0cc6\u0c82\u0c9f\u0ccd", "network": "Namma Metro", "note": "Contributors are requested to not edit the \"network\" and the \"operator\" tags. (2023/11/08)", "operator": "Bangalore Metro Rail Corporation Limited", "subway": "yes", "voltage": "750"}}, {"type": "node", "id": 1837284442, "lat": 12.8267018, "lon": 77.5613418, "tags": {"highway": "bus_stop", "loc_name": "SHANUBHOGANA HALLI", "name": "Shanubhoganahalli", "name:en": "Shanubhoganahalli", "name:kn": "\u0cb6\u0cbe\u0ca8\u0cc1\u0cad\u0ccb\u0c97\u0ca8\u0cb9\u0cb3\u0ccd\u0cb3\u0cbf", "network": "BMTC", "operator": "BMTC", "public_transport": "platform"}}, {"type": "node", "id": 1837284564, "lat": 12.8400106, "lon": 77.5806403, "tags": {"alt_name": "Maruthi Layout", "highway": "bus_stop", "name": "Maruthi Badavane", "name:en": "Maruthi Badavane", "name:kn": "\u0cae\u0cbe\u0cb0\u0cc1\u0ca4\u0cbf \u0cac\u0ca1\u0cbe\u0cb5\u0ca3\u0cc6", "network": "BMTC", "operator": "BMTC", "public_transport": "platform"}}, {"type": "node", "id": 1837284618, "lat": 12.8443934, "lon": 77.59808, "tags": {"bus": "yes", "name": "Hommadevanahalli", "name:en": "Hommadevanahalli", "network": "BMTC", "operator": "BMTC", "public_transport": "stop_position"}}, {"type": "node", "id": 1837445428, "lat": 12.9752711, "lon": 77.6079905}, {"type": "node", "id": 1838767615, "lat": 12.9047695, "lon": 77.5300742, "tags": {"bus": "yes", "name": "Patalamma Temple", "name:en": "Patalamma Temple", "name:kn": "\u0caa\u0c9f\u0cbe\u0cb2\u0cae\u0ccd\u0cae \u0ca6\u0cc7\u0cb5\u0cb8\u0ccd\u0ca5\u0cbe\u0ca8", "network": "BMTC", "operator": "BMTC", "public_transport": "stop_position"}}, {"type": "node", "id": 1838767630, "lat": 12.9047275, "lon": 77.5301838, "tags": {"highway": "bus_stop", "name": "Patalamma Temple", "name:en": "Patalamma Temple", "name:kn": "\u0caa\u0c9f\u0cbe\u0cb2\u0cae\u0ccd\u0cae \u0ca6\u0cc7\u0cb5\u0cb8\u0ccd\u0ca5\u0cbe\u0ca8", "network": "BMTC", "operator": "BMTC", "public_transport": "platform"}}, {"type": "node", "id": 1914152934, "lat": 12.8327396, "lon": 77.5891907, "tags": {"highway": "bus_stop", "loc_name": "Bannerghatta Road", "name": "Kalkere", "name:en": "Kalkere", "name:kn": "\u0c95\u0cb2\u0ccd\u0c95\u0cc6\u0cb0\u0cc6", "network": "BMTC", "operator": "BMTC", "public_transport": "platform"}}, {"type": "node", "id": 1915288565, "lat": 12.844515, "lon": 77.583665, "tags": {"bus": "yes", "highway": "bus_stop", "name": "Weavers Colony", "name:en": "Weavers Colony", "network": "BMTC", "operator": "BMTC", "public_transport": "platform"}}, {"type": "node", "id": 2026478514, "lat": 12.8914833, "lon": 77.575556, "tags": {"highway": "bus_stop", "loc_name": "Eshwara Layout", "name": "Chunchagatta", "name:kn": "\u0c9a\u0cc1\u0c82\u0c9a\u0c98\u0c9f\u0ccd\u0c9f", "shelter": "yes"}}, {"type": "node", "id": 2073297076, "lat": 12.9027674, "lon": 77.5360364, "tags": {"name": "Poornaprajna Nagara Bus Stand", "name:kn": "\u0caa\u0cc2\u0cb0\u0ccd\u0ca3\u0caa\u0ccd\u0cb0\u0c9c\u0ccd\u0c9e", "public_transport": "stop_position"}}, {"type": "node", "id": 2084760907, "lat": 12.904904, "lon": 77.5733434}, {"type": "node", "id": 2084760910, "lat": 12.9014972, "lon": 77.5734294}, {"type": "node", "id": 2084760911, "lat": 12.9002775, "lon": 77.5731012}, {"type": "node", "id": 2084760916, "lat": 12.9062199, "lon": 77.5732987}, {"type": "node", "id": 2168942581, "lat": 12.8981831, "lon": 77.5824632, "tags": {"bench": "yes", "bin": "no", "check_date:shelter": "2025-07-19", "highway": "bus_stop", "lit": "no", "name": "Puttenahalli", "name:kn": "\u0caa\u0cc1\u0c9f\u0ccd\u0c9f\u0cc7\u0ca8\u0cb9\u0cb3\u0ccd\u0cb3\u0cbf", "shelter": "yes", "source": "GPS"}}, {"type": "node", "id": 2187127513, "lat": 12.8603818, "lon": 77.5740779, "tags": {"highway": "bus_stop", "name": "Vaddarapalya", "name:kn": "\u0cb5\u0ca1\u0ccd\u0ca1\u0cb0\u0caa\u0cbe\u0cb3\u0ccd\u0caf"}}, {"type": "node", "id": 2247888172, "lat": 12.8918219, "lon": 77.5208883, "tags": {"highway": "bus_stop", "loc_name": "KARIYANAPALYA", "name": "Kariyana Palya", "name:kn": "\u0c95\u0cb0\u0cbf\u0caf\u0ca8 \u0caa\u0cbe\u0cb3\u0ccd\u0caf"}}, {"type": "node", "id": 2247955690, "lat": 12.8552914, "lon": 77.5145498, "tags": {"bus": "yes", "highway": "bus_stop", "loc_name": "TALAGUTA PURA", "name": "Nagegowdana Palya Cross", "public_transport": "platform"}}, {"type": "node", "id": 2248538540, "lat": 12.8736611, "lon": 77.5568263, "tags": {"highway": "bus_stop", "name": "Thippasandra", "name:kn": "\u0ca4\u0cbf\u0caa\u0ccd\u0caa\u0cb8\u0c82\u0ca6\u0ccd\u0cb0"}}, {"type": "node", "id": 2250290034, "lat": 12.8856367, "lon": 77.5559889}, {"type": "node", "id": 2250290037, "lat": 12.8861991, "lon": 77.5577428}, {"type": "node", "id": 2250290038, "lat": 12.8866017, "lon": 77.5590708}, {"type": "node", "id": 2250764997, "lat": 12.8204781, "lon": 77.5224844, "tags": {"bus": "yes", "highway": "bus_stop", "loc_name": "O.B.CHUDAHALLI", "name": "Gulaka Malai", "public_transport": "platform"}}, {"type": "node", "id": 2254837158, "lat": 12.8902593, "lon": 77.5979064, "tags": {"bench": "yes", "bus": "yes", "highway": "bus_stop", "name": "Arekere Gate", "name:kn": "\u0c85\u0cb0\u0cc6\u0c95\u0cc6\u0cb0\u0cc6 \u0c97\u0cc7\u0c9f\u0ccd", "network": "BMTC", "network:wikidata": "Q3345039", "operator": "BMTC", "public_transport": "platform", "shelter": "no"}}, {"type": "node", "id": 2259653343, "lat": 12.8867874, "lon": 77.5967537, "tags": {"bench": "yes", "bin": "no", "covered": "yes", "highway": "bus_stop", "name": "Arekere BPL", "name:en": "Arekere BPL", "network": "BMTC", "operator": "BMTC", "public_transport": "platform", "shelter": "yes"}}, {"type": "node", "id": 2259653344, "lat": 12.8868411, "lon": 77.5969514, "tags": {"bench": "yes", "bin": "no", "bus": "yes", "highway": "bus_stop", "lit": "no", "name": "Arakere BPL", "name:en": "Arakere BPL", "network": "BMTC", "network:wikidata": "Q3345039", "operator": "BMTC", "public_transport": "platform", "shelter": "yes"}}, {"type": "node", "id": 2259653345, "lat": 12.8808897, "lon": 77.5959519, "tags": {"addr:city": "Bangalore", "bus": "yes", "highway": "bus_stop", "name": "Hulimavu Gate", "name:en": "Hulimavu Gate", "name:kn": "\u0cb9\u0cc1\u0cb3\u0cbf\u0cae\u0cbe\u0cb5\u0cc1", "network": "BMTC", "network:wikidata": "Q3345039", "operator": "BMTC", "public_transport": "platform"}}, {"type": "node", "id": 2259653346, "lat": 12.881492, "lon": 77.5958581, "tags": {"addr:city": "Bangalore", "bus": "yes", "highway": "bus_stop", "name": "Hulimaavu Gate", "name:kn": "\u0cb9\u0cc1\u0cb3\u0cbf\u0cae\u0cbe\u0cb5\u0cc1", "public_transport": "platform"}}, {"type": "node", "id": 2393771247, "lat": 12.9028393, "lon": 77.5214275, "tags": {"highway": "bus_stop", "name": "Channasandra", "name:en": "Channasandra", "name:kn": "\u0c9a\u0ca8\u0ccd\u0ca8\u0cb8\u0c82\u0ca6\u0ccd\u0cb0", "network": "BMTC", "operator": "BMTC", "public_transport": "platform"}}, {"type": "node", "id": 2393773499, "lat": 12.9033405, "lon": 77.5161464, "tags": {"bus": "yes", "highway": "bus_stop", "name": "Chanasandra Colony", "name:en": "Chanasandra Colony", "network": "BMTC", "operator": "BMTC", "public_transport": "platform"}}, {"type": "node", "id": 2409882222, "lat": 12.8973609, "lon": 77.5714206, "tags": {"highway": "bus_stop", "loc_name": "Kanakapura Road", "name": "Yelachenahalli", "name:kn": "\u0caa\u0cc1\u0c9f\u0ccd\u0c9f\u0cc7\u0ca8\u0cb9\u0cb3\u0ccd\u0cb3\u0cbf"}}, {"type": "node", "id": 2409884077, "lat": 12.8944928, "lon": 77.5687546, "tags": {"highway": "bus_stop", "loc_name": "Kanakapura Road", "name": "Metro Konanakunte", "name:kn": "\u0cae\u0cc6\u0c9f\u0ccd\u0cb0\u0ccb \u0c95\u0cca\u0ca3\u0ca8\u0c95\u0cc1\u0c82\u0c9f\u0cc6"}}, {"type": "node", "id": 2409887340, "lat": 12.890447, "lon": 77.5640809, "tags": {"bench": "no", "bin": "no", "highway": "bus_stop", "lit": "yes", "loc_name": "KONANA KUNTE CROSS", "name": "Konanakunte Cross", "name:en": "Konanakunte Cross", "name:kn": "\u0c95\u0cca\u0ca3\u0ca8\u0c95\u0cc1\u0c82\u0c9f\u0cc6 \u0c95\u0ccd\u0cb0\u0cbe\u0cb8\u0ccd", "network": "BMTC", "operator": "BMTC", "public_transport": "platform", "shelter": "no"}}, {"type": "node", "id": 2409896875, "lat": 12.9014036, "lon": 77.5441537, "tags": {"highway": "bus_stop", "loc_name": "SUBRAMANYA PURA", "name": "Subramanyapura Police Station", "name:en": "Subramanyapura Police Station", "name:kn": "\u0cb8\u0cc1\u0cac\u0ccd\u0cb0\u0cae\u0ca3\u0ccd\u0caf\u0caa\u0cc1\u0cb0 \u0c86\u0cb0\u0c95\u0ccd\u0cb7\u0c95", "public_transport": "platform"}}, {"type": "node", "id": 2409900734, "lat": 12.9007967, "lon": 77.5598926, "tags": {"brand": "Canara Bank", "brand:pa": "\u0a15\u0a47\u0a28\u0a30\u0a3e \u0a2c\u0a48\u0a02\u0a15", "brand:ur": "\u06a9\u06cc\u0646\u0631\u0627 \u0628\u06cc\u0646\u06a9", "brand:wikidata": "Q2003777", "brand:wikipedia": "en:Canara Bank", "brand:wikipedia:pa": "\u0a15\u0a47\u0a28\u0a30\u0a3e \u0a2c\u0a48\u0a02\u0a15", "highway": "bus_stop", "loc_name": "Kumaraswamy Layout", "name": "Canara Bank", "name:kn": "\u0c95\u0cc6\u0ca8\u0cb0\u0cbe \u0cac\u0ccd\u0caf\u0cbe\u0c82\u0c95\u0ccd", "name:pa": "\u0a15\u0a47\u0a28\u0a30\u0a3e \u0a2c\u0a48\u0a02\u0a15", "name:ur": "\u06a9\u06cc\u0646\u0631\u0627 \u0628\u06cc\u0646\u06a9"}}, {"type": "node", "id": 2409907591, "lat": 12.8861484, "lon": 77.5706409, "tags": {"highway": "bus_stop", "loc_name": "KONANAKUNTE", "name": "Bekary Ganapathi Pura"}}, {"type": "node", "id": 2409915210, "lat": 12.9022049, "lon": 77.5358062, "tags": {"bus": "yes", "highway": "bus_stop", "loc_name": "POORNA PRAJNA NAGARA", "name": "Poornapragna Layout", "name:kn": "\u0caa\u0cc2\u0cb0\u0ccd\u0ca3\u0caa\u0ccd\u0cb0\u0c9c\u0ccd\u0c9e \u0cac\u0ca1\u0cbe\u0cb5\u0ca3\u0cc6", "public_transport": "platform"}}, {"type": "node", "id": 2409919423, "lat": 12.8856256, "lon": 77.5417937, "tags": {"bus": "yes", "highway": "bus_stop", "loc_name": "Gubbalala", "name": "Gubbalala", "name:kn": "\u0c97\u0cc1\u0cac\u0ccd\u0cac\u0cb2\u0cbe\u0cb2", "public_transport": "platform"}}, {"type": "node", "id": 2409982483, "lat": 12.9022009, "lon": 77.5576007, "tags": {"highway": "bus_stop", "name": "Kumaraswamy Layout West"}}, {"type": "node", "id": 2410086046, "lat": 12.9019656, "lon": 77.5624021, "tags": {"bus": "yes", "highway": "bus_stop", "name": "Chandranagara Cross", "public_transport": "platform"}}, {"type": "node", "id": 2410086901, "lat": 12.9007208, "lon": 77.565277, "tags": {"highway": "bus_stop", "name": "Chandranagara", "name:kn": "\u0c9a\u0c82\u0ca6\u0ccd\u0cb0\u0ca8\u0c97\u0cb0"}}, {"type": "node", "id": 2410097685, "lat": 12.8811509, "lon": 77.5461593, "tags": {"bus": "yes", "highway": "bus_stop", "loc_name": "Kanakapura Road", "name": "Raghuvanahalli Gate", "name:en": "Raghuvanahalli Gate", "name:kn": "\u0cb0\u0c98\u0cc1\u0cb5\u0ca8\u0cb9\u0cb3\u0ccd\u0cb3\u0cbf \u0c97\u0cc7\u0c9f\u0ccd", "network": "BMTC", "operator": "BMTC", "public_transport": "platform"}}, {"type": "node", "id": 2410098451, "lat": 12.8692859, "lon": 77.5365553, "tags": {"highway": "bus_stop", "name": "Thalaghattapura", "name:en": "Thalaghattapura", "name:kn": "\u0ca4\u0cb2\u0c98\u0c9f\u0ccd\u0c9f\u0caa\u0cc1\u0cb0", "network": "BMTC", "operator": "BMTC", "public_transport": "platform"}}, {"type": "node", "id": 2410102067, "lat": 12.8599366, "lon": 77.5288171, "tags": {"highway": "bus_stop", "loc_name": "Kanakapura Road", "name": "Jyothi Farm"}}, {"type": "node", "id": 2410511091, "lat": 12.8527766, "lon": 77.5302443, "tags": {"highway": "bus_stop", "loc_name": "TALAGUTA PURA", "name": "Vajramuneshwara Temple", "name:kn": "\u0cb5\u0c9c\u0ccd\u0cb0 \u0cae\u0cc1\u0ca8\u0cc7\u0cb6\u0ccd\u0cb5\u0cb0 \u0ca6\u0cc7\u0cb5\u0cb8\u0ccd\u0ca5\u0cbe\u0ca8"}}, {"type": "node", "id": 2410530194, "lat": 12.8180141, "lon": 77.5206294, "tags": {"bus": "yes", "highway": "bus_stop", "name": "Vasudevapura", "name:kn": "\u0cb5\u0cbe\u0cb8\u0cc1\u0ca6\u0cc7\u0cb5\u0caa\u0cc1\u0cb0", "public_transport": "platform"}}, {"type": "node", "id": 2410872968, "lat": 12.8798877, "lon": 77.5487527, "tags": {"bus": "yes", "highway": "bus_stop", "name": "BCC Layout", "name:kn": "\u0cac\u0cbf\u0cb8\u0cbf\u0cb8\u0cbf \u0cb2\u0cc7\u0c94\u0c9f\u0ccd", "public_transport": "platform"}}, {"type": "node", "id": 2415787662, "lat": 12.8728416, "lon": 77.5665732, "tags": {"bus": "yes", "highway": "bus_stop", "loc_name": "J.P.NAGARA 9TH PHASE", "name": "Avalahalli", "name:kn": "\u0c85\u0cb5\u0cb2\u0cb9\u0cb3\u0ccd\u0cb3\u0cbf", "public_transport": "platform", "shelter": "no"}}, {"type": "node", "id": 2415789337, "lat": 12.861752, "lon": 77.5607972, "tags": {"highway": "bus_stop", "loc_name": "ANJANAPURA", "name": "Anjanapura Cross", "name:en": "Anjanapura Cross", "name:kn": "\u0c85\u0c82\u0c9c\u0ca8\u0cbe\u0caa\u0cc1\u0cb0", "network": "BMTC", "operator": "BMTC", "public_transport": "platform"}}, {"type": "node", "id": 2415789547, "lat": 12.8577176, "lon": 77.5567241, "tags": {"highway": "bus_stop", "loc_name": "ANJANAPURA", "name": "Vajragiri Estate", "name:en": "Vajragiri Estate", "network": "BMTC", "operator": "BMTC", "public_transport": "platform"}}, {"type": "node", "id": 2415790342, "lat": 12.8395442, "lon": 77.5496693, "tags": {"highway": "bus_stop", "loc_name": "AMRUTH NAGARA", "name": "Amruth Nagara", "name:kn": "\u0c85\u0cae\u0cc3\u0ca4\u0ca8\u0c97\u0cb0"}}, {"type": "node", "id": 2415941547, "lat": 12.8772768, "lon": 77.5706271, "tags": {"highway": "bus_stop", "loc_name": "HARI NAGARA", "name": "Harinagara", "name:kn": "\u0cb9\u0cb0\u0cbf\u0ca6\u0cbe\u0cb8\u0ca8\u0c97\u0cb0"}}, {"type": "node", "id": 2415942320, "lat": 12.876558, "lon": 77.577147, "tags": {"bench": "yes", "bus": "yes", "highway": "bus_stop", "loc_name": "KOTHANURU", "name": "Kothnuru Last Bus stop", "name:kn": "\u0c95\u0cca\u0ca5\u0ca8\u0cc2\u0cb0\u0cc1", "network": "BMTC", "network:wikidata": "Q3345039", "public_transport": "platform", "shelter": "no"}}, {"type": "node", "id": 2415946868, "lat": 12.8725257, "lon": 77.5606665, "tags": {"highway": "bus_stop", "loc_name": "VISHWESHWARAYA LAYOUT", "name": "Avalahalli BDA Layout"}}, {"type": "node", "id": 2415951863, "lat": 12.8922892, "lon": 77.5818304, "tags": {"bus": "yes", "highway": "bus_stop", "loc_name": "R.B.I.LAYOUT", "name": "Brigade Millennium", "name:kn": "\u0cac\u0ccd\u0cb0\u0cbf\u0c97\u0cc7\u0ca1\u0ccd \u0cae\u0cbf\u0cb2\u0cc7\u0ca8\u0cbf\u0caf\u0c82", "public_transport": "platform", "shelter": "no"}}, {"type": "node", "id": 2415952406, "lat": 12.8879987, "lon": 77.5818506, "tags": {"bench": "yes", "bus": "yes", "covered": "yes", "highway": "bus_stop", "loc_name": "R.B.I.LAYOUT", "name": "RBI Layout", "name:en": "RBI Layout", "name:kn": "\u0c86\u0cb0\u0ccd\u200c\u0cac\u0cbf\u0c90 \u0cb2\u0cc7\u0c94\u0c9f\u0ccd", "network": "BMTC", "operator": "BMTC", "public_transport": "platform", "shelter": "yes"}}, {"type": "node", "id": 2415952533, "lat": 12.8847863, "lon": 77.582685, "tags": {"highway": "bus_stop", "loc_name": "GOWRAVA NAGARA", "name": "Gowrava Nagar", "name:en": "Gowrava Nagar", "name:kn": "\u0c97\u0ccc\u0cb0\u0cb5 \u0ca8\u0c97\u0cb0", "network": "BMTC", "operator": "BMTC", "public_transport": "platform"}}, {"type": "node", "id": 2415953435, "lat": 12.8812821, "lon": 77.5838693, "tags": {"highway": "bus_stop", "loc_name": "NAVODAYA NAGARA", "name": "Navodaya Nagara", "name:en": "Navodaya Nagara", "name:kn": "\u0ca8\u0cb5\u0ccb\u0ca6\u0caf \u0ca8\u0c97\u0cb0", "network": "BMTC", "operator": "BMTC", "public_transport": "platform"}}, {"type": "node", "id": 2415959909, "lat": 12.8739328, "lon": 77.5612479, "tags": {"bus": "yes", "name": "Avalahalli BDA Layout Cross", "name:en": "Avalahalli BDA Layout Cross", "network": "BMTC", "operator": "BMTC", "public_transport": "stop_position"}}, {"type": "node", "id": 2415960197, "lat": 12.8836579, "lon": 77.5546431, "tags": {"bus": "yes", "highway": "bus_stop", "name": "Narayana Nagara", "name:kn": "\u0ca8\u0cbe\u0cb0\u0cbe\u0caf\u0ca3 \u0ca8\u0c97\u0cb0", "public_transport": "platform"}}, {"type": "node", "id": 2415964442, "lat": 12.8642338, "lon": 77.5752249, "tags": {"bus": "yes", "highway": "bus_stop", "name": "Vaddarapalya Cross", "public_transport": "platform"}}, {"type": "node", "id": 2415976264, "lat": 12.8592461, "lon": 77.5701666, "tags": {"highway": "bus_stop", "loc_name": "ANJANAPURA", "name": "Chamundeshwari Temple", "name:kn": "\u0c9a\u0cbe\u0cae\u0cc1\u0c82\u0ca1\u0cc7\u0cb6\u0ccd\u0cb5\u0cb0\u0cbf \u0ca6\u0cc7\u0cb5\u0cb8\u0ccd\u0ca5\u0cbe\u0ca8", "operator": "BTMC", "shelter": "no"}}, {"type": "node", "id": 2415978572, "lat": 12.864703, "lon": 77.563068, "tags": {"highway": "bus_stop", "name": "J Srinivasa Reddy Layout"}}, {"type": "node", "id": 2416245114, "lat": 12.8943642, "lon": 77.571877, "tags": {"highway": "bus_stop", "name": "Ganapathipura Cross", "name:kn": "\u0c97\u0ca3\u0caa\u0ca4\u0cbf\u0caa\u0cc1\u0cb0 \u0c85\u0ca1\u0ccd\u0ca1\u0cb0\u0cb8\u0ccd\u0ca4\u0cc6"}}, {"type": "node", "id": 2416251817, "lat": 12.8814877, "lon": 77.575728, "tags": {"highway": "bus_stop", "loc_name": "MARUTHI NAGARA", "name": "Maruthi School", "name:kn": "\u0cae\u0cbe\u0cb0\u0cc1\u0ca4\u0cbf \u0cb6\u0cbe\u0cb2\u0cc6"}}, {"type": "node", "id": 2416314113, "lat": 12.9019552, "lon": 77.5949811, "tags": {"highway": "bus_stop", "loc_name": "VINAYAKA NAGARA", "name": "Kalyani Magnum JP Nagara", "shelter": "no"}}, {"type": "node", "id": 2416328329, "lat": 12.8894455, "lon": 77.5938362, "tags": {"highway": "bus_stop", "name": "Arekere MICO Layout"}}, {"type": "node", "id": 2416353512, "lat": 12.8450136, "lon": 77.5578836, "tags": {"highway": "bus_stop", "name": "Tulasipura", "name:en": "Tulasipura", "name:kn": "\u0ca4\u0cc1\u0cb2\u0cb8\u0cbf\u0caa\u0cc1\u0cb0", "network": "BMTC", "operator": "BMTC", "public_transport": "platform"}}, {"type": "node", "id": 2416368278, "lat": 12.9010682, "lon": 77.5859397, "tags": {"bench": "no", "bin": "no", "highway": "bus_stop", "lit": "no", "loc_name": "J.P.NAGARA 5TH PHASE", "name": "Auto Gas/Royal School", "name:en": "Auto Gas/Royal School", "name:kn": "\u0c87\u0c82\u0c9a\u0cb0", "network": "BMTC", "operator": "BMTC", "public_transport": "platform", "shelter": "yes"}}, {"type": "node", "id": 2416392187, "lat": 12.8326743, "lon": 77.55296, "tags": {"bus": "yes", "highway": "bus_stop", "name": "Kulumepalya", "name:en": "Kulumepalya", "name:kn": "\u0c95\u0cc1\u0cb2\u0cc1\u0cae\u0cc6 \u0caa\u0cbe\u0cb3\u0ccd\u0caf", "network": "BMTC", "operator": "BMTC", "public_transport": "platform"}}, {"type": "node", "id": 2417282173, "lat": 12.8162708, "lon": 77.5508276, "tags": {"highway": "bus_stop", "loc_name": "BYATARAYANA DODDI", "name": "Byatarayana Doddi Cross"}}, {"type": "node", "id": 2417282230, "lat": 12.8225001, "lon": 77.5570748, "tags": {"highway": "bus_stop", "loc_name": "KANCHAGAYANADODDI", "name": "Kenchanayakanadoddi"}}, {"type": "node", "id": 2417282843, "lat": 12.8362516, "lon": 77.5767564, "tags": {"alt_name": "Bilwarada Halli", "bus": "yes", "highway": "bus_stop", "loc_name": "Bilavaradahalli", "name": "Bilavaradahalli", "name:en": "Bilavaradahalli", "name:kn": "\u0cac\u0cbf\u0cb2\u0ccd\u0cb5\u0cbe\u0cb0\u0ca6\u0cb9\u0cb3\u0ccd\u0cb3\u0cbf", "network": "BMTC", "operator": "BMTC", "public_transport": "platform"}}, {"type": "node", "id": 2417283052, "lat": 12.8413015, "lon": 77.5886734, "tags": {"bench": "no", "bus": "yes", "highway": "bus_stop", "loc_name": "Bannerghatta Road,KALKERE", "name": "Koli Farm Gate", "name:en": "Koli Farm Gate", "network": "BMTC", "operator": "BMTC", "public_transport": "platform", "shelter": "no"}}, {"type": "node", "id": 2417283678, "lat": 12.8346247, "lon": 77.5891575, "tags": {"bus": "yes", "highway": "bus_stop", "loc_name": "Bannerghatta Road", "name": "Tulip Resort Cross", "public_transport": "platform"}}, {"type": "node", "id": 2417284751, "lat": 12.8156657, "lon": 77.5832022, "tags": {"bus": "yes", "highway": "bus_stop", "loc_name": "Banneragatta Circle", "name": "Vijaya Bank Bannerughatta", "name:en": "Vijaya Bank Bannerughatta", "name:kn": "\u0cb5\u0cbf\u0c9c\u0caf \u0cac\u0ccd\u0caf\u0cbe\u0c82\u0c95\u0cc1", "network": "BMTC", "network:wikidata": "Q3345039", "operator": "BMTC", "public_transport": "platform"}}, {"type": "node", "id": 2417406624, "lat": 12.8749283, "lon": 77.5374892, "tags": {"bench": "yes", "covered": "yes", "highway": "bus_stop", "name": "Manjunatha Kalyana Mantapa", "name:en": "Manjunatha Kalyana Mantapa", "name:kn": "\u0cae\u0c82\u0c9c\u0cc1\u0ca8\u0cbe\u0ca5 \u0c95\u0cb2\u0ccd\u0caf\u0cbe\u0ca3 \u0cae\u0c82\u0c9f\u0caa", "network": "BMTC", "operator": "BMTC", "public_transport": "platform", "shelter": "yes"}}, {"type": "node", "id": 2417407989, "lat": 12.8759616, "lon": 77.5332439, "tags": {"highway": "bus_stop", "name": "Ganigara Palya", "name:kn": "\u0c97\u0ca3\u0cbf\u0c97\u0cb0\u0caa\u0cbe\u0cb3\u0ccd\u0caf"}}, {"type": "node", "id": 2417410558, "lat": 12.8785727, "lon": 77.5151455, "tags": {"highway": "bus_stop", "name": "Chikkegowdana Palya", "name:kn": "\u0c9a\u0cbf\u0c95\u0ccd\u0c95\u0cc6\u0c97\u0ccc\u0ca1\u0ca8\u0caa\u0cbe\u0cb3\u0ccd\u0caf"}}, {"type": "node", "id": 2473324040, "lat": 12.8992543, "lon": 77.5580067}, {"type": "node", "id": 2473324041, "lat": 12.8990359, "lon": 77.5583003}, {"type": "node", "id": 2639216659, "lat": 12.9007941, "lon": 77.6011827, "tags": {"bench": "yes", "bus": "yes", "highway": "bus_stop", "name": "Bilekahalli", "name:en": "Bilekahalli", "name:kn": "\u0cac\u0cbf\u0cb3\u0cc7\u0c95\u0cb9\u0cb3\u0ccd\u0cb3\u0cbf", "network": "BMTC", "network:wikidata": "Q3345039", "operator": "BMTC", "public_transport": "platform", "shelter": "yes"}}, {"type": "node", "id": 2639216672, "lat": 12.9002893, "lon": 77.6008782, "tags": {"bus": "yes", "highway": "bus_stop", "name": "Bilekahalli", "name:kn": "\u0cac\u0cbf\u0cb3\u0cc7\u0c95\u0cb9\u0cb3\u0ccd\u0cb3\u0cbf", "public_transport": "platform"}}, {"type": "node", "id": 2653436758, "lat": 12.8996187, "lon": 77.5588913}, {"type": "node", "id": 2939016466, "lat": 12.896274, "lon": 77.5998603, "tags": {"bench": "yes", "bin": "yes", "highway": "bus_stop", "lit": "yes", "name": "IIM Apollo", "name:en": "IIM Apollo", "network": "BMTC", "operator": "BMTC", "public_transport": "platform", "shelter": "yes"}}, {"type": "node", "id": 2939016472, "lat": 12.8959965, "lon": 77.5996317, "tags": {"highway": "bus_stop", "name": "IIM", "shelter": "yes"}}, {"type": "node", "id": 3149435087, "lat": 12.8917429, "lon": 77.5601377, "tags": {"bus": "yes", "name": "Ragi Machine", "name:en": "Ragi Machine", "network": "BMTC", "operator": "BMTC", "public_transport": "stop_position"}}, {"type": "node", "id": 3417085511, "lat": 12.8999243, "lon": 77.5586321}, {"type": "node", "id": 3529654164, "lat": 12.9875684, "lon": 77.6035545}, {"type": "node", "id": 3913010891, "lat": 12.8932211, "lon": 77.5674777}, {"type": "node", "id": 3913010893, "lat": 12.9017801, "lon": 77.5734628}, {"type": "node", "id": 3913010894, "lat": 12.9020677, "lon": 77.5734708}, {"type": "node", "id": 3913010897, "lat": 12.9057733, "lon": 77.5733459}, {"type": "node", "id": 3913010898, "lat": 12.904063, "lon": 77.5732549}, {"type": "node", "id": 3913010899, "lat": 12.8945321, "lon": 77.5687719}, {"type": "node", "id": 3913010901, "lat": 12.8972517, "lon": 77.5712553}, {"type": "node", "id": 3913010902, "lat": 12.9038461, "lon": 77.5732336}, {"type": "node", "id": 3913010903, "lat": 12.8925194, "lon": 77.566717}, {"type": "node", "id": 4107785644, "lat": 12.9551079, "lon": 77.6057161}, {"type": "node", "id": 4107786000, "lat": 12.9615158, "lon": 77.6067078}, {"type": "node", "id": 4107786009, "lat": 12.9644368, "lon": 77.6069504}, {"type": "node", "id": 4107786010, "lat": 12.9683354, "lon": 77.6064958}, {"type": "node", "id": 4107786014, "lat": 13.0032458, "lon": 77.6119585}, {"type": "node", "id": 4107786015, "lat": 13.0038158, "lon": 77.6122728}, {"type": "node", "id": 4107786016, "lat": 13.0099852, "lon": 77.6142614}, {"type": "node", "id": 4107786017, "lat": 13.018785, "lon": 77.6185023}, {"type": "node", "id": 4107786018, "lat": 13.029344, "lon": 77.6205534}, {"type": "node", "id": 4107813320, "lat": 12.9316001, "lon": 77.6006307}, {"type": "node", "id": 4107813322, "lat": 12.93621, "lon": 77.6014857}, {"type": "node", "id": 4107813323, "lat": 12.9368206, "lon": 77.6015515}, {"type": "node", "id": 4107813324, "lat": 12.9378761, "lon": 77.6018216}, {"type": "node", "id": 4107813325, "lat": 12.9498388, "lon": 77.6032035}, {"type": "node", "id": 4107813326, "lat": 12.9521099, "lon": 77.6042657}, {"type": "node", "id": 4306277879, "lat": 12.8857355, "lon": 77.5557448, "tags": {"highway": "bus_stop", "name": "Doddakallasandra", "name:kn": "\u0ca6\u0cca\u0ca1\u0ccd\u0ca1\u0c95\u0cb2\u0ccd\u0cb2\u0cb8\u0c82\u0ca6\u0ccd\u0cb0"}}, {"type": "node", "id": 4529626639, "lat": 12.8661088, "lon": 77.5808539, "tags": {"highway": "bus_stop", "name": "Jambu Savari Bus Stop", "name:kn": "\u0c9c\u0c82\u0cac\u0cc2\u0cb8\u0cb5\u0cbe\u0cb0\u0cbf"}}, {"type": "node", "id": 4614007511, "lat": 12.8989976, "lon": 77.5725456}, {"type": "node", "id": 4614007512, "lat": 12.8996046, "lon": 77.5728639}, {"type": "node", "id": 4614145469, "lat": 12.8896241, "lon": 77.5634887}, {"type": "node", "id": 4698518654, "lat": 12.9758901, "lon": 77.6082259, "tags": {"colour": "pink", "construction": "station", "construction:public_transport": "station", "construction:railway": "station", "construction:station": "subway", "frequency": "0", "name": "Mahatma Gandhi Road (u/c)", "name:etymology:wikidata": "Q1001", "name:kn": "\u0cae\u0cb9\u0cbe\u0ca4\u0ccd\u0cae \u0c97\u0cbe\u0c82\u0ca7\u0cbf \u0cb0\u0cb8\u0ccd\u0ca4\u0cc6", "network": "Namma Metro", "note": "Contributors are requested to not edit the \"network\" and the \"operator\" tags. (2023/11/08)", "operator": "Bangalore Metro Rail Corporation Limited", "subway": "yes", "voltage": "750"}}, {"type": "node", "id": 4698518657, "lat": 12.9782667, "lon": 77.608769}, {"type": "node", "id": 4698518658, "lat": 12.9777483, "lon": 77.6088362}, {"type": "node", "id": 4698518659, "lat": 12.97444, "lon": 77.607744}, {"type": "node", "id": 4698518660, "lat": 12.9735359, "lon": 77.6074806}, {"type": "node", "id": 4698518661, "lat": 12.9729656, "lon": 77.6073153}, {"type": "node", "id": 4698518662, "lat": 12.9711312, "lon": 77.6069296}, {"type": "node", "id": 4702679392, "lat": 12.8774812, "lon": 77.6025003, "tags": {"highway": "bus_stop", "name": "Hulimavu Bus Stop", "name:en": "Hulimavu Bus Stop", "name:kn": "\u0cb9\u0cc1\u0cb3\u0cbf\u0cae\u0cbe\u0cb5\u0cc1"}}, {"type": "node", "id": 4907586904, "lat": 12.9043311, "lon": 77.5732851}, {"type": "node", "id": 4907586905, "lat": 12.9059627, "lon": 77.5733197}, {"type": "node", "id": 4907587626, "lat": 12.8993544, "lon": 77.5727487}, {"type": "node", "id": 4907587632, "lat": 12.9036281, "lon": 77.5732386}, {"type": "node", "id": 4907587633, "lat": 12.9055492, "lon": 77.5733662}, {"type": "node", "id": 4969383782, "lat": 12.9324696, "lon": 77.6007587, "tags": {"construction": "ramp", "name": "South Ramp", "railway": "construction"}}, {"type": "node", "id": 4969383786, "lat": 12.9400132, "lon": 77.6022433}, {"type": "node", "id": 4969383789, "lat": 12.9450153, "lon": 77.6025378}, {"type": "node", "id": 4969383790, "lat": 12.9423929, "lon": 77.6026417}, {"type": "node", "id": 4969383791, "lat": 12.9474571, "lon": 77.6023824}, {"type": "node", "id": 4969383793, "lat": 12.9478931, "lon": 77.6024891}, {"type": "node", "id": 4969383794, "lat": 12.9485591, "lon": 77.6027139}, {"type": "node", "id": 4969383796, "lat": 12.9438149, "lon": 77.6027186}, {"type": "node", "id": 4969383800, "lat": 12.9470413, "lon": 77.6023852}, {"type": "node", "id": 4969383802, "lat": 12.9443222, "lon": 77.6026466}, {"type": "node", "id": 4969383805, "lat": 12.9451618, "lon": 77.6025304}, {"type": "node", "id": 4969383807, "lat": 12.9412225, "lon": 77.6024293, "tags": {"colour": "pink", "construction": "station", "construction:public_transport": "station", "construction:railway": "station", "construction:station": "subway", "frequency": "0", "name": "Dairy Circle (u/c)", "network": "Namma Metro", "note": "Contributors are requested to not edit the \"network\" and the \"operator\" tags. (2023/11/08)", "operator": "Bangalore Metro Rail Corporation Limited", "subway": "yes", "voltage": "750"}}, {"type": "node", "id": 4969383816, "lat": 12.9453127, "lon": 77.6025288}, {"type": "node", "id": 4969383817, "lat": 12.9405441, "lon": 77.6023494}, {"type": "node", "id": 4969383819, "lat": 12.9433856, "lon": 77.6027447}, {"type": "node", "id": 4969383820, "lat": 12.9428442, "lon": 77.6027086}, {"type": "node", "id": 4969383826, "lat": 12.9420697, "lon": 77.6026058}, {"type": "node", "id": 4969383829, "lat": 12.9448066, "lon": 77.6025705}, {"type": "node", "id": 4969383840, "lat": 12.932777, "lon": 77.6008027}, {"type": "node", "id": 4969391407, "lat": 12.9857418, "lon": 77.6019568}, {"type": "node", "id": 4969391408, "lat": 12.9847942, "lon": 77.6018474}, {"type": "node", "id": 4969391409, "lat": 12.9797523, "lon": 77.6075897}, {"type": "node", "id": 4969391411, "lat": 12.9570476, "lon": 77.6060277}, {"type": "node", "id": 4969391412, "lat": 12.9862488, "lon": 77.6021768}, {"type": "node", "id": 4969391414, "lat": 12.9812411, "lon": 77.6033194}, {"type": "node", "id": 4969391419, "lat": 12.9650185, "lon": 77.6069758}, {"type": "node", "id": 4969391922, "lat": 12.9792929, "lon": 77.6081016}, {"type": "node", "id": 4969391925, "lat": 12.9830037, "lon": 77.6022637}, {"type": "node", "id": 4969391926, "lat": 12.9895628, "lon": 77.6056475}, {"type": "node", "id": 4969391928, "lat": 12.9673411, "lon": 77.6068061}, {"type": "node", "id": 4969391929, "lat": 12.9822515, "lon": 77.6026145}, {"type": "node", "id": 4969391933, "lat": 12.9828861, "lon": 77.602316}, {"type": "node", "id": 4969391935, "lat": 12.977608, "lon": 77.6088116}, {"type": "node", "id": 4969391936, "lat": 12.9833171, "lon": 77.6021827}, {"type": "node", "id": 4969391937, "lat": 12.9624177, "lon": 77.6068008}, {"type": "node", "id": 4969391938, "lat": 12.9890767, "lon": 77.6054973}, {"type": "node", "id": 4969391939, "lat": 12.9577741, "lon": 77.6061164}, {"type": "node", "id": 4969391941, "lat": 12.9666011, "lon": 77.6069229}, {"type": "node", "id": 4969391942, "lat": 12.9678606, "lon": 77.6066866}, {"type": "node", "id": 4969391944, "lat": 12.9539264, "lon": 77.605566}, {"type": "node", "id": 4969391945, "lat": 12.9876445, "lon": 77.6037593}, {"type": "node", "id": 4969391946, "lat": 12.9867663, "lon": 77.6025523}, {"type": "node", "id": 4969391947, "lat": 12.9811206, "lon": 77.6035335}, {"type": "node", "id": 4969391949, "lat": 12.9691915, "lon": 77.6063527}, {"type": "node", "id": 4969391952, "lat": 12.988716, "lon": 77.6052345}, {"type": "node", "id": 4969391953, "lat": 12.9562307, "lon": 77.6058639, "tags": {"colour": "pink", "construction": "station", "construction:public_transport": "station", "construction:railway": "station", "construction:station": "subway", "frequency": "0", "name": "Langford Town (u/c)", "name:kn": "\u0cb2\u0ccd\u0caf\u0cbe\u0c82\u0c97\u0ccd\u0cab\u0ccb\u0cb0\u0ccd\u0ca1\u0ccd \u0c9f\u0ccc\u0ca8\u0ccd", "network": "Namma Metro", "note": "Contributors are requested to not edit the \"network\" and the \"operator\" tags. (2023/11/08)", "operator": "Bangalore Metro Rail Corporation Limited", "subway": "yes", "voltage": "750"}}, {"type": "node", "id": 4969391954, "lat": 12.9688725, "lon": 77.606367}, {"type": "node", "id": 4969391955, "lat": 12.9817152, "lon": 77.6029471}, {"type": "node", "id": 4969391956, "lat": 12.9871636, "lon": 77.6030458}, {"type": "node", "id": 4969391957, "lat": 12.9640766, "lon": 77.6068917}, {"type": "node", "id": 4969391958, "lat": 12.9527501, "lon": 77.6047422}, {"type": "node", "id": 4969391959, "lat": 12.9789529, "lon": 77.6083764}, {"type": "node", "id": 4969391960, "lat": 12.951519, "lon": 77.6039268}, {"type": "node", "id": 4969391961, "lat": 12.9806138, "lon": 77.605272}, {"type": "node", "id": 4969391962, "lat": 12.9509649, "lon": 77.6035758}, {"type": "node", "id": 4969391963, "lat": 12.958118, "lon": 77.6061395}, {"type": "node", "id": 4969391964, "lat": 12.9820056, "lon": 77.6027505}, {"type": "node", "id": 4969391965, "lat": 12.9690192, "lon": 77.6063527}, {"type": "node", "id": 4969391969, "lat": 12.9795561, "lon": 77.6078218}, {"type": "node", "id": 4969391970, "lat": 12.9769583, "lon": 77.6086277}, {"type": "node", "id": 4969391971, "lat": 12.9661649, "lon": 77.6069398}, {"type": "node", "id": 4969391974, "lat": 12.9786399, "lon": 77.6085809}, {"type": "node", "id": 4969391977, "lat": 12.9814476, "lon": 77.6031279}, {"type": "node", "id": 4969391979, "lat": 12.9850711, "lon": 77.6018536}, {"type": "node", "id": 4969391981, "lat": 12.9542733, "lon": 77.6056186}, {"type": "node", "id": 4969391983, "lat": 12.9535236, "lon": 77.6053482}, {"type": "node", "id": 4969391985, "lat": 12.9625832, "lon": 77.6068092}, {"type": "node", "id": 4969391986, "lat": 12.963357, "lon": 77.6068637}, {"type": "node", "id": 4969391989, "lat": 12.9537121, "lon": 77.6054889}, {"type": "node", "id": 4969391991, "lat": 12.9825871, "lon": 77.602441}, {"type": "node", "id": 4969391992, "lat": 12.99112, "lon": 77.6060461}, {"type": "node", "id": 4969391993, "lat": 12.9587363, "lon": 77.6062375}, {"type": "node", "id": 4969391994, "lat": 12.9696435, "lon": 77.6065018}, {"type": "node", "id": 4969391995, "lat": 12.9881829, "lon": 77.6046873}, {"type": "node", "id": 4969391996, "lat": 12.9594707, "lon": 77.6063807}, {"type": "node", "id": 4969391998, "lat": 12.9808699, "lon": 77.604462}, {"type": "node", "id": 4969391999, "lat": 12.9608273, "lon": 77.6065858}, {"type": "node", "id": 4969392004, "lat": 12.9800388, "lon": 77.6070101}, {"type": "node", "id": 4969392005, "lat": 12.9798982, "lon": 77.6073532}, {"type": "node", "id": 4975326785, "lat": 13.012504, "lon": 77.6162769}, {"type": "node", "id": 4975326789, "lat": 13.0254791, "lon": 77.6195068}, {"type": "node", "id": 4975326790, "lat": 12.9943974, "lon": 77.6071227}, {"type": "node", "id": 4975326792, "lat": 12.9967574, "lon": 77.6069774}, {"type": "node", "id": 4975326794, "lat": 13.0244652, "lon": 77.6195245}, {"type": "node", "id": 4975326795, "lat": 13.0259981, "lon": 77.6195762}, {"type": "node", "id": 4975326799, "lat": 13.0024074, "lon": 77.6113397}, {"type": "node", "id": 4975326800, "lat": 12.9950351, "lon": 77.6071214}, {"type": "node", "id": 4975326801, "lat": 13.0067708, "lon": 77.6122391}, {"type": "node", "id": 4975326802, "lat": 13.0026842, "lon": 77.6116023}, {"type": "node", "id": 4975326804, "lat": 13.0021317, "lon": 77.6110313}, {"type": "node", "id": 4975326805, "lat": 13.0051763, "lon": 77.612212}, {"type": "node", "id": 4975326808, "lat": 13.028495, "lon": 77.6204337}, {"type": "node", "id": 4975326809, "lat": 12.9958792, "lon": 77.6070887}, {"type": "node", "id": 4975326810, "lat": 12.9992862, "lon": 77.6083568}, {"type": "node", "id": 4975326813, "lat": 12.997463, "lon": 77.6071182}, {"type": "node", "id": 4975326816, "lat": 13.0306498, "lon": 77.6210024}, {"type": "node", "id": 4975327023, "lat": 13.0117038, "lon": 77.6158421}, {"type": "node", "id": 4975327025, "lat": 13.0017028, "lon": 77.6105487}, {"type": "node", "id": 4975327026, "lat": 13.0079207, "lon": 77.6127379}, {"type": "node", "id": 4975327027, "lat": 12.9970885, "lon": 77.6069956}, {"type": "node", "id": 4975327028, "lat": 12.9946566, "lon": 77.6071514}, {"type": "node", "id": 4975327030, "lat": 13.0035226, "lon": 77.6121414}, {"type": "node", "id": 4975327032, "lat": 13.0221457, "lon": 77.6192514}, {"type": "node", "id": 4975327033, "lat": 13.023076, "lon": 77.6194107}, {"type": "node", "id": 4975327034, "lat": 13.0085933, "lon": 77.6130971}, {"type": "node", "id": 4975327035, "lat": 13.0071207, "lon": 77.6123729}, {"type": "node", "id": 4975327036, "lat": 13.025044, "lon": 77.6194891}, {"type": "node", "id": 4975327040, "lat": 12.9977223, "lon": 77.6072697}, {"type": "node", "id": 4975327041, "lat": 13.0065601, "lon": 77.6121975}, {"type": "node", "id": 4975327042, "lat": 13.0060584, "lon": 77.6121656}, {"type": "node", "id": 4975616672, "lat": 13.0328981, "lon": 77.6220989}, {"type": "node", "id": 4975616676, "lat": 13.0347461, "lon": 77.6228338}, {"type": "node", "id": 4975616679, "lat": 13.0359972, "lon": 77.6234936}, {"type": "node", "id": 4975616680, "lat": 13.0429981, "lon": 77.625685}, {"type": "node", "id": 4975616687, "lat": 13.0434, "lon": 77.6259317}, {"type": "node", "id": 4975616690, "lat": 13.0425278, "lon": 77.6254543}, {"type": "node", "id": 4975616692, "lat": 13.0372458, "lon": 77.623912}, {"type": "node", "id": 4975616695, "lat": 13.0412156, "lon": 77.6250196, "tags": {"colour": "pink", "construction": "station", "construction:public_transport": "station", "construction:railway": "station", "construction:station": "subway", "frequency": "0", "name": "Nagawara (u/c)", "name:kn": "\u0ca8\u0cbe\u0c97\u0cb5\u0cbe\u0cb0", "network": "Namma Metro", "note": "Contributors are requested to not edit the \"network\" and the \"operator\" tags. (2023/11/08)", "operator": "Bangalore Metro Rail Corporation Limited", "subway": "yes", "voltage": "750"}}, {"type": "node", "id": 4975616698, "lat": 13.0395324, "lon": 77.624515}, {"type": "node", "id": 4975616701, "lat": 13.0320859, "lon": 77.6217287}, {"type": "node", "id": 5012467509, "lat": 12.9784407, "lon": 77.6086962}, {"type": "node", "id": 5012467510, "lat": 12.981027, "lon": 77.6038369}, {"type": "node", "id": 5012467511, "lat": 12.9781182, "lon": 77.608817}, {"type": "node", "id": 5012467512, "lat": 12.9779561, "lon": 77.6088408}, {"type": "node", "id": 5012467513, "lat": 12.9799949, "lon": 77.6071315}, {"type": "node", "id": 5115834852, "lat": 12.8924991, "lon": 77.5595422, "tags": {"highway": "bus_stop", "name": "Sharadanagara", "name:en": "Sharadanagara", "name:kn": "\u0cb6\u0cbe\u0cb0\u0ca6\u0ca8\u0c97\u0cb0", "network": "BMTC", "operator": "BMTC", "public_transport": "platform"}}, {"type": "node", "id": 5631196660, "lat": 12.9014789, "lon": 77.5734953, "tags": {"bus": "yes", "highway": "bus_stop", "loc_name": "Kanakapura Road", "name": "Jaraganahalli Cross", "public_transport": "platform"}}, {"type": "node", "id": 5631196661, "lat": 12.8854267, "lon": 77.5669172, "tags": {"bus": "yes", "highway": "bus_stop", "name": "Konanakunte", "name:en": "Konanakunte", "name:kn": "\u0c95\u0cca\u0ca3\u0ca8\u0c95\u0cc1\u0c82\u0c9f\u0cc6", "network": "BMTC", "operator": "BMTC", "public_transport": "platform", "shelter": "no"}}, {"type": "node", "id": 5631196662, "lat": 12.8728036, "lon": 77.5664556, "tags": {"bus": "yes", "highway": "bus_stop", "loc_name": "J.P.NAGARA 9TH PHASE", "name": "Avalahalli", "name:en": "Avalahalli", "name:kn": "\u0c85\u0cb5\u0cb2\u0cb9\u0cb3\u0ccd\u0cb3\u0cbf", "network": "BMTC", "operator": "BMTC", "public_transport": "platform"}}, {"type": "node", "id": 5631196667, "lat": 12.8763324, "lon": 77.5670399, "tags": {"bus": "yes", "highway": "bus_stop", "loc_name": "AVALAHALLI", "name": "Glass Factory", "name:en": "Glass Factory", "network": "BMTC", "network:wikidata": "Q3345039", "operator": "BMTC", "public_transport": "platform", "shelter": "no"}}, {"type": "node", "id": 5631196668, "lat": 12.8944811, "lon": 77.5687665, "tags": {"bus": "yes", "highway": "bus_stop", "loc_name": "Kanakapura Road", "name": "Metro Konanakunte", "name:kn": "\u0cae\u0cc6\u0c9f\u0ccd\u0cb0\u0ccb \u0c95\u0cca\u0ca3\u0ca8\u0c95\u0cc1\u0c82\u0c9f\u0cc6", "public_transport": "platform"}}, {"type": "node", "id": 5631196669, "lat": 12.8973375, "lon": 77.5714561, "tags": {"bus": "yes", "highway": "bus_stop", "loc_name": "Kanakapura Road", "name": "Yelachenahalli", "name:kn": "\u0caf\u0cb2\u0c9a\u0cc7\u0ca8\u0cb9\u0cb3\u0ccd\u0cb3\u0cbf", "public_transport": "platform"}}, {"type": "node", "id": 5631196670, "lat": 12.8902129, "lon": 77.5643128, "tags": {"bench": "yes", "bin": "no", "bus": "yes", "highway": "bus_stop", "lit": "yes", "name": "Konanakunte Cross", "name:en": "Konanakunte Cross", "name:kn": "\u0c95\u0cca\u0ca3\u0ca8\u0c95\u0cc1\u0c82\u0c9f\u0cc6 \u0c95\u0ccd\u0cb0\u0cbe\u0cb8\u0ccd", "network": "BMTC", "operator": "BMTC", "public_transport": "platform", "shelter": "yes"}}, {"type": "node", "id": 5631196671, "lat": 12.8739977, "lon": 77.5612276, "tags": {"bus": "yes", "highway": "bus_stop", "loc_name": "AVALAHALLI B.D.A", "name": "Avalahalli BDA Layout Cross", "name:en": "Avalahalli BDA Layout Cross", "network": "BMTC", "operator": "BMTC", "public_transport": "platform"}}, {"type": "node", "id": 5631196672, "lat": 12.8828951, "lon": 77.5660649, "tags": {"bus": "yes", "highway": "bus_stop", "loc_name": "Bank Colony", "name": "Konanakunte Reliance Fresh", "name:en": "Konanakunte Reliance Fresh", "network": "BMTC", "operator": "BMTC", "public_transport": "platform", "shelter": "yes"}}, {"type": "node", "id": 5631196673, "lat": 12.879171, "lon": 77.5673463, "tags": {"alt_name": "Kothnuru Cross", "alt_name:kn": "\u0c95\u0ccb\u0ca4\u0ca8\u0cc2\u0cb0\u0cc1 \u0c95\u0ccd\u0cb0\u0cbe\u0cb8\u0ccd", "bus": "yes", "highway": "bus_stop", "loc_name": "Hari Nagara", "name": "Hari Nagara Cross", "name:en": "Hari Nagara Cross", "network": "BMTC", "operator": "BMTC", "public_transport": "platform"}}, {"type": "node", "id": 5760198268, "lat": 12.8602847, "lon": 77.5290782}, {"type": "node", "id": 5760198269, "lat": 12.8604364, "lon": 77.5291687}, {"type": "node", "id": 5760198270, "lat": 12.8606096, "lon": 77.5292783}, {"type": "node", "id": 5760198271, "lat": 12.8608811, "lon": 77.529439}, {"type": "node", "id": 5760198272, "lat": 12.8614541, "lon": 77.5297796}, {"type": "node", "id": 5760198274, "lat": 12.8622294, "lon": 77.5302337}, {"type": "node", "id": 5760198275, "lat": 12.8625697, "lon": 77.5304644}, {"type": "node", "id": 5760198276, "lat": 12.8628075, "lon": 77.530782}, {"type": "node", "id": 5760198277, "lat": 12.8632224, "lon": 77.5314042}, {"type": "node", "id": 5760198278, "lat": 12.8636562, "lon": 77.5320502}, {"type": "node", "id": 5760198279, "lat": 12.8643442, "lon": 77.5328249}, {"type": "node", "id": 5760198280, "lat": 12.86452, "lon": 77.5329858}, {"type": "node", "id": 5760198281, "lat": 12.8660725, "lon": 77.5342028}, {"type": "node", "id": 5760198282, "lat": 12.8691536, "lon": 77.5365505}, {"type": "node", "id": 5760198283, "lat": 12.8707415, "lon": 77.5378154}, {"type": "node", "id": 5760198284, "lat": 12.8731745, "lon": 77.5397813}, {"type": "node", "id": 5760198285, "lat": 12.8737045, "lon": 77.5403027}, {"type": "node", "id": 5760198286, "lat": 12.8739925, "lon": 77.5406556}, {"type": "node", "id": 5760198287, "lat": 12.8743595, "lon": 77.5412452}, {"type": "node", "id": 5760198288, "lat": 12.8748596, "lon": 77.5423292}, {"type": "node", "id": 5760198289, "lat": 12.8753726, "lon": 77.5433762}, {"type": "node", "id": 5760198290, "lat": 12.8755869, "lon": 77.5436239}, {"type": "node", "id": 5760198291, "lat": 12.8758573, "lon": 77.5438829}, {"type": "node", "id": 5760198292, "lat": 12.8761796, "lon": 77.5441355}, {"type": "node", "id": 5760198293, "lat": 12.8766467, "lon": 77.5443724}, {"type": "node", "id": 5760198295, "lat": 12.8817117, "lon": 77.546472}, {"type": "node", "id": 5760198296, "lat": 12.8827822, "lon": 77.5469621}, {"type": "node", "id": 5760198297, "lat": 12.8829135, "lon": 77.5470635}, {"type": "node", "id": 5760198298, "lat": 12.8830179, "lon": 77.5471932}, {"type": "node", "id": 5760198299, "lat": 12.8831497, "lon": 77.5474312}, {"type": "node", "id": 5760198300, "lat": 12.8833904, "lon": 77.5480706}, {"type": "node", "id": 5760198301, "lat": 12.8841925, "lon": 77.5511008}, {"type": "node", "id": 5760198302, "lat": 12.8847268, "lon": 77.5528945}, {"type": "node", "id": 5760198303, "lat": 12.8853251, "lon": 77.5549066}, {"type": "node", "id": 5760198304, "lat": 12.8857011, "lon": 77.5559741}, {"type": "node", "id": 5760198305, "lat": 12.8857738, "lon": 77.55622}, {"type": "node", "id": 5760198306, "lat": 12.8862546, "lon": 77.5577176}, {"type": "node", "id": 5760198307, "lat": 12.8863237, "lon": 77.5579607}, {"type": "node", "id": 5760198308, "lat": 12.886653, "lon": 77.5590458}, {"type": "node", "id": 5760198309, "lat": 12.8867306, "lon": 77.5592685}, {"type": "node", "id": 5760198310, "lat": 12.88719, "lon": 77.5603788}, {"type": "node", "id": 5760198311, "lat": 12.8882147, "lon": 77.5617694}, {"type": "node", "id": 5760198314, "lat": 12.88968, "lon": 77.563453}, {"type": "node", "id": 5760198315, "lat": 12.8901336, "lon": 77.56399}, {"type": "node", "id": 5760198316, "lat": 12.8905334, "lon": 77.5644175}, {"type": "node", "id": 5760198317, "lat": 12.8906079, "lon": 77.5644985}, {"type": "node", "id": 5760198318, "lat": 12.8925495, "lon": 77.5666881}, {"type": "node", "id": 5760198319, "lat": 12.8932593, "lon": 77.5674511}, {"type": "node", "id": 5760198320, "lat": 12.8939934, "lon": 77.5681834}, {"type": "node", "id": 5760198321, "lat": 12.8945512, "lon": 77.568739}, {"type": "node", "id": 5760198322, "lat": 12.8950328, "lon": 77.5691826}, {"type": "node", "id": 5760198323, "lat": 12.8953963, "lon": 77.5695014}, {"type": "node", "id": 5760198324, "lat": 12.8968182, "lon": 77.5707838}, {"type": "node", "id": 5760198325, "lat": 12.8972838, "lon": 77.5712031}, {"type": "node", "id": 5760198326, "lat": 12.8977831, "lon": 77.5716123}, {"type": "node", "id": 5760198327, "lat": 12.8990196, "lon": 77.5725098}, {"type": "node", "id": 5760198328, "lat": 12.8993729, "lon": 77.5727109}, {"type": "node", "id": 5760198329, "lat": 12.8996243, "lon": 77.5728266}, {"type": "node", "id": 5760198330, "lat": 12.8996998, "lon": 77.5728764}, {"type": "node", "id": 5760198331, "lat": 12.9000953, "lon": 77.5730001}, {"type": "node", "id": 5760198332, "lat": 12.900289, "lon": 77.5730606}, {"type": "node", "id": 5760198333, "lat": 12.9011852, "lon": 77.5733132}, {"type": "node", "id": 5760198334, "lat": 12.9015041, "lon": 77.5733877}, {"type": "node", "id": 5760198335, "lat": 12.901783, "lon": 77.5734206}, {"type": "node", "id": 5760198336, "lat": 12.9020662, "lon": 77.5734285}, {"type": "node", "id": 5760198337, "lat": 12.9023713, "lon": 77.5733968}, {"type": "node", "id": 5760198338, "lat": 12.9034761, "lon": 77.5732242}, {"type": "node", "id": 5760198339, "lat": 12.9036239, "lon": 77.5731964}, {"type": "node", "id": 5760198340, "lat": 12.9038476, "lon": 77.5731913}, {"type": "node", "id": 5760198341, "lat": 12.9040672, "lon": 77.5732129}, {"type": "node", "id": 5760198342, "lat": 12.9043354, "lon": 77.5732431}, {"type": "node", "id": 5760198343, "lat": 12.9049074, "lon": 77.5733013}, {"type": "node", "id": 5760198344, "lat": 12.9053065, "lon": 77.5733281}, {"type": "node", "id": 5760198345, "lat": 12.905547, "lon": 77.573324}, {"type": "node", "id": 5760198346, "lat": 12.9057687, "lon": 77.5733039}, {"type": "node", "id": 5760198347, "lat": 12.9059583, "lon": 77.5732777}, {"type": "node", "id": 5760198348, "lat": 12.9062153, "lon": 77.5732567}, {"type": "node", "id": 5760198349, "lat": 12.9066391, "lon": 77.5731942}, {"type": "node", "id": 5760198458, "lat": 12.8616662, "lon": 77.5299532, "tags": {"code": "APTS", "name": "Silk Institute", "name:kn": "\u0cb0\u0cc7\u0cb7\u0ccd\u0cae\u0cc6 \u0cb8\u0c82\u0cb8\u0ccd\u0ca5\u0cc6", "network": "Namma Metro", "note": "Contributors are requested to not edit the \"network\" and the \"operator\" tags. (2023/11/08)", "operator": "Bangalore Metro Rail Corporation Limited", "public_transport": "stop_position", "public_transport:version": "2", "railway": "stop", "subway": "yes", "wheelchair": "yes"}}, {"type": "node", "id": 5760198459, "lat": 12.8714243, "lon": 77.5383625, "tags": {"code": "TGTP", "name": "Thalaghattapura", "name:kn": "\u0ca4\u0cb2\u0c98\u0c9f\u0ccd\u0c9f\u0caa\u0cc1\u0cb0", "name:ta": "\u0ba4\u0bb2\u0b95\u0b9f\u0bcd\u0b9f\u0baa\u0bc1\u0bb0\u0bbe", "network": "Namma Metro", "note": "Contributors are requested to not edit the \"network\" and the \"operator\" tags. (2023/11/08)", "operator": "Bangalore Metro Rail Corporation Limited", "public_transport": "stop_position", "public_transport:version": "2", "railway": "stop", "subway": "yes", "wheelchair": "yes"}}, {"type": "node", "id": 5760198460, "lat": 12.8775389, "lon": 77.544745, "tags": {"code": "VJRH", "name": "Vajarahalli", "name:kn": "\u0cb5\u0cbe\u0c9c\u0cb0\u0cb9\u0cb3\u0ccd\u0cb3\u0cbf", "network": "Namma Metro", "note": "Contributors are requested to not edit the \"network\" and the \"operator\" tags. (2023/11/08)", "operator": "Bangalore Metro Rail Corporation Limited", "public_transport": "stop_position", "public_transport:version": "2", "railway": "stop", "subway": "yes", "wheelchair": "yes"}}, {"type": "node", "id": 5760198461, "lat": 12.8859513, "lon": 77.5568522}, {"type": "node", "id": 5760198463, "lat": 12.8920248, "lon": 77.5661016}, {"type": "node", "id": 5760198464, "lat": 12.8960662, "lon": 77.5700982, "tags": {"alt_name": "Puttenahalli", "code": "PUTH", "name": "Yelachenahalli", "name:kn": "\u0caa\u0cc1\u0c9f\u0ccd\u0c9f\u0cc7\u0ca8\u0cb9\u0cb3\u0ccd\u0cb3\u0cbf", "network": "Namma Metro", "note": "Contributors are requested to not edit the \"network\" and the \"operator\" tags. (2023/11/08)", "operator": "Bangalore Metro Rail Corporation Limited", "public_transport": "stop_position", "public_transport:version": "2", "railway": "stop", "source": "http://www.bmrc.co.in/English/Network.htm", "subway": "yes", "wheelchair": "yes"}}, {"type": "node", "id": 5760198465, "lat": 12.907476, "lon": 77.5731076, "tags": {"code": "JPN", "name": "Jaya Prakash Nagar", "name:kn": "\u0c9c\u0caf\u0caa\u0ccd\u0cb0\u0c95\u0cbe\u0cb6 \u0ca8\u0cbe\u0cb0\u0cbe\u0caf\u0ca3 \u0ca8\u0c97\u0cb0", "network": "Namma Metro", "note": "Contributors are requested to not edit the \"network\" and the \"operator\" tags. (2023/11/08)", "operator": "Bangalore Metro Rail Corporation Limited", "public_transport": "stop_position", "public_transport:version": "2", "railway": "stop", "short_name": "J P Nagar", "source": "http://www.bmrc.co.in/English/Network.htm", "subway": "yes", "wheelchair": "yes"}}, {"type": "node", "id": 5787806871, "lat": 13.0434256, "lon": 77.6258881}, {"type": "node", "id": 5787806872, "lat": 13.0430183, "lon": 77.6256386}, {"type": "node", "id": 5787806873, "lat": 13.0425454, "lon": 77.6254069}, {"type": "node", "id": 5787806875, "lat": 13.0412295, "lon": 77.6249709}, {"type": "node", "id": 5787806876, "lat": 13.0395454, "lon": 77.624466}, {"type": "node", "id": 5787806878, "lat": 13.0372587, "lon": 77.6238629}, {"type": "node", "id": 5787806879, "lat": 13.0360163, "lon": 77.6234466}, {"type": "node", "id": 5787806880, "lat": 13.0347664, "lon": 77.6227874}, {"type": "node", "id": 5787806881, "lat": 13.0329171, "lon": 77.622052}, {"type": "node", "id": 5787806882, "lat": 13.0321069, "lon": 77.6216827}, {"type": "node", "id": 5787806883, "lat": 13.0306697, "lon": 77.6209559}, {"type": "node", "id": 5787806884, "lat": 13.029973, "lon": 77.6206787}, {"type": "node", "id": 5787806885, "lat": 13.029354, "lon": 77.6205036}, {"type": "node", "id": 5787806886, "lat": 13.0285063, "lon": 77.6203841}, {"type": "node", "id": 5787806887, "lat": 13.0260092, "lon": 77.6195265}, {"type": "node", "id": 5787806888, "lat": 13.0254833, "lon": 77.6194562}, {"type": "node", "id": 5787806889, "lat": 13.0250435, "lon": 77.6194383}, {"type": "node", "id": 5787806890, "lat": 13.0244657, "lon": 77.6194736}, {"type": "node", "id": 5787806891, "lat": 13.023082, "lon": 77.6193603}, {"type": "node", "id": 5787806892, "lat": 13.022155, "lon": 77.6192015}, {"type": "node", "id": 5787806893, "lat": 13.0187978, "lon": 77.6184532}, {"type": "node", "id": 5787806894, "lat": 13.0173215, "lon": 77.6179698}, {"type": "node", "id": 5787806895, "lat": 13.0125239, "lon": 77.6162303}, {"type": "node", "id": 5787806896, "lat": 13.0117304, "lon": 77.6157991}, {"type": "node", "id": 5787806897, "lat": 13.0112826, "lon": 77.6154522}, {"type": "node", "id": 5787806898, "lat": 13.0100174, "lon": 77.6142228}, {"type": "node", "id": 5787806899, "lat": 13.0096212, "lon": 77.6139091}, {"type": "node", "id": 5787806900, "lat": 13.0086208, "lon": 77.6130546}, {"type": "node", "id": 5787806901, "lat": 13.0079422, "lon": 77.6126922}, {"type": "node", "id": 5787806902, "lat": 13.0071394, "lon": 77.6123259}, {"type": "node", "id": 5787806903, "lat": 13.0067842, "lon": 77.6121901}, {"type": "node", "id": 5787806904, "lat": 13.0065663, "lon": 77.6121471}, {"type": "node", "id": 5787806905, "lat": 13.0060587, "lon": 77.6121148}, {"type": "node", "id": 5787806906, "lat": 13.005174, "lon": 77.6121613}, {"type": "node", "id": 5787806907, "lat": 13.0038251, "lon": 77.6122216}, {"type": "node", "id": 5787806908, "lat": 13.003546, "lon": 77.6120965}, {"type": "node", "id": 5787806909, "lat": 13.0032722, "lon": 77.6119156}, {"type": "node", "id": 5787806910, "lat": 13.0027143, "lon": 77.6115617}, {"type": "node", "id": 5787806911, "lat": 13.0024425, "lon": 77.6113039}, {"type": "node", "id": 5787806912, "lat": 13.0021682, "lon": 77.610997}, {"type": "node", "id": 5787806913, "lat": 13.0017386, "lon": 77.6105137}, {"type": "node", "id": 5787806914, "lat": 13.0005818, "lon": 77.6093208}, {"type": "node", "id": 5787806915, "lat": 12.9993152, "lon": 77.6083157}, {"type": "node", "id": 5787806916, "lat": 12.9977484, "lon": 77.6072266}, {"type": "node", "id": 5787806917, "lat": 12.997483, "lon": 77.6070715}, {"type": "node", "id": 5787806918, "lat": 12.9970975, "lon": 77.6069453}, {"type": "node", "id": 5787806919, "lat": 12.9967557, "lon": 77.6069265}, {"type": "node", "id": 5787806920, "lat": 12.9958752, "lon": 77.6070381}, {"type": "node", "id": 5787806921, "lat": 12.9950323, "lon": 77.6070707}, {"type": "node", "id": 5787806922, "lat": 12.9946574, "lon": 77.6071004}, {"type": "node", "id": 5787806923, "lat": 12.9944079, "lon": 77.6070728}, {"type": "node", "id": 5787806925, "lat": 12.9919228, "lon": 77.6062277}, {"type": "node", "id": 5787806997, "lat": 12.8666258, "lon": 77.5920141}, {"type": "node", "id": 5787806998, "lat": 12.8750476, "lon": 77.5948336}, {"type": "node", "id": 5787806999, "lat": 12.8817283, "lon": 77.5960386}, {"type": "node", "id": 5787807000, "lat": 12.8878884, "lon": 77.5971115}, {"type": "node", "id": 5787807001, "lat": 12.8907331, "lon": 77.5982165}, {"type": "node", "id": 5787807002, "lat": 12.8928295, "lon": 77.5989725}, {"type": "node", "id": 5787807003, "lat": 12.899762, "lon": 77.6008679}, {"type": "node", "id": 5787807004, "lat": 12.9024359, "lon": 77.6012742}, {"type": "node", "id": 5787807005, "lat": 12.9046033, "lon": 77.6018375}, {"type": "node", "id": 5787807007, "lat": 12.9064308, "lon": 77.6014941}, {"type": "node", "id": 5787807008, "lat": 12.9072883, "lon": 77.6008558}, {"type": "node", "id": 5787807009, "lat": 12.9077485, "lon": 77.6005768}, {"type": "node", "id": 5787807010, "lat": 12.9106975, "lon": 77.6001585}, {"type": "node", "id": 5787807013, "lat": 12.9214882, "lon": 77.6002711}, {"type": "node", "id": 5787807014, "lat": 12.9302786, "lon": 77.6006466}, {"type": "node", "id": 5948662290, "lat": 12.8768645, "lon": 77.6028013, "tags": {"highway": "bus_stop", "name": "Hulimavu Bus Stop", "name:en": "Public Park and Bus Stop", "name:hi": "Public Park", "name:kn": "\u0cb9\u0cc1\u0cb3\u0cbf\u0cae\u0cbe\u0cb5\u0cc1"}}, {"type": "node", "id": 6152900007, "lat": 12.8906648, "lon": 77.5982694, "tags": {"bench": "yes", "bus": "yes", "highway": "bus_stop", "lit": "no", "name": "Arakere Gate", "name:en": "Arakere Gate", "name:kn": "\u0c85\u0cb0\u0cc6\u0c95\u0cc6\u0cb0\u0cc6 \u0c97\u0cc7\u0c9f\u0ccd", "network": "BMTC", "operator": "BMTC", "passenger_information_display": "no", "public_transport": "platform", "shelter": "yes", "surface": "concrete"}}, {"type": "node", "id": 6196163386, "lat": 12.9019195, "lon": 77.5734785}, {"type": "node", "id": 6196296676, "lat": 12.8915315, "lon": 77.5655425}, {"type": "node", "id": 6338071471, "lat": 12.9026711, "lon": 77.5858729, "tags": {"highway": "bus_stop", "name": "Inchara Hotel JP Nagara", "name:en": "Inchara Hotel JP Nagara", "network": "BMTC", "operator": "BMTC", "public_transport": "platform"}}, {"type": "node", "id": 6432710292, "lat": 12.8960498, "lon": 77.5701194, "tags": {"code": "PUTH", "layer": "1", "lit": "yes", "name": "Yelachenahalli", "name:kn": "\u0caf\u0cb2\u0c9a\u0cc7\u0ca8\u0cb9\u0cb3\u0ccd\u0cb3\u0cbf", "name:ml": "\u0d2f\u0d32\u0d1a\u0d4d\u0d1a\u0d47\u0d28\u0d39\u0d33\u0d4d\u0d33\u0d3f", "name:ta": "\u0b8e\u0bb2\u0b9a\u0bcd\u0b9a\u0bc7\u0ba9\u0bb9\u0bb2\u0bcd\u0bb2\u0bbf", "network": "Namma Metro", "note": "Contributors are requested to not edit the \"network\" and the \"operator\" tags. (2023/11/08)", "operator": "Bangalore Metro Rail Corporation Limited", "platforms": "2", "public_transport": "station", "public_transport:version": "2", "railway": "station", "shelter": "yes", "station": "subway", "subway": "yes", "website": "https://english.brmc.co.in", "wheelchair": "yes"}}, {"type": "node", "id": 6901590936, "lat": 12.8896198, "lon": 77.5977467}, {"type": "node", "id": 7141213425, "lat": 12.815712, "lon": 77.5831061, "tags": {"bus": "yes", "highway": "bus_stop", "loc_name": "Banneragatta Circle", "name": "Vijaya Bank Bannerughatta", "name:en": "Vijaya Bank Bannerughatta", "name:kn": "\u0cb5\u0cbf\u0c9c\u0caf \u0cac\u0ccd\u0caf\u0cbe\u0c82\u0c95\u0cc1", "network": "BMTC", "network:wikidata": "Q3345039", "operator": "BMTC", "public_transport": "stop_position"}}, {"type": "node", "id": 7141213426, "lat": 12.8191604, "lon": 77.5846027, "tags": {"bus": "yes", "name": "Ryan International School", "name:en": "Ryan International School", "network": "BMTC", "operator": "BMTC", "public_transport": "stop_position"}}, {"type": "node", "id": 7141213427, "lat": 12.8190924, "lon": 77.5848348, "tags": {"bus": "yes", "highway": "bus_stop", "name": "Ryan International School", "name:en": "Ryan International School", "network": "BMTC", "network:wikidata": "Q3345039", "operator": "BMTC", "public_transport": "platform"}}, {"type": "node", "id": 7141213428, "lat": 12.825514, "lon": 77.5861852, "tags": {"bus": "yes", "name": "Sampangiram Nagara", "name:en": "Sampangiram Nagara", "name:kn": "\u0cb8\u0c82\u0caa\u0c82\u0c97\u0cbf\u0cb0\u0cbe\u0cae\u0ccd \u0ca8\u0c97\u0cb0", "network": "BMTC", "operator": "BMTC", "public_transport": "stop_position"}}, {"type": "node", "id": 7141213429, "lat": 12.8294848, "lon": 77.5875575, "tags": {"bench": "no", "bus": "yes", "highway": "bus_stop", "loc_name": "Bannerghatta Road", "name": "AMC College", "name:en": "AMC College", "network": "BMTC", "network:wikidata": "Q3345039", "operator": "BMTC", "public_transport": "platform", "shelter": "no"}}, {"type": "node", "id": 7141213430, "lat": 12.8327995, "lon": 77.5890278, "tags": {"bus": "yes", "name": "Kalkere", "name:en": "Kalkere", "name:kn": "\u0c95\u0cb2\u0ccd\u0c95\u0cc6\u0cb0\u0cc6", "network": "BMTC", "operator": "BMTC", "public_transport": "stop_position"}}, {"type": "node", "id": 7141213431, "lat": 12.841314, "lon": 77.588525, "tags": {"bus": "yes", "name": "Koli Farm Gate", "name:en": "Koli Farm Gate", "network": "BMTC", "operator": "BMTC", "public_transport": "stop_position"}}, {"type": "node", "id": 7141213432, "lat": 12.84616, "lon": 77.5882409, "tags": {"bus": "yes", "name": "Basavanapura Gate", "name:en": "Basavanapura Gate", "name:kn": "\u0cac\u0cb8\u0cb5\u0ca8\u0caa\u0cc1\u0cb0 \u0c97\u0cc7\u0c9f\u0ccd", "network": "BMTC", "operator": "BMTC", "public_transport": "stop_position"}}, {"type": "node", "id": 7141213433, "lat": 12.846154, "lon": 77.5883406, "tags": {"bench": "no", "bin": "no", "bus": "yes", "highway": "bus_stop", "lit": "yes", "name": "Basavanapura Gate", "name:en": "Basavanapura Gate", "network": "BMTC", "operator": "BMTC", "public_transport": "platform", "shelter": "no"}}, {"type": "node", "id": 7141213434, "lat": 12.8568471, "lon": 77.5889323, "tags": {"bus": "yes", "name": "Gottigere", "name:en": "Gottigere", "name:kn": "\u0c97\u0cca\u0c9f\u0ccd\u0c9f\u0cbf\u0c97\u0cc6\u0cb0\u0cc6", "network": "BMTC", "operator": "BMTC", "public_transport": "stop_position"}}, {"type": "node", "id": 7141213435, "lat": 12.8568494, "lon": 77.588979, "tags": {"bench": "yes", "bin": "no", "bus": "yes", "highway": "bus_stop", "name": "Gottigere", "name:en": "Gottigere", "name:kn": "\u0c97\u0cca\u0c9f\u0ccd\u0c9f\u0cbf\u0c97\u0cc6\u0cb0\u0cc6", "network": "BMTC", "network:wikidata": "Q3345039", "operator": "BMTC", "public_transport": "platform", "shelter": "yes"}}, {"type": "node", "id": 7141213436, "lat": 12.8625507, "lon": 77.5906236, "tags": {"bus": "yes", "name": "Himagiri", "name:en": "Himagiri", "name:kn": "\u0cb9\u0cbf\u0cae\u0c97\u0cbf\u0cb0\u0cbf", "network": "BMTC", "operator": "BMTC", "public_transport": "stop_position"}}, {"type": "node", "id": 7141213437, "lat": 12.8625173, "lon": 77.5907318, "tags": {"bus": "yes", "highway": "bus_stop", "name": "Himagiri", "name:en": "Himagiri", "name:kn": "\u0cb9\u0cbf\u0cae\u0c97\u0cbf\u0cb0\u0cbf", "network": "BMTC", "operator": "BMTC", "public_transport": "platform"}}, {"type": "node", "id": 7141213438, "lat": 12.8661079, "lon": 77.5918195, "tags": {"bus": "yes", "name": "Kalena Agrahara", "name:en": "Kalena Agrahara", "name:kn": "\u0c95\u0cbe\u0cb2\u0cc7\u0ca8 \u0c85\u0c97\u0ccd\u0cb0\u0cb9\u0cbe\u0cb0", "network": "BMTC", "operator": "BMTC", "public_transport": "stop_position"}}, {"type": "node", "id": 7141213439, "lat": 12.8661075, "lon": 77.59192, "tags": {"bus": "yes", "highway": "bus_stop", "name": "Kalena Agrahara", "name:en": "Kalena Agrahara", "name:kn": "\u0c95\u0cbe\u0cb2\u0cc7\u0ca8 \u0c85\u0c97\u0ccd\u0cb0\u0cb9\u0cbe\u0cb0", "network": "BMTC", "operator": "BMTC", "public_transport": "platform"}}, {"type": "node", "id": 7141213440, "lat": 12.870872, "lon": 77.5935324, "tags": {"bus": "yes", "name": "Loyola School", "name:en": "Loyola School", "name:kn": "\u0cb2\u0cca\u0caf\u0ccb\u0cb2 \u0cb6\u0cbe\u0cb2\u0cc6", "network": "BMTC", "operator": "BMTC", "public_transport": "stop_position"}}, {"type": "node", "id": 7141213441, "lat": 12.8702731, "lon": 77.5934063, "tags": {"bus": "yes", "highway": "bus_stop", "name": "Loyola School", "name:en": "Loyola School", "network": "BMTC", "network:wikidata": "Q3345039", "operator": "BMTC", "public_transport": "platform"}}, {"type": "node", "id": 7141213442, "lat": 12.8750501, "lon": 77.5949435, "tags": {"bus": "yes", "name": "Meenakshi Temple", "name:en": "Meenakshi Temple", "name:kn": "\u0cae\u0cc0\u0ca8\u0cbe\u0c95\u0ccd\u0cb7\u0cbf \u0ca6\u0cc7\u0cb5\u0cb8\u0ccd\u0ca5\u0cbe\u0ca8", "network": "BMTC", "operator": "BMTC", "public_transport": "stop_position"}}, {"type": "node", "id": 7141213443, "lat": 12.8749691, "lon": 77.5950421, "tags": {"bus": "yes", "highway": "bus_stop", "name": "Meenakshi Temple", "name:en": "Meenakshi Temple", "name:kn": "\u0cae\u0cc0\u0ca8\u0cbe\u0c95\u0ccd\u0cb7\u0cbf \u0ca6\u0cc7\u0cb5\u0cb8\u0ccd\u0ca5\u0cbe\u0ca8", "network": "BMTC", "operator": "BMTC", "public_transport": "platform"}}, {"type": "node", "id": 7141213444, "lat": 12.8808913, "lon": 77.5959221, "tags": {"bus": "yes", "name": "Hulimavu Gate", "name:en": "Hulimavu Gate", "name:kn": "\u0cb9\u0cc1\u0cb3\u0cbf\u0cae\u0cbe\u0cb5\u0cc1 \u0c97\u0cc7\u0c9f\u0ccd", "network": "BMTC", "operator": "BMTC", "public_transport": "stop_position"}}, {"type": "node", "id": 7141213445, "lat": 12.886875, "lon": 77.5969188, "tags": {"bus": "yes", "name": "Arakere BPL", "name:en": "Arakere BPL", "network": "BMTC", "operator": "BMTC", "public_transport": "stop_position"}}, {"type": "node", "id": 7141213446, "lat": 12.8906857, "lon": 77.5982134, "tags": {"bus": "yes", "name": "Arakere Gate", "name:en": "Arakere Gate", "name:kn": "\u0c85\u0cb0\u0cc6\u0c95\u0cc6\u0cb0\u0cc6 \u0c97\u0cc7\u0c9f\u0ccd", "network": "BMTC", "operator": "BMTC", "public_transport": "stop_position"}}, {"type": "node", "id": 7141213447, "lat": 12.8962812, "lon": 77.5998338, "tags": {"bus": "yes", "name": "IIM Apollo", "name:en": "IIM Apollo", "network": "BMTC", "operator": "BMTC", "public_transport": "stop_position"}}, {"type": "node", "id": 7141213448, "lat": 12.9008047, "lon": 77.6010889, "tags": {"bus": "yes", "name": "Bilekahalli", "name:en": "Bilekahalli", "name:kn": "\u0cac\u0cbf\u0cb3\u0cc7\u0c95\u0cb9\u0cb3\u0ccd\u0cb3\u0cbf", "network": "BMTC", "operator": "BMTC", "public_transport": "stop_position"}}, {"type": "node", "id": 7235254979, "lat": 12.8897696, "lon": 77.5635756}, {"type": "node", "id": 7235254980, "lat": 12.8889872, "lon": 77.5626569, "tags": {"code": "APRC", "name": "Konanakunte Cross", "name:kn": "\u0c95\u0ccb\u0ca3\u0ca8\u0c95\u0cc1\u0c82\u0c9f\u0cc6 \u0c95\u0ccd\u0cb0\u0cbe\u0cb8\u0ccd", "network": "Namma Metro", "note": "Contributors are requested to not edit the \"network\" and the \"operator\" tags. (2023/11/08)", "operator": "Bangalore Metro Rail Corporation Limited", "public_transport": "stop_position", "public_transport:version": "2", "railway": "stop", "subway": "yes", "wheelchair": "yes"}}, {"type": "node", "id": 7235254981, "lat": 12.8889432, "lon": 77.5627011, "tags": {"code": "APRC", "name": "Konanakunte Cross", "name:kn": "\u0c95\u0ccb\u0ca3\u0ca8\u0c95\u0cc1\u0c82\u0c9f\u0cc6 \u0c95\u0ccd\u0cb0\u0cbe\u0cb8\u0ccd", "network": "Namma Metro", "note": "Contributors are requested to not edit the \"network\" and the \"operator\" tags. (2023/11/08)", "operator": "Bangalore Metro Rail Corporation Limited", "public_transport": "stop_position", "public_transport:version": "2", "railway": "stop", "subway": "yes", "wheelchair": "yes"}}, {"type": "node", "id": 7235254982, "lat": 12.8846862, "lon": 77.552751, "tags": {"code": "KLPK", "name": "Doddakallasandra", "name:kn": "\u0ca6\u0cca\u0ca1\u0ccd\u0ca1\u0c95\u0cb2\u0ccd\u0cb2\u0cb8\u0c82\u0ca6\u0ccd\u0cb0", "network": "Namma Metro", "note": "Contributors are requested to not edit the \"network\" and the \"operator\" tags. (2023/11/08)", "operator": "Bangalore Metro Rail Corporation Limited", "public_transport": "stop_position", "public_transport:version": "2", "railway": "stop", "subway": "yes", "wheelchair": "yes"}}, {"type": "node", "id": 7235254983, "lat": 12.8846245, "lon": 77.5527796, "tags": {"code": "KLPK", "name": "Doddakallasandra", "name:kn": "\u0ca6\u0cca\u0ca1\u0ccd\u0ca1\u0c95\u0cb2\u0ccd\u0cb2\u0cb8\u0c82\u0ca6\u0ccd\u0cb0", "network": "Namma Metro", "note": "Contributors are requested to not edit the \"network\" and the \"operator\" tags. (2023/11/08)", "operator": "Bangalore Metro Rail Corporation Limited", "public_transport": "stop_position", "public_transport:version": "2", "railway": "stop", "subway": "yes", "wheelchair": "yes"}}, {"type": "node", "id": 7235263985, "lat": 12.8794332, "lon": 77.5455484}, {"type": "node", "id": 7235263986, "lat": 12.8775221, "lon": 77.5448072, "tags": {"code": "VJRH", "name": "Vajarahalli", "name:kn": "\u0cb5\u0cbe\u0c9c\u0cb0\u0cb9\u0cb3\u0ccd\u0cb3\u0cbf", "network": "Namma Metro", "note": "Contributors are requested to not edit the \"network\" and the \"operator\" tags. (2023/11/08)", "operator": "Bangalore Metro Rail Corporation Limited", "public_transport": "stop_position", "public_transport:version": "2", "railway": "stop", "subway": "yes", "wheelchair": "yes"}}, {"type": "node", "id": 7235263988, "lat": 12.8670801, "lon": 77.5349726}, {"type": "node", "id": 7235263989, "lat": 12.8713916, "lon": 77.538419, "tags": {"code": "TGTP", "name": "Thalaghattapura", "name:kn": "\u0ca4\u0cb2\u0c98\u0c9f\u0ccd\u0c9f\u0caa\u0cc1\u0cb0", "name:ta": "\u0ba4\u0bb2\u0b95\u0b9f\u0bcd\u0b9f\u0baa\u0bc1\u0bb0\u0bbe", "network": "Namma Metro", "note": "Contributors are requested to not edit the \"network\" and the \"operator\" tags. (2023/11/08)", "operator": "Bangalore Metro Rail Corporation Limited", "public_transport": "stop_position", "public_transport:version": "2", "railway": "stop", "subway": "yes", "wheelchair": "yes"}}, {"type": "node", "id": 7235263990, "lat": 12.8584399, "lon": 77.5279612}, {"type": "node", "id": 7235263991, "lat": 12.8616919, "lon": 77.5299083, "tags": {"code": "APTS", "name": "Silk Institute", "name:kn": "\u0cb0\u0cc7\u0cb7\u0ccd\u0cae\u0cc6 \u0cb8\u0c82\u0cb8\u0ccd\u0ca5\u0cc6", "network": "Namma Metro", "note": "Contributors are requested to not edit the \"network\" and the \"operator\" tags. (2023/11/08)", "operator": "Bangalore Metro Rail Corporation Limited", "public_transport": "stop_position", "public_transport:version": "2", "railway": "stop", "subway": "yes", "wheelchair": "yes"}}, {"type": "node", "id": 7259994448, "lat": 12.8254437, "lon": 77.5862359, "tags": {"bus": "yes", "name": "Sampangiram Nagara", "name:en": "Sampangiram Nagara", "name:kn": "\u0cb8\u0c82\u0caa\u0c82\u0c97\u0cbf\u0cb0\u0cbe\u0cae\u0ccd \u0ca8\u0c97\u0cb0", "network": "BMTC", "operator": "BMTC", "public_transport": "stop_position"}}, {"type": "node", "id": 7259994453, "lat": 12.8294748, "lon": 77.5876481, "tags": {"bus": "yes", "name": "AMC College", "name:en": "AMC College", "network": "BMTC", "operator": "BMTC", "public_transport": "stop_position"}}, {"type": "node", "id": 7259994456, "lat": 12.832975, "lon": 77.5891537, "tags": {"bus": "yes", "name": "Kalkere", "name:en": "Kalkere", "name:kn": "\u0c95\u0cb2\u0ccd\u0c95\u0cc6\u0cb0\u0cc6", "network": "BMTC", "operator": "BMTC", "public_transport": "stop_position"}}, {"type": "node", "id": 7259994462, "lat": 12.8345371, "lon": 77.5894094, "tags": {"highway": "bus_stop", "loc_name": "Bannerghatta Road", "name": "Tulip Resort Cross"}}, {"type": "node", "id": 7259994471, "lat": 12.8413007, "lon": 77.5886249, "tags": {"bus": "yes", "name": "Koli Farm Gate", "name:en": "Koli Farm Gate", "network": "BMTC", "operator": "BMTC", "public_transport": "stop_position"}}, {"type": "node", "id": 7260011495, "lat": 12.8156772, "lon": 77.583174, "tags": {"bus": "yes", "name": "Vijaya Bank Bannerughatta", "name:en": "Vijaya Bank Bannerughatta", "name:kn": "\u0cb5\u0cbf\u0c9c\u0caf \u0cac\u0ccd\u0caf\u0cbe\u0c82\u0c95\u0cc1", "network": "BMTC", "operator": "BMTC", "public_transport": "stop_position"}}, {"type": "node", "id": 7260011500, "lat": 12.8192082, "lon": 77.5847091, "tags": {"bus": "yes", "name": "Ryan International School", "name:en": "Ryan International School", "network": "BMTC", "operator": "BMTC", "public_transport": "stop_position"}}, {"type": "node", "id": 7287658059, "lat": 12.861874, "lon": 77.5609285, "tags": {"bus": "yes", "name": "Anjanapura Cross", "name:en": "Anjanapura Cross", "network": "BMTC", "operator": "BMTC", "public_transport": "stop_position"}}, {"type": "node", "id": 7288169237, "lat": 12.8879133, "lon": 77.5819353, "tags": {"bus": "yes", "name": "RBI Layout", "name:en": "RBI Layout", "network": "BMTC", "operator": "BMTC", "public_transport": "stop_position"}}, {"type": "node", "id": 7402050817, "lat": 12.836254, "lon": 77.5768372, "tags": {"bus": "yes", "name": "Bilavaradahalli", "name:en": "Bilavaradahalli", "network": "BMTC", "operator": "BMTC", "public_transport": "stop_position"}}, {"type": "node", "id": 7404036510, "lat": 12.8693333, "lon": 77.5366932}, {"type": "node", "id": 7404036511, "lat": 12.8693086, "lon": 77.5367491}, {"type": "node", "id": 7414267980, "lat": 13.0378293, "lon": 77.6239892}, {"type": "node", "id": 7414267981, "lat": 13.037824, "lon": 77.62404}, {"type": "node", "id": 7435619513, "lat": 13.0227719, "lon": 77.6193586}, {"type": "node", "id": 7435619519, "lat": 13.0258977, "lon": 77.6195628}, {"type": "node", "id": 7435619544, "lat": 13.0227818, "lon": 77.6193089}, {"type": "node", "id": 7435619548, "lat": 13.0259074, "lon": 77.6195129}, {"type": "node", "id": 7625647528, "lat": 12.8750538, "lon": 77.5429577}, {"type": "node", "id": 7625647529, "lat": 12.87509, "lon": 77.5428899}, {"type": "node", "id": 7625647530, "lat": 12.8639691, "lon": 77.5324861}, {"type": "node", "id": 7625647531, "lat": 12.8639986, "lon": 77.5324592}, {"type": "node", "id": 7829006597, "lat": 12.9167281, "lon": 77.5999985, "tags": {"construction": "station", "disused:railway": "stop", "name": "Jayadeva Interchange (u/c)", "network": "Namma Metro", "note": "Contributors are requested to not edit the \"network\" and the \"operator\" tags. (2023/11/08)", "operator": "Bangalore Metro Rail Corporation Limited", "public_transport": "stop_position", "railway": "stop", "station": "subway", "subway": "yes"}}, {"type": "node", "id": 7835002980, "lat": 12.8579955, "lon": 77.5276932}, {"type": "node", "id": 7835002981, "lat": 12.8580226, "lon": 77.5276455}, {"type": "node", "id": 7835002982, "lat": 12.8574672, "lon": 77.5272465}, {"type": "node", "id": 7835002983, "lat": 12.8549726, "lon": 77.5246937}, {"type": "node", "id": 7835002984, "lat": 12.8535346, "lon": 77.5232565}, {"type": "node", "id": 7835011185, "lat": 12.8574413, "lon": 77.5272977}, {"type": "node", "id": 7835011186, "lat": 12.8534953, "lon": 77.5232974}, {"type": "node", "id": 8318418238, "lat": 12.8900878, "lon": 77.5639984}, {"type": "node", "id": 8318418239, "lat": 12.8912755, "lon": 77.5653166}, {"type": "node", "id": 8318418240, "lat": 12.8877215, "lon": 77.5612116}, {"type": "node", "id": 8318418241, "lat": 12.8879304, "lon": 77.561521}, {"type": "node", "id": 8318418242, "lat": 12.8877897, "lon": 77.5611925}, {"type": "node", "id": 8318418243, "lat": 12.8879918, "lon": 77.5614885}, {"type": "node", "id": 8318418244, "lat": 12.8869171, "lon": 77.5599738}, {"type": "node", "id": 8318418245, "lat": 12.8869721, "lon": 77.5599148}, {"type": "node", "id": 8318418248, "lat": 12.8850632, "lon": 77.5540649}, {"type": "node", "id": 8318418251, "lat": 12.8837618, "lon": 77.5495864}, {"type": "node", "id": 8318418252, "lat": 12.8837093, "lon": 77.5495993}, {"type": "node", "id": 8318418253, "lat": 12.8839021, "lon": 77.5503576}, {"type": "node", "id": 8318418254, "lat": 12.8839638, "lon": 77.5503421}, {"type": "node", "id": 8318418255, "lat": 12.8832908, "lon": 77.5477258}, {"type": "node", "id": 8318418256, "lat": 12.8832503, "lon": 77.5477886}, {"type": "node", "id": 8318418257, "lat": 12.8824172, "lon": 77.5467672}, {"type": "node", "id": 8318418258, "lat": 12.8823955, "lon": 77.5468242}, {"type": "node", "id": 8318418260, "lat": 12.8741433, "lon": 77.541002}, {"type": "node", "id": 8318418261, "lat": 12.8741849, "lon": 77.5409512}, {"type": "node", "id": 8318418262, "lat": 12.8734447, "lon": 77.5400375}, {"type": "node", "id": 8318418263, "lat": 12.8734354, "lon": 77.540106}, {"type": "node", "id": 8318522716, "lat": 12.8886531, "lon": 77.5621814}, {"type": "node", "id": 8318600517, "lat": 12.8885085, "lon": 77.5623129}, {"type": "node", "id": 8318600518, "lat": 12.88864, "lon": 77.562465}, {"type": "node", "id": 8318600519, "lat": 12.8885636, "lon": 77.5625345}, {"type": "node", "id": 8318600520, "lat": 12.8891633, "lon": 77.5632285}, {"type": "node", "id": 8318600521, "lat": 12.8892468, "lon": 77.5631525}, {"type": "node", "id": 8318600522, "lat": 12.8893462, "lon": 77.5632676}, {"type": "node", "id": 8318600523, "lat": 12.8894989, "lon": 77.5631372}, {"type": "node", "id": 8318600524, "lat": 12.889367, "lon": 77.5629846}, {"type": "node", "id": 8318600525, "lat": 12.8894182, "lon": 77.5629282}, {"type": "node", "id": 8318600526, "lat": 12.8888005, "lon": 77.5622366}, {"type": "node", "id": 8318600527, "lat": 12.8887447, "lon": 77.5622874}, {"type": "node", "id": 8318600528, "lat": 12.8888731, "lon": 77.5628936, "tags": {"level": "0", "name": "A: Konanakunte Village", "operator": "BMRCL", "railway": "subway_entrance", "ref": "A", "wheelchair": "yes"}}, {"type": "node", "id": 8318600529, "lat": 12.8891094, "lon": 77.5625824, "tags": {"level": "0", "name": "B: Vasanthapura Main Road", "operator": "BMRCL", "railway": "subway_entrance", "ref": "B", "wheelchair": "yes"}}, {"type": "node", "id": 8318600534, "lat": 12.884381, "lon": 77.5521862}, {"type": "node", "id": 8318600535, "lat": 12.8844359, "lon": 77.5523675}, {"type": "node", "id": 8318600536, "lat": 12.8843349, "lon": 77.5523997}, {"type": "node", "id": 8318600537, "lat": 12.8846095, "lon": 77.5533052}, {"type": "node", "id": 8318600538, "lat": 12.8846887, "lon": 77.5532799}, {"type": "node", "id": 8318600539, "lat": 12.8847347, "lon": 77.5534317}, {"type": "node", "id": 8318600540, "lat": 12.8849312, "lon": 77.553369}, {"type": "node", "id": 8318600541, "lat": 12.8848846, "lon": 77.5532153}, {"type": "node", "id": 8318600542, "lat": 12.8849673, "lon": 77.5531889}, {"type": "node", "id": 8318600543, "lat": 12.8846982, "lon": 77.5523007}, {"type": "node", "id": 8318600544, "lat": 12.8846359, "lon": 77.5523205}, {"type": "node", "id": 8318600545, "lat": 12.8845763, "lon": 77.5521239}, {"type": "node", "id": 8318600546, "lat": 12.8848165, "lon": 77.5526913, "tags": {"level": "0", "name": "B", "operator": "BMRCL", "railway": "subway_entrance", "ref": "B", "wheelchair": "yes"}}, {"type": "node", "id": 8318600547, "lat": 12.8844656, "lon": 77.5528308, "tags": {"level": "0", "name": "A: Doddakallasandra", "operator": "BMRCL", "railway": "subway_entrance", "ref": "A", "wheelchair": "yes"}}, {"type": "node", "id": 8318600548, "lat": 12.8780338, "lon": 77.5447712}, {"type": "node", "id": 8318600549, "lat": 12.877999, "lon": 77.5448564}, {"type": "node", "id": 8318600550, "lat": 12.8781623, "lon": 77.5449265}, {"type": "node", "id": 8318600551, "lat": 12.8780822, "lon": 77.5451228}, {"type": "node", "id": 8318600552, "lat": 12.8779251, "lon": 77.5450554}, {"type": "node", "id": 8318600553, "lat": 12.8778956, "lon": 77.5451277}, {"type": "node", "id": 8318600554, "lat": 12.8770746, "lon": 77.5447756}, {"type": "node", "id": 8318600555, "lat": 12.8771068, "lon": 77.5446965},