{"version": 0.6, "generator": "Overpass API 0.7.62.8 e802775f", "osm3s": {"timestamp_osm_base": "2026-01-13T04:21:41Z", "copyright": "The data included in this document is from www.openstreetmap.org. The data is made available under ODbL."}, "elements": [{"type": "node", "id": 2600832597, "lat": 17.417897, "lon": 78.3400705}, {"type": "node", "id": 2600832598, "lat": 17.4185739, "lon": 78.3389456}, {"type": "node", "id": 2600832599, "lat": 17.4174322, "lon": 78.3381909}, {"type": "node", "id": 2600832600, "lat": 17.4167552, "lon": 78.3393157}, {"type": "node", "id": 4132325566, "lat": 17.4182315, "lon": 78.3395147}, {"type": "node", "id": 4226395189, "lat": 17.4708232, "lon": 78.3098931}, {"type": "node", "id": 4226395190, "lat": 17.4708404, "lon": 78.3110992}, {"type": "node", "id": 4226395191, "lat": 17.4713115, "lon": 78.3110918}, {"type": "node", "id": 4226395192, "lat": 17.4713188, "lon": 78.3116012}, {"type": "node", "id": 4226395193, "lat": 17.4704397, "lon": 78.311615}, {"type": "node", "id": 4226395194, "lat": 17.4701604, "lon": 78.3113653}, {"type": "node", "id": 4226395197, "lat": 17.4701493, "lon": 78.3105839}, {"type": "node", "id": 4226395198, "lat": 17.4706805, "lon": 78.3105756}, {"type": "node", "id": 4226395199, "lat": 17.4706708, "lon": 78.3098955}, {"type": "node", "id": 5682059254, "lat": 17.4788093, "lon": 78.3202299}, {"type": "node", "id": 5682059255, "lat": 17.4788008, "lon": 78.3203676}, {"type": "node", "id": 5682059256, "lat": 17.4786931, "lon": 78.3203696}, {"type": "node", "id": 5682059257, "lat": 17.4786997, "lon": 78.320219}, {"type": "node", "id": 6536715096, "lat": 17.4707013, "lon": 78.3109143, "tags": {"addr:district": "Hyderabad", "addr:full": "1-100/1/CCH, Near Aparna Sarovar, Nallagandla, Serilingampally", "addr:postcode": "500019", "addr:state": "Telangana", "amenity": "hospital", "contact:phone": "18002082000", "emergency": "yes", "healthcare": "hospital", "name": "American Oncology Institute", "source": "OpenGovernmentData", "website": "https://www.americanoncology.com"}}, {"type": "node", "id": 6536715097, "lat": 17.4707742, "lon": 78.3113113, "tags": {"addr:district": "Hyderabad", "addr:full": "Near Aparna Sarovar, Nallagandla, Serilingampally", "addr:postcode": "500019", "addr:state": "Telangana", "aeroway": "no", "amenity": "hospital", "contact:email": "info@citizenshospitals.com", "emergency": "yes", "health_facility:type": "Outpatient and Inpatient Services;x ray and ultrasound;ECG;2D Echo Digital;lab services through our partner;AmPath", "healthcare": "hospital", "healthcare:speciality": "Anesthesiology;Bariatric Surgery;Cardiology;Critical Care;Dentistry;Dermatology;Diabetology;ENT;Gastroenterology;General Surgery;Internal Medicine;Nephrology;Neurology;Gynaecology;Orthopedics;Pediatrics;Surgical Oncology;Urology", "medical_system": "Allopathic", "name": "Citizens Specialty Hospital", "operator:type": "private", "phone": "040 67191919", "source": "OpenGovernmentData", "website": "https://www.citizenshospitals.com/", "wheelchair": "yes"}}, {"type": "node", "id": 6811748994, "lat": 17.4279239, "lon": 78.3240814, "tags": {"addr:district": "Ranga Reddy", "addr:full": "H. No. 5-1/99/A/B, Near Padmasree Gardens, Gowli Doddi, Hyderabad", "addr:postcode": "500032", "addr:state": "Telangana", "amenity": "hospital", "contact:mobile": "7337456268", "email": "info@srijahospitals.com", "name": "Srija Hospital", "source": "OpenGovernmentData", "website": "https://srijahospitals.com/"}}, {"type": "node", "id": 6811749146, "lat": 17.4795083, "lon": 78.3202454, "tags": {"addr:district": "Hyderabad", "addr:full": "ADARSH NAGAR, OPPOOSITE TO GULMOHAR PARK, Serilingampally", "addr:state": "Telangana", "amenity": "hospital", "healthcare": "hospital", "name": "Shreya Hospitals", "operator:type": "private", "source": "OpenGovernmentData"}}, {"type": "node", "id": 10250377758, "lat": 17.4168548, "lon": 78.3391502}, {"type": "node", "id": 11230719677, "lat": 17.4707752, "lon": 78.3116097}, {"type": "way", "id": 254295845, "nodes": [2600832597, 4132325566, 2600832598, 2600832599, 10250377758, 2600832600, 2600832597], "tags": {"addr:district": "Hyderabad", "addr:full": "Plot Number 3, Road Number 2, I.T and Financial District, Nanakramguda, Gachibowli", "addr:postcode": "500032", "addr:state": "Telangana", "amenity": "hospital", "contact:tollfree": "1800 108 1007", "emergency": "yes", "emergency_telephone_code": "040 67000111", "health_facility:type": "Surgical Specialities and Operation Theatres; ICU; ATM; WIFI; Business Centre", "healthcare": "hospital", "healthcare:speciality": "multi specialty", "medical_system": "Allopathic", "name": "Continental Hospitals", "operator:type": "private", "phone": "040-67000000; 040-67000071", "source": "OpenGovernmentData", "website": "https://www.continentalhospitals.com/"}}, {"type": "way", "id": 422917298, "nodes": [4226395189, 4226395190, 4226395191, 4226395192, 11230719677, 4226395193, 4226395194, 4226395197, 4226395198, 4226395199, 4226395189], "tags": {"amenity": "hospital", "healthcare": "hospital"}}, {"type": "way", "id": 596480014, "nodes": [5682059254, 5682059255, 5682059256, 5682059257, 5682059254], "tags": {"amenity": "hospital", "healthcare": "hospital"}}]}