{"version": 0.6, "generator": "Overpass API 0.7.62.8 e802775f", "osm3s": {"timestamp_osm_base": "2026-01-12T04:56:45Z", "copyright": "The data included in this document is from www.openstreetmap.org. The data is made available under ODbL."}, "elements": [{"type": "node", "id": 357544577, "lat": 40.7012239, "lon": -73.9445117, "tags": {"amenity": "school", "ele": "5", "gnis:feature_id": "942331", "name": "All Saints High School"}}, {"type": "node", "id": 357548368, "lat": 40.7097874, "lon": -73.963484, "tags": {"amenity": "school", "ele": "13", "gnis:feature_id": "943769", "name": "Beth Jacob Seminary"}}, {"type": "node", "id": 357550025, "lat": 40.6848253, "lon": -73.9479156, "tags": {"amenity": "school", "ele": "16", "gnis:feature_id": "944552", "name": "Boys High School", "wikidata": "Q4952658"}}, {"type": "node", "id": 357551778, "lat": 40.6971081, "lon": -73.9116987, "tags": {"amenity": "school", "ele": "15", "gnis:feature_id": "945328", "name": "Bushwick High School"}}, {"type": "node", "id": 357557722, "lat": 40.6933246, "lon": -73.908228, "tags": {"amenity": "school", "ele": "20", "gnis:feature_id": "949265", "name": "Public School 151"}}, {"type": "node", "id": 357558505, "lat": 40.6495482, "lon": -73.9559714, "tags": {"amenity": "school", "ele": "14", "gnis:feature_id": "949679", "name": "Erasmus Hall High School", "wikidata": "Q5384959"}}, {"type": "node", "id": 357558852, "lat": 40.6971515, "lon": -73.8977242}, {"type": "node", "id": 357561540, "lat": 40.6814693, "lon": -73.9495832, "tags": {"amenity": "school", "ele": "16", "gnis:feature_id": "951147", "name": "Brooklyn Adult Learning Center", "old_name": "Brooklyn Adult Training Center", "phone": "+1-718-638-2635", "website": "https://www.balc.school"}}, {"type": "node", "id": 357565028, "lat": 40.6501038, "lon": -73.9537492, "tags": {"amenity": "school", "ele": "15", "gnis:feature_id": "953054", "name": "Holy Cross School"}}, {"type": "node", "id": 357565063, "lat": 40.7234356, "lon": -73.9540269, "tags": {"amenity": "school", "ele": "4", "gnis:feature_id": "953064", "name": "Holy Family School"}}, {"type": "node", "id": 357567177, "lat": 40.6895474, "lon": -73.9251373, "tags": {"amenity": "school", "ele": "16", "gnis:feature_id": "954233", "name": "Junior Academy"}}, {"type": "node", "id": 357567194, "lat": 40.701056, "lon": -73.9274398, "tags": {"amenity": "school", "ele": "18", "gnis:feature_id": "954238", "name": "Intermediate School 347"}}, {"type": "node", "id": 357567413, "lat": 40.6587839, "lon": -73.928888, "tags": {"amenity": "school", "ele": "10", "gnis:feature_id": "954299", "name": "Intermediate School 232"}}, {"type": "node", "id": 357567449, "lat": 40.6718768, "lon": -73.8934104, "tags": {"amenity": "school", "ele": "10", "gnis:feature_id": "954310", "name": "Intermediate School 292"}}, {"type": "node", "id": 357567532, "lat": 40.6913175, "lon": -73.9334866, "tags": {"amenity": "school", "ele": "17", "gnis:feature_id": "954333", "name": "Junior High School K057 Whitelaw Reid"}}, {"type": "node", "id": 357573242, "lat": 40.6984361, "lon": -73.9595827, "tags": {"amenity": "school", "ele": "5", "gnis:feature_id": "958471", "name": "New York Community College of Applied Arts and Sciences"}}, {"type": "node", "id": 357575737, "lat": 40.7209875, "lon": -73.8866697, "tags": {"addr:housenumber": "61-21", "addr:postcode": "11379", "addr:street": "71st Street", "amenity": "school", "ele": "31", "gnis:feature_id": "959611", "name": "Our Lady of Hope School"}}, {"type": "node", "id": 357578377, "lat": 40.6937007, "lon": -73.9089851, "tags": {"amenity": "school", "ele": "19", "gnis:feature_id": "961235", "name": "Public School 106"}}, {"type": "node", "id": 357578402, "lat": 40.6812143, "lon": -73.8845805, "tags": {"amenity": "school", "ele": "13", "gnis:feature_id": "961242", "name": "Public School 108", "wikidata": "Q7257548"}}, {"type": "node", "id": 357578476, "lat": 40.6859425, "lon": -73.9074374, "tags": {"amenity": "school", "ele": "19", "gnis:feature_id": "961263", "name": "Public School 113"}}, {"type": "node", "id": 357578713, "lat": 40.6822761, "lon": -73.9168823, "tags": {"amenity": "school", "ele": "11", "gnis:feature_id": "961332", "name": "Public School 137"}}, {"type": "node", "id": 357578927, "lat": 40.6656591, "lon": -73.9181926, "tags": {"amenity": "school", "ele": "10", "gnis:feature_id": "961384", "name": "Public School 156"}}, {"type": "node", "id": 357579848, "lat": 40.6481594, "lon": -73.9529157, "tags": {"amenity": "school", "ele": "14", "gnis:feature_id": "961570", "name": "Public School 246"}}, {"type": "node", "id": 357579889, "lat": 40.6578814, "lon": -73.9198593, "tags": {"amenity": "school", "ele": "9", "gnis:feature_id": "961581", "name": "Intermediate School 252"}}, {"type": "node", "id": 357579911, "lat": 40.6921005, "lon": -73.9310161}, {"type": "node", "id": 357580023, "lat": 40.6909665, "lon": -73.9181333}, {"type": "node", "id": 357580141, "lat": 40.6680556, "lon": -73.8983711}, {"type": "node", "id": 357580422, "lat": 40.6870111, "lon": -73.9099565}, {"type": "node", "id": 357580485, "lat": 40.685095, "lon": -73.9227299}, {"type": "node", "id": 357580731, "lat": 40.6831588, "lon": -73.8770803, "tags": {"amenity": "school", "ele": "13", "gnis:feature_id": "961796", "name": "Public School 65K", "wikidata": "Q7257555"}}, {"type": "node", "id": 357580836, "lat": 40.7228802, "lon": -73.9065256, "tags": {"amenity": "school", "ele": "15", "gnis:feature_id": "961827", "name": "Public School 72"}}, {"type": "node", "id": 357580868, "lat": 40.7056583, "lon": -73.9115257, "tags": {"amenity": "school", "ele": "27", "gnis:feature_id": "961837", "name": "Public School 75"}}, {"type": "node", "id": 357580991, "lat": 40.703801, "lon": -73.9120307, "tags": {"amenity": "school", "ele": "21", "gnis:feature_id": "961870", "name": "Public School 81"}}, {"type": "node", "id": 357581046, "lat": 40.7006584, "lon": -73.9181926, "tags": {"amenity": "school", "ele": "11", "gnis:feature_id": "961886", "name": "Public School 86"}}, {"type": "node", "id": 357581131, "lat": 40.6562148, "lon": -73.9540269, "tags": {"amenity": "school", "ele": "18", "gnis:feature_id": "961912", "name": "Public School 92", "ref": "92"}}, {"type": "node", "id": 357581140, "lat": 40.70583, "lon": -73.90389, "tags": {"amenity": "school", "ele": "32", "gnis:feature_id": "961915", "name": "Intermediate School 93"}}, {"type": "node", "id": 357583594, "lat": 40.7076027, "lon": -73.9143036, "tags": {"amenity": "school", "ele": "26", "gnis:feature_id": "963273", "name": "Saint Aloysius School"}}, {"type": "node", "id": 357584102, "lat": 40.7195468, "lon": -73.94236, "tags": {"amenity": "school", "ele": "8", "gnis:feature_id": "963418", "name": "Saint Cecilia School"}}, {"type": "node", "id": 357584491, "lat": 40.6614655, "lon": -73.9490892, "tags": {"amenity": "school", "ele": "15", "gnis:feature_id": "963502", "name": "Saint Francis of Assisi Elementary School"}}, {"type": "node", "id": 357584495, "lat": 40.71667, "lon": -73.95833, "tags": {"amenity": "school", "ele": "8", "gnis:feature_id": "963503", "name": "Saint Francis Preparatory School"}}, {"type": "node", "id": 357584619, "lat": 40.6714923, "lon": -73.9456934, "tags": {"amenity": "school", "ele": "27", "gnis:feature_id": "963533", "name": "Saint Gregorys School"}}, {"type": "node", "id": 357585174, "lat": 40.6948972, "lon": -73.9376355, "tags": {"amenity": "school", "ele": "23", "gnis:feature_id": "963673", "name": "Saint Johns Preparatory School", "wheelchair": "yes"}}, {"type": "node", "id": 357585894, "lat": 40.6942696, "lon": -73.9098591, "tags": {"amenity": "school", "ele": "19", "gnis:feature_id": "963861", "name": "Saint Martins School"}}, {"type": "node", "id": 357586525, "lat": 40.702325, "lon": -73.9026367, "tags": {"amenity": "school", "ele": "26", "gnis:feature_id": "964003", "name": "Saint Matthias School"}}, {"type": "node", "id": 357586691, "lat": 40.7013428, "lon": -73.8837622, "tags": {"amenity": "school", "ele": "28", "gnis:feature_id": "964040", "name": "Saint Pancras School"}}, {"type": "node", "id": 357587291, "lat": 40.6778811, "lon": -73.8818027, "tags": {"amenity": "school", "ele": "10", "gnis:feature_id": "964197", "name": "Saint Rita School"}}, {"type": "node", "id": 357587519, "lat": 40.6915173, "lon": -73.8562721, "tags": {"amenity": "school", "ele": "14", "gnis:feature_id": "964240", "name": "Saint Thomas the Apostle School"}}, {"type": "node", "id": 357593428, "lat": 40.707047, "lon": -73.9440266, "tags": {"amenity": "school", "ele": "9", "gnis:feature_id": "967830", "name": "Most Holy Trinity School"}}, {"type": "node", "id": 357597574, "lat": 40.6577219, "lon": -73.9424935}, {"type": "node", "id": 357598961, "lat": 40.659548, "lon": -73.9148592, "tags": {"amenity": "school", "ele": "8", "gnis:feature_id": "973818", "name": "Public School 183"}}, {"type": "node", "id": 357617747, "lat": 40.7158121, "lon": -73.8726497, "tags": {"amenity": "school", "ele": "35", "gnis:feature_id": "2080251", "name": "Saint Margaret's Religious Education Center"}}, {"type": "node", "id": 357618963, "lat": 40.6816269, "lon": -73.9612725, "tags": {"amenity": "school", "denomination": "seventh_day_adventist", "name": "Bethel Seventh Day Adventist School", "phone": "+1-718-866-4226", "religion": "christian", "website": "https://www.betheladventist.org"}}, {"type": "node", "id": 357619111, "lat": 40.7061075, "lon": -73.963051, "tags": {"addr:housenumber": "505", "addr:postcode": "11211", "addr:street": "Bedford Avenue", "amenity": "school", "ele": "16", "gnis:feature_id": "2081633", "name": "Yeshiva Yesoda Hatora of K'Hal Adas Yereim"}}, {"type": "node", "id": 357619184, "lat": 40.6488889, "lon": -73.9561111, "tags": {"amenity": "school", "ele": "14", "gnis:feature_id": "2081759", "name": "Public School 6", "polling_station": "yes"}}, {"type": "node", "id": 357619272, "lat": 40.7011228, "lon": -73.9445018, "tags": {"amenity": "school", "ele": "5", "gnis:feature_id": "2081877", "name": "All Saints Elementary School"}}, {"type": "node", "id": 357619275, "lat": 40.6697222, "lon": -73.9438889, "tags": {"amenity": "school", "ele": "28", "gnis:feature_id": "2081878", "name": "Arista Preparatory School"}}, {"type": "node", "id": 357619312, "lat": 40.702408, "lon": -73.9598031, "tags": {"amenity": "school", "ele": "8", "gnis:feature_id": "2081890", "name": "Beth Chana School for Girls"}}, {"type": "node", "id": 357619314, "lat": 40.705, "lon": -73.9597222, "tags": {"amenity": "school", "ele": "16", "gnis:feature_id": "2081891", "name": "Beth Rachel School for Girls"}}, {"type": "node", "id": 357619348, "lat": 40.705, "lon": -73.9530556, "tags": {"amenity": "school", "ele": "9", "gnis:feature_id": "2081901", "name": "Bnos Yakov School for Girls"}}, {"type": "node", "id": 357619354, "lat": 40.6380214, "lon": -73.9691611, "tags": {"amenity": "school", "ele": "11", "gnis:feature_id": "2081903", "name": "Bonim Lamokom"}}, {"type": "node", "id": 357619358, "lat": 40.6846677, "lon": -73.9475228, "tags": {"amenity": "school", "ele": "16", "gnis:feature_id": "2081904", "name": "K553 Brooklyn Academy High School"}}, {"type": "node", "id": 357619376, "lat": 40.6972222, "lon": -73.9141667, "tags": {"amenity": "school", "ele": "12", "gnis:feature_id": "2082095", "name": "All Leadership Secondary School"}}, {"type": "node", "id": 357619392, "lat": 40.6968035, "lon": -73.9118129, "tags": {"amenity": "school", "ele": "15", "gnis:feature_id": "2082100", "name": "Bushwick High School for Social Justice", "wikidata": "Q5001596"}}, {"type": "node", "id": 357619396, "lat": 40.6969455, "lon": -73.9121377, "tags": {"amenity": "school", "ele": "15", "gnis:feature_id": "2082101", "name": "New York Harbor School"}}, {"type": "node", "id": 357619399, "lat": 40.6965933, "lon": -73.9123186, "tags": {"amenity": "school", "ele": "15", "gnis:feature_id": "2082102", "name": "High School of Urban Planning"}}, {"type": "node", "id": 357619415, "lat": 40.6839299, "lon": -73.9541892, "tags": {"addr:housenumber": "1174", "addr:postcode": "11216", "addr:street": "Bedford Avenue", "amenity": "school", "check_date": "2025-06-12", "ele": "18", "gnis:feature_id": "2082107", "name": "Clara Muhammad School of Masjid Khal", "religion": "muslim", "website": "http://www.cmsbrooklyn.org/"}}, {"type": "node", "id": 357619428, "lat": 40.6688889, "lon": -73.9277778, "tags": {"amenity": "school", "ele": "32", "gnis:feature_id": "2082111", "name": "David Grayson Christian Academy"}}, {"type": "node", "id": 357619447, "lat": 40.6613889, "lon": -73.9075, "tags": {"amenity": "school", "ele": "7", "gnis:feature_id": "2082117", "name": "Enya Community School"}}, {"type": "node", "id": 357619470, "lat": 40.7049705, "lon": -73.9618503, "tags": {"amenity": "school", "ele": "15", "gnis:feature_id": "2082147", "name": "Hychel Hatorah"}}, {"type": "node", "id": 357619489, "lat": 40.6766667, "lon": -73.8838889, "tags": {"amenity": "school", "ele": "9", "gnis:feature_id": "2082152", "name": "Intermediate School 302"}}, {"type": "node", "id": 357619495, "lat": 40.7008333, "lon": -73.9277778, "tags": {"amenity": "school", "ele": "19", "gnis:feature_id": "2082154", "name": "Intermediate School 349"}}, {"type": "node", "id": 357619510, "lat": 40.6655556, "lon": -73.9180556, "tags": {"amenity": "school", "ele": "10", "gnis:feature_id": "2082159", "name": "Intermediate School 392"}}, {"type": "node", "id": 357619526, "lat": 40.6591155, "lon": -73.9621396, "tags": {"amenity": "school", "ele": "20", "gnis:feature_id": "2082164", "name": "John Hus Moravian School"}}, {"type": "node", "id": 357619538, "lat": 40.7040001, "lon": -73.9605387, "tags": {"amenity": "school", "ele": "13", "gnis:feature_id": "2082168", "name": "Kedishas Naftoli"}}, {"type": "node", "id": 357619609, "lat": 40.7021304, "lon": -73.9557045, "tags": {"amenity": "school", "ele": "5", "gnis:feature_id": "2082191", "name": "Mesivta Tifereth Zvi Spinka"}}, {"type": "node", "id": 357619619, "lat": 40.6564376, "lon": -73.9515241, "tags": {"amenity": "school", "ele": "18", "gnis:feature_id": "2082194", "name": "Middle School K002"}}, {"type": "node", "id": 357619649, "lat": 40.6691381, "lon": -73.9301678, "tags": {"addr:city": "Brooklyn", "addr:housenumber": "1149", "addr:postcode": "11213", "addr:state": "NY", "addr:street": "Eastern Parkway", "amenity": "school", "ele": "34", "email": "mmca_admissions@mtmoriahchristianacademy.com", "gnis:feature_id": "2082223", "name": "Mount Moriah Christian Academy", "phone": "+1-718-953-4364", "religion": "christian", "website": "https://www.mtmoriahchristianacademy.com/"}}, {"type": "node", "id": 357619668, "lat": 40.7173889, "lon": -73.9572791, "tags": {"addr:housenumber": "180", "addr:postcode": "11211", "addr:street": "North 7th Street", "amenity": "school", "ele": "8", "gnis:feature_id": "2082227", "name": "Northside Catholic School at Saint Vincent De Paul"}}, {"type": "node", "id": 357619733, "lat": 40.6511111, "lon": -73.9577778, "tags": {"amenity": "school", "ele": "15", "gnis:feature_id": "2082249", "name": "Public School 245"}}, {"type": "node", "id": 357619764, "lat": 40.6651049, "lon": -73.9594512, "tags": {"amenity": "school", "ele": "26", "fax": "+1-718-284-6433", "gnis:feature_id": "2082260", "name": "Public School K375 Jackie Robinson", "phone": "+1-718-693-6655"}}, {"type": "node", "id": 357619779, "lat": 40.6483333, "lon": -73.9519444, "tags": {"amenity": "school", "ele": "14", "gnis:feature_id": "2082265", "name": "Public School 399"}}, {"type": "node", "id": 357619823, "lat": 40.7112526, "lon": -73.9427495, "tags": {"amenity": "school", "ele": "12", "gnis:feature_id": "2082277", "name": "Saint John the Evangelist Lutheran School"}}, {"type": "node", "id": 357619829, "lat": 40.6675474, "lon": -73.9450322}, {"type": "node", "id": 357619908, "lat": 40.7018969, "lon": -73.9626396, "tags": {"amenity": "school", "ele": "5", "gnis:feature_id": "2082296", "name": "Talmud Torah Dnitra"}}, {"type": "node", "id": 357619914, "lat": 40.7049431, "lon": -73.9618226, "tags": {"amenity": "school", "ele": "15", "gnis:feature_id": "2082298", "name": "Talmud Torah Tashbar"}}, {"type": "node", "id": 357619918, "lat": 40.7008684, "lon": -73.9621416, "tags": {"addr:housenumber": "35", "addr:postcode": "11249", "addr:street": "Hewes Street", "amenity": "school", "ele": "4", "gnis:feature_id": "2082299", "name": "Talmud Torah Toldos Hillel-Krasna"}}, {"type": "node", "id": 357619920, "lat": 40.6661111, "lon": -73.9238889, "tags": {"amenity": "school", "ele": "16", "gnis:feature_id": "2082300", "name": "Teachers Preparatory School"}}, {"type": "node", "id": 357619923, "lat": 40.666194, "lon": -73.9239754, "tags": {"amenity": "school", "ele": "16", "gnis:feature_id": "2082301", "name": "Teachers Preparatory Secondary School"}}, {"type": "node", "id": 357619933, "lat": 40.7050203, "lon": -73.9491762, "tags": {"amenity": "school", "ele": "4", "gnis:feature_id": "2082387", "name": "Tiferes Bnos Girls School"}}, {"type": "node", "id": 357619939, "lat": 40.6381138, "lon": -73.9691815, "tags": {"amenity": "school", "ele": "11", "gnis:feature_id": "2082389", "name": "Torah Vodaath High School"}}, {"type": "node", "id": 357619959, "lat": 40.7038906, "lon": -73.9605387, "tags": {"amenity": "school", "ele": "13", "gnis:feature_id": "2082395", "name": "Yeshiva Beth Yitzchok D Spinka"}}, {"type": "node", "id": 357619969, "lat": 40.7002578, "lon": -73.9535793, "tags": {"amenity": "school", "ele": "3", "gnis:feature_id": "2082398", "name": "Yeshiva Bnos Ahavas Israel"}}, {"type": "node", "id": 357619986, "lat": 40.7061623, "lon": -73.9631007, "tags": {"addr:housenumber": "505", "addr:postcode": "11211", "addr:street": "Bedford Avenue", "amenity": "school", "ele": "16", "gnis:feature_id": "2082404", "name": "Yeshiva Jesode Hatorah"}}, {"type": "node", "id": 357620024, "lat": 40.7030556, "lon": -73.9508333, "tags": {"amenity": "school", "ele": "5", "gnis:feature_id": "2082416", "name": "Yeshiva Sharie Torah"}}, {"type": "node", "id": 357620034, "lat": 40.6380556, "lon": -73.9691667, "tags": {"amenity": "school", "ele": "11", "gnis:feature_id": "2082419", "name": "Yeshiva Torah Vodaath", "wikidata": "Q2903923"}}, {"type": "node", "id": 357620039, "lat": 40.7061399, "lon": -73.9594877, "tags": {"addr:housenumber": "188", "addr:postcode": "11211", "addr:street": "Ross Street", "amenity": "school", "ele": "16", "gnis:feature_id": "2082421", "name": "Yeshiva Tzemach Tzadik Viznitz"}}, {"type": "node", "id": 357620046, "lat": 40.7025848, "lon": -73.9597653, "tags": {"amenity": "school", "ele": "8", "gnis:feature_id": "2082423", "name": "Yeshiva Yesode Hatorah"}}, {"type": "node", "id": 357622044, "lat": 40.6494444, "lon": -73.9569444, "tags": {"amenity": "school", "ele": "14", "gnis:feature_id": "2092015", "name": "Science, Technology And Research High School"}}, {"type": "node", "id": 357622687, "lat": 40.6612539, "lon": -73.8871197}, {"type": "node", "id": 357623590, "lat": 40.6480556, "lon": -73.9516667, "tags": {"amenity": "school", "ele": "14", "gnis:feature_id": "2097107", "name": "Public School 397B"}}, {"type": "node", "id": 357623980, "lat": 40.7154162, "lon": -73.9617216, "tags": {"amenity": "school", "ele": "12", "gnis:feature_id": "2097561", "name": "Our Lady of Consolation School"}}, {"type": "node", "id": 357624025, "lat": 40.7113396, "lon": -73.9427699, "tags": {"amenity": "school", "ele": "12", "gnis:feature_id": "2097577", "name": "Saint Johns Evangelical Lutheran School"}}, {"type": "node", "id": 357624203, "lat": 40.682533, "lon": -73.9574026}, {"type": "node", "id": 357625277, "lat": 40.6713889, "lon": -73.8933333, "tags": {"amenity": "school", "ele": "10", "gnis:feature_id": "2104444", "name": "UFT Elementary Charter School"}}, {"type": "node", "id": 357630655, "lat": 40.6589951, "lon": -73.929006, "tags": {"amenity": "school", "ele": "10", "gnis:feature_id": "2363669", "name": "East Flatbush Community Research School"}}, {"type": "node", "id": 357630659, "lat": 40.6577296, "lon": -73.9197069, "tags": {"amenity": "school", "ele": "9", "gnis:feature_id": "2363670", "name": "Middle School For Art and Philosophy"}}, {"type": "node", "id": 357630664, "lat": 40.6586964, "lon": -73.9289256, "tags": {"amenity": "school", "ele": "10", "gnis:feature_id": "2363671", "name": "Middle School Of Marketing And Legal Studies"}}, {"type": "node", "id": 357630669, "lat": 40.6922222, "lon": -73.9586111, "tags": {"amenity": "school", "ele": "18", "gnis:feature_id": "2363672", "name": "Knowledge And Power Preparatory VII Middle School"}}, {"type": "node", "id": 357630682, "lat": 40.6477076, "lon": -73.9223957, "tags": {"amenity": "school", "ele": "7", "gnis:feature_id": "2363675", "name": "It Takes A Village Academy"}}, {"type": "node", "id": 357630687, "lat": 40.6477763, "lon": -73.9215436, "tags": {"amenity": "school", "ele": "7", "gnis:feature_id": "2363676", "name": "Kurt Hahn Expeditionary Learning School", "wikidata": "Q7744995"}}, {"type": "node", "id": 357630693, "lat": 40.7095462, "lon": -73.9447343, "tags": {"addr:city": "Brooklyn", "addr:housenumber": "223", "addr:postcode": "11206", "addr:state": "NY", "addr:street": "Graham Avenue", "amenity": "school", "ele": "12", "gnis:feature_id": "2363677", "name": "Lyons Community School", "operator": "New York City Department of Education", "operator:short": "NYC Public Schools", "operator:type": "public", "operator:wikidata": "Q408230", "operator:wikipedia": "en:New York City Department of Education", "website": "https://www.lyonscommunityschool.org/"}}, {"type": "node", "id": 357630703, "lat": 40.6588889, "lon": -73.9289335, "tags": {"amenity": "school", "ele": "10", "gnis:feature_id": "2363679", "name": "Arts And Media Preparatory Academy"}}, {"type": "node", "id": 357630730, "lat": 40.6578067, "lon": -73.9197222, "tags": {"addr:city": "Brooklyn", "addr:housenumber": "1084", "addr:postcode": "11212", "addr:state": "NY", "addr:street": "Lenox Road", "amenity": "school", "ele": "9", "gnis:feature_id": "2363685", "name": "Uncommon Kings Middle School", "opening_hours": "Mo-Fr 08:00-15:00", "phone": "+1-718-342-6047", "website": "https://nyc.uncommonschools.org/kings-middle"}}, {"type": "node", "id": 357635679, "lat": 40.6741557, "lon": -73.912781}, {"type": "node", "id": 357635697, "lat": 40.668685, "lon": -73.9115662}, {"type": "node", "id": 357639813, "lat": 40.6652605, "lon": -73.8664076}, {"type": "node", "id": 357648445, "lat": 40.6557927, "lon": -73.9066764, "tags": {"amenity": "school", "ele": "5", "gnis:feature_id": "2493025", "name": "Public School K140"}}, {"type": "node", "id": 357648452, "lat": 40.6564413, "lon": -73.9515241, "tags": {"amenity": "school", "ele": "18", "gnis:feature_id": "2493027", "name": "Public School K141"}}, {"type": "node", "id": 357648474, "lat": 40.6917087, "lon": -73.9332614, "tags": {"amenity": "school", "ele": "17", "gnis:feature_id": "2493034", "name": "K385 School of Business Finance and Entrepreneurship"}}, {"type": "node", "id": 357648513, "lat": 40.669147, "lon": -73.8672448, "tags": {"amenity": "school", "ele": "4", "gnis:feature_id": "2493053", "name": "Robert F Kennedy Incentive Program"}}, {"type": "node", "id": 357648539, "lat": 40.6648769, "lon": -73.9595336, "tags": {"amenity": "school", "ele": "26", "fax": "+1-718-284-7973", "gnis:feature_id": "2493063", "name": "K352 Ebbets Field Middle School", "phone": "+1-718-941-5097", "website": "https://www.schools.nyc.gov/schools/K352"}}, {"type": "node", "id": 358265848, "lat": 40.6787535, "lon": -73.9655188}, {"type": "node", "id": 358265850, "lat": 40.6780616, "lon": -73.9657698}, {"type": "node", "id": 617342584, "lat": 40.7150693, "lon": -73.945353}, {"type": "node", "id": 617357397, "lat": 40.7099117, "lon": -73.9400848}, {"type": "node", "id": 617357398, "lat": 40.7101718, "lon": -73.9373402}, {"type": "node", "id": 617357400, "lat": 40.7124115, "lon": -73.9383756}, {"type": "node", "id": 617357401, "lat": 40.7119097, "lon": -73.9404277}, {"type": "node", "id": 617357403, "lat": 40.7116478, "lon": -73.94034}, {"type": "node", "id": 617375609, "lat": 40.7084876, "lon": -73.9398081}, {"type": "node", "id": 617375628, "lat": 40.7089921, "lon": -73.9398867}, {"type": "node", "id": 761653452, "lat": 40.7096675, "lon": -73.8886333}, {"type": "node", "id": 761653456, "lat": 40.7098922, "lon": -73.8878769}, {"type": "node", "id": 761653460, "lat": 40.7103689, "lon": -73.8881559}, {"type": "node", "id": 761653464, "lat": 40.7105784, "lon": -73.8872493}, {"type": "node", "id": 761653470, "lat": 40.7106475, "lon": -73.8872761}, {"type": "node", "id": 761653474, "lat": 40.7113713, "lon": -73.8877536}, {"type": "node", "id": 761653479, "lat": 40.7118633, "lon": -73.8881559}, {"type": "node", "id": 761653483, "lat": 40.71218, "lon": -73.8884516}, {"type": "node", "id": 888905617, "lat": 40.7150849, "lon": -73.9569057, "tags": {"amenity": "school", "name": "Middle School 577"}}, {"type": "node", "id": 1257418888, "lat": 40.678689, "lon": -73.9670174}, {"type": "node", "id": 1640872661, "lat": 40.6750236, "lon": -73.9612771}, {"type": "node", "id": 1640872664, "lat": 40.6743315, "lon": -73.9615198}, {"type": "node", "id": 1640883887, "lat": 40.6741179, "lon": -73.960461}, {"type": "node", "id": 1640883891, "lat": 40.67481, "lon": -73.9602182}, {"type": "node", "id": 2453655672, "lat": 40.6737675, "lon": -73.9419027}, {"type": "node", "id": 2494052235, "lat": 40.7118985, "lon": -73.9593907}, {"type": "node", "id": 2494052377, "lat": 40.7115448, "lon": -73.9596192}, {"type": "node", "id": 2494052418, "lat": 40.7119423, "lon": -73.9595089}, {"type": "node", "id": 2494052427, "lat": 40.7119582, "lon": -73.9595517}, {"type": "node", "id": 2494052430, "lat": 40.7119602, "lon": -73.959557}, {"type": "node", "id": 2494052433, "lat": 40.7119645, "lon": -73.9595686}, {"type": "node", "id": 2494052453, "lat": 40.7120003, "lon": -73.959665}, {"type": "node", "id": 2494052628, "lat": 40.7122257, "lon": -73.9604744}, {"type": "node", "id": 2494052674, "lat": 40.7123062, "lon": -73.9606994}, {"type": "node", "id": 2494146255, "lat": 40.6407747, "lon": -73.9657957}, {"type": "node", "id": 2494146358, "lat": 40.6409389, "lon": -73.9658281}, {"type": "node", "id": 2494146361, "lat": 40.6409428, "lon": -73.9660631}, {"type": "node", "id": 2494146374, "lat": 40.6409581, "lon": -73.965928}, {"type": "node", "id": 2494146385, "lat": 40.640963, "lon": -73.965929}, {"type": "node", "id": 2494146493, "lat": 40.6411118, "lon": -73.9660959}, {"type": "node", "id": 2494146530, "lat": 40.6411761, "lon": -73.9658083}, {"type": "node", "id": 2494146668, "lat": 40.6415265, "lon": -73.9661164}, {"type": "node", "id": 2494146680, "lat": 40.6415526, "lon": -73.965881}, {"type": "node", "id": 2494146737, "lat": 40.6416748, "lon": -73.9661448}, {"type": "node", "id": 2543066456, "lat": 40.6444659, "lon": -73.9224554}, {"type": "node", "id": 2543066489, "lat": 40.6444952, "lon": -73.9219687}, {"type": "node", "id": 2543094775, "lat": 40.6475262, "lon": -73.9253803}, {"type": "node", "id": 2543094785, "lat": 40.6475337, "lon": -73.9256837}, {"type": "node", "id": 2543094787, "lat": 40.6475341, "lon": -73.9252528}, {"type": "node", "id": 2543094797, "lat": 40.6475415, "lon": -73.9257134}, {"type": "node", "id": 2543094799, "lat": 40.6475433, "lon": -73.9256847}, {"type": "node", "id": 2543094805, "lat": 40.6475522, "lon": -73.9253831}, {"type": "node", "id": 2543094808, "lat": 40.647555, "lon": -73.925255}, {"type": "node", "id": 2543094813, "lat": 40.6475557, "lon": -73.9252435}, {"type": "node", "id": 2543094931, "lat": 40.6477138, "lon": -73.925687}, {"type": "node", "id": 2543094938, "lat": 40.6477254, "lon": -73.9254985}, {"type": "node", "id": 2543094977, "lat": 40.6477654, "lon": -73.9259065}, {"type": "node", "id": 2543094989, "lat": 40.6477757, "lon": -73.9257382}, {"type": "node", "id": 2543094995, "lat": 40.6477838, "lon": -73.9256944}, {"type": "node", "id": 2543094997, "lat": 40.6477855, "lon": -73.9256674}, {"type": "node", "id": 2543095015, "lat": 40.6478074, "lon": -73.9259217}, {"type": "node", "id": 2543095017, "lat": 40.647808, "lon": -73.925911}, {"type": "node", "id": 2543095032, "lat": 40.6478307, "lon": -73.9256993}, {"type": "node", "id": 2543095033, "lat": 40.6478323, "lon": -73.9256724}, {"type": "node", "id": 2543095189, "lat": 40.6480164, "lon": -73.9259439}, {"type": "node", "id": 2543095192, "lat": 40.6480171, "lon": -73.9259331}, {"type": "node", "id": 2543095201, "lat": 40.6480403, "lon": -73.9255319}, {"type": "node", "id": 2543095204, "lat": 40.6480415, "lon": -73.9255111}, {"type": "node", "id": 2543095279, "lat": 40.6481173, "lon": -73.9256265}, {"type": "node", "id": 2543095280, "lat": 40.6481194, "lon": -73.925592}, {"type": "node", "id": 2543095283, "lat": 40.6481314, "lon": -73.9257312}, {"type": "node", "id": 2543095290, "lat": 40.6481377, "lon": -73.9256287}, {"type": "node", "id": 2543095293, "lat": 40.6481398, "lon": -73.9255942}, {"type": "node", "id": 2543095295, "lat": 40.648142, "lon": -73.9255585}, {"type": "node", "id": 2543095306, "lat": 40.6481843, "lon": -73.925563}, {"type": "node", "id": 2543095312, "lat": 40.6481866, "lon": -73.9255264}, {"type": "node", "id": 2543095350, "lat": 40.6482624, "lon": -73.9258694}, {"type": "node", "id": 2543095351, "lat": 40.6482639, "lon": -73.9259593}, {"type": "node", "id": 2543095352, "lat": 40.6482694, "lon": -73.9258701}, {"type": "node", "id": 2543095355, "lat": 40.6482907, "lon": -73.9254082}, {"type": "node", "id": 2543095357, "lat": 40.6482977, "lon": -73.9254089}, {"type": "node", "id": 2543095358, "lat": 40.648303, "lon": -73.9253226}, {"type": "node", "id": 2543100173, "lat": 40.6468678, "lon": -73.9227185}, {"type": "node", "id": 2543100295, "lat": 40.6476325, "lon": -73.9224886}, {"type": "node", "id": 2543100307, "lat": 40.6476989, "lon": -73.9214239}, {"type": "node", "id": 2543100314, "lat": 40.647735, "lon": -73.922978}, {"type": "node", "id": 2543100321, "lat": 40.6477534, "lon": -73.9226842}, {"type": "node", "id": 2543100326, "lat": 40.6477726, "lon": -73.9226863}, {"type": "node", "id": 2543100327, "lat": 40.647775, "lon": -73.9226482}, {"type": "node", "id": 2543100335, "lat": 40.6478276, "lon": -73.9225096}, {"type": "node", "id": 2543100336, "lat": 40.647828, "lon": -73.9225028}, {"type": "node", "id": 2543100337, "lat": 40.6478303, "lon": -73.9226542}, {"type": "node", "id": 2543100338, "lat": 40.6478322, "lon": -73.9226242}, {"type": "node", "id": 2543100350, "lat": 40.6478774, "lon": -73.9225082}, {"type": "node", "id": 2543100353, "lat": 40.6478873, "lon": -73.9223501}, {"type": "node", "id": 2543100354, "lat": 40.6478902, "lon": -73.9215183}, {"type": "node", "id": 2543100355, "lat": 40.6478947, "lon": -73.9214449}, {"type": "node", "id": 2543100369, "lat": 40.6479304, "lon": -73.9215227}, {"type": "node", "id": 2543100370, "lat": 40.6479309, "lon": -73.921516}, {"type": "node", "id": 2543100390, "lat": 40.6480123, "lon": -73.9227064}, {"type": "node", "id": 2543100392, "lat": 40.6480162, "lon": -73.922644}, {"type": "node", "id": 2543100396, "lat": 40.6480366, "lon": -73.9225931}, {"type": "node", "id": 2543100398, "lat": 40.6480425, "lon": -73.922498}, {"type": "node", "id": 2543100408, "lat": 40.648085, "lon": -73.9223714}, {"type": "node", "id": 2543100409, "lat": 40.6480869, "lon": -73.9223421}, {"type": "node", "id": 2543100410, "lat": 40.6480907, "lon": -73.9230311}, {"type": "node", "id": 2543100411, "lat": 40.6480916, "lon": -73.9230164}, {"type": "node", "id": 2543100412, "lat": 40.648092, "lon": -73.9226331}, {"type": "node", "id": 2543100414, "lat": 40.6480941, "lon": -73.9225993}, {"type": "node", "id": 2543100418, "lat": 40.6481006, "lon": -73.9225042}, {"type": "node", "id": 2543100420, "lat": 40.6481037, "lon": -73.922454}, {"type": "node", "id": 2543100421, "lat": 40.6481113, "lon": -73.9227171}, {"type": "node", "id": 2543100423, "lat": 40.6481164, "lon": -73.9226357}, {"type": "node", "id": 2543100428, "lat": 40.6481272, "lon": -73.9224565}, {"type": "node", "id": 2543100431, "lat": 40.648134, "lon": -73.9223472}, {"type": "node", "id": 2543100463, "lat": 40.6481975, "lon": -73.9230426}, {"type": "node", "id": 2543100464, "lat": 40.6482008, "lon": -73.922991}, {"type": "node", "id": 2543100505, "lat": 40.6482792, "lon": -73.9227715}, {"type": "node", "id": 2543100537, "lat": 40.6483049, "lon": -73.9223597}, {"type": "node", "id": 2543100544, "lat": 40.6483151, "lon": -73.9221981}, {"type": "node", "id": 2543100546, "lat": 40.648327, "lon": -73.922362}, {"type": "node", "id": 2543100551, "lat": 40.6483371, "lon": -73.9222005}, {"type": "node", "id": 2543100556, "lat": 40.6483408, "lon": -73.9217861}, {"type": "node", "id": 2543100635, "lat": 40.6484716, "lon": -73.9230201}, {"type": "node", "id": 2543100637, "lat": 40.6484858, "lon": -73.9227937}, {"type": "node", "id": 2543100639, "lat": 40.6485455, "lon": -73.9218081}, {"type": "node", "id": 2543100641, "lat": 40.6485595, "lon": -73.9215835}, {"type": "node", "id": 2543207362, "lat": 40.6548282, "lon": -73.8861555}, {"type": "node", "id": 2543207363, "lat": 40.6548455, "lon": -73.8866235}, {"type": "node", "id": 2543207364, "lat": 40.6548831, "lon": -73.8860282}, {"type": "node", "id": 2543207365, "lat": 40.6549039, "lon": -73.8859801}, {"type": "node", "id": 2543207366, "lat": 40.6549203, "lon": -73.8864503}, {"type": "node", "id": 2543207367, "lat": 40.6549313, "lon": -73.8860005}, {"type": "node", "id": 2543207368, "lat": 40.6549466, "lon": -73.8859651}, {"type": "node", "id": 2543207369, "lat": 40.6549487, "lon": -73.8864714}, {"type": "node", "id": 2543207370, "lat": 40.6549657, "lon": -73.8864319}, {"type": "node", "id": 2543207373, "lat": 40.6550358, "lon": -73.886484}, {"type": "node", "id": 2543207377, "lat": 40.6550926, "lon": -73.8863523}, {"type": "node", "id": 2543207385, "lat": 40.6552714, "lon": -73.8869405}, {"type": "node", "id": 2543207389, "lat": 40.6553155, "lon": -73.8867433}, {"type": "node", "id": 2543207391, "lat": 40.6553349, "lon": -73.8866983}, {"type": "node", "id": 2543207395, "lat": 40.6553465, "lon": -73.8867664}, {"type": "node", "id": 2543207409, "lat": 40.6555352, "lon": -73.8868474}, {"type": "node", "id": 2543207413, "lat": 40.6556804, "lon": -73.8865111}, {"type": "node", "id": 2543295161, "lat": 40.6578075, "lon": -73.8791118}, {"type": "node", "id": 2543295166, "lat": 40.6578627, "lon": -73.8791768}, {"type": "node", "id": 2543295169, "lat": 40.6578692, "lon": -73.8789678}, {"type": "node", "id": 2543295172, "lat": 40.6578706, "lon": -73.8791584}, {"type": "node", "id": 2543295174, "lat": 40.6579323, "lon": -73.8790143}, {"type": "node", "id": 2543295177, "lat": 40.6579402, "lon": -73.8789958}, {"type": "node", "id": 2543295180, "lat": 40.658034, "lon": -73.878786}, {"type": "node", "id": 2543295182, "lat": 40.6580952, "lon": -73.8790737}, {"type": "node", "id": 2543295184, "lat": 40.6581047, "lon": -73.8791171}, {"type": "node", "id": 2543295187, "lat": 40.6581055, "lon": -73.8786189}, {"type": "node", "id": 2543295189, "lat": 40.6581166, "lon": -73.8790894}, {"type": "node", "id": 2543295191, "lat": 40.6581616, "lon": -73.8789186}, {"type": "node", "id": 2543295195, "lat": 40.6581829, "lon": -73.8789344}, {"type": "node", "id": 2543295199, "lat": 40.6581954, "lon": -73.8789051}, {"type": "node", "id": 2543295237, "lat": 40.6584279, "lon": -73.8795938}, {"type": "node", "id": 2543295239, "lat": 40.6584344, "lon": -73.8795786}, {"type": "node", "id": 2543295297, "lat": 40.6585984, "lon": -73.8796996}, {"type": "node", "id": 2543295339, "lat": 40.6587411, "lon": -73.8793384}, {"type": "node", "id": 2543295343, "lat": 40.6587501, "lon": -73.8793451}, {"type": "node", "id": 2543295345, "lat": 40.6587527, "lon": -73.8793114}, {"type": "node", "id": 2543295362, "lat": 40.6587617, "lon": -73.879318}, {"type": "node", "id": 2543295389, "lat": 40.6588316, "lon": -73.8791546}, {"type": "node", "id": 2543600104, "lat": 40.6855392, "lon": -73.8696671}, {"type": "node", "id": 2543600211, "lat": 40.6856197, "lon": -73.869067}, {"type": "node", "id": 2543608423, "lat": 40.6897544, "lon": -73.8726744}, {"type": "node", "id": 2543608515, "lat": 40.6924855, "lon": -73.8695467}, {"type": "node", "id": 2543608516, "lat": 40.6925936, "lon": -73.8690143}, {"type": "node", "id": 2543608517, "lat": 40.6926098, "lon": -73.8690209}, {"type": "node", "id": 2543608518, "lat": 40.6926308, "lon": -73.868857}, {"type": "node", "id": 2543608520, "lat": 40.6926414, "lon": -73.868812}, {"type": "node", "id": 2543608522, "lat": 40.6926576, "lon": -73.8688186}, {"type": "node", "id": 2543608533, "lat": 40.6927816, "lon": -73.8682935}, {"type": "node", "id": 2543608563, "lat": 40.6932359, "lon": -73.8698527}, {"type": "node", "id": 2543608565, "lat": 40.693357, "lon": -73.8685282}, {"type": "node", "id": 2543608568, "lat": 40.693532, "lon": -73.8685995}, {"type": "node", "id": 2543670153, "lat": 40.6817352, "lon": -73.8572297}, {"type": "node", "id": 2543670930, "lat": 40.6819336, "lon": -73.8566001}, {"type": "node", "id": 2545013395, "lat": 40.6757936, "lon": -73.8699807}, {"type": "node", "id": 2545013400, "lat": 40.6758965, "lon": -73.8692785}, {"type": "node", "id": 2545013445, "lat": 40.6764332, "lon": -73.8694151}, {"type": "node", "id": 2545013451, "lat": 40.6762592, "lon": -73.8693708}, {"type": "node", "id": 2545013462, "lat": 40.6763344, "lon": -73.8700895}, {"type": "node", "id": 2545013475, "lat": 40.6763616, "lon": -73.8699037}, {"type": "node", "id": 2545089497, "lat": 40.6691412, "lon": -73.8794156}, {"type": "node", "id": 2545089515, "lat": 40.6691658, "lon": -73.8792453}, {"type": "node", "id": 2545089519, "lat": 40.6691689, "lon": -73.8792461}, {"type": "node", "id": 2545089570, "lat": 40.6692365, "lon": -73.8787779}, {"type": "node", "id": 2545089682, "lat": 40.6693493, "lon": -73.8794677}, {"type": "node", "id": 2545089692, "lat": 40.6693559, "lon": -73.8794225}, {"type": "node", "id": 2545089770, "lat": 40.6694331, "lon": -73.8794628}, {"type": "node", "id": 2545089772, "lat": 40.669436, "lon": -73.8794426}, {"type": "node", "id": 2545089817, "lat": 40.669479, "lon": -73.8789131}, {"type": "node", "id": 2545089825, "lat": 40.6694887, "lon": -73.8788462}, {"type": "node", "id": 2545089936, "lat": 40.6695066, "lon": -73.879497}, {"type": "node", "id": 2545089951, "lat": 40.6695088, "lon": -73.8794818}, {"type": "node", "id": 2545090018, "lat": 40.6695395, "lon": -73.8789282}, {"type": "node", "id": 2545090022, "lat": 40.6695427, "lon": -73.8789061}, {"type": "node", "id": 2545090047, "lat": 40.6695562, "lon": -73.8795094}, {"type": "node", "id": 2545090056, "lat": 40.6695584, "lon": -73.8794942}, {"type": "node", "id": 2545090161, "lat": 40.6695855, "lon": -73.8795167}, {"type": "node", "id": 2545090181, "lat": 40.6695877, "lon": -73.8795015}, {"type": "node", "id": 2545090188, "lat": 40.6695906, "lon": -73.8789181}, {"type": "node", "id": 2545090200, "lat": 40.6695929, "lon": -73.8789025}, {"type": "node", "id": 2545090304, "lat": 40.6696364, "lon": -73.8795295}, {"type": "node", "id": 2545090314, "lat": 40.6696386, "lon": -73.8795143}, {"type": "node", "id": 2545090317, "lat": 40.6696402, "lon": -73.8789306}, {"type": "node", "id": 2545090341, "lat": 40.6696425, "lon": -73.8789149}, {"type": "node", "id": 2545090416, "lat": 40.6696663, "lon": -73.879537}, {"type": "node", "id": 2545090421, "lat": 40.6696685, "lon": -73.8795218}, {"type": "node", "id": 2545090427, "lat": 40.6696695, "lon": -73.8789379}, {"type": "node", "id": 2545090442, "lat": 40.6696718, "lon": -73.8789223}, {"type": "node", "id": 2545090552, "lat": 40.6697153, "lon": -73.8795492}, {"type": "node", "id": 2545090557, "lat": 40.6697175, "lon": -73.879534}, {"type": "node", "id": 2545090561, "lat": 40.6697204, "lon": -73.8789506}, {"type": "node", "id": 2545090566, "lat": 40.6697227, "lon": -73.878935}, {"type": "node", "id": 2545090618, "lat": 40.6697453, "lon": -73.8795568}, {"type": "node", "id": 2545090623, "lat": 40.6697475, "lon": -73.8795416}, {"type": "node", "id": 2545090627, "lat": 40.6697504, "lon": -73.8789581}, {"type": "node", "id": 2545090633, "lat": 40.6697526, "lon": -73.8789425}, {"type": "node", "id": 2545090744, "lat": 40.669796, "lon": -73.8795695}, {"type": "node", "id": 2545090750, "lat": 40.6697981, "lon": -73.8795553}, {"type": "node", "id": 2545090761, "lat": 40.6697993, "lon": -73.8789704}, {"type": "node", "id": 2545090780, "lat": 40.6698016, "lon": -73.8789548}, {"type": "node", "id": 2545090854, "lat": 40.6698294, "lon": -73.8789779}, {"type": "node", "id": 2545090866, "lat": 40.6698316, "lon": -73.8789623}, {"type": "node", "id": 2545090891, "lat": 40.6698449, "lon": -73.8795671}, {"type": "node", "id": 2545090912, "lat": 40.6698557, "lon": -73.8794931}, {"type": "node", "id": 2545091015, "lat": 40.66988, "lon": -73.8789906}, {"type": "node", "id": 2545091028, "lat": 40.6698823, "lon": -73.878975}, {"type": "node", "id": 2545091098, "lat": 40.6699168, "lon": -73.8790723}, {"type": "node", "id": 2545091122, "lat": 40.6699269, "lon": -73.8790024}, {"type": "node", "id": 2545091150, "lat": 40.6699376, "lon": -73.8795136}, {"type": "node", "id": 2545091154, "lat": 40.6699404, "lon": -73.8794939}, {"type": "node", "id": 2545091166, "lat": 40.66995, "lon": -73.8794283}, {"type": "node", "id": 2545091168, "lat": 40.6699533, "lon": -73.8794971}, {"type": "node", "id": 2545091170, "lat": 40.6699554, "lon": -73.8793908}, {"type": "node", "id": 2545091182, "lat": 40.6699628, "lon": -73.8794315}, {"type": "node", "id": 2545091186, "lat": 40.6699652, "lon": -73.8793233}, {"type": "node", "id": 2545091190, "lat": 40.6699683, "lon": -73.879394}, {"type": "node", "id": 2545091197, "lat": 40.6699705, "lon": -73.8792865}, {"type": "node", "id": 2545091209, "lat": 40.6699781, "lon": -73.8793266}, {"type": "node", "id": 2545091213, "lat": 40.6699802, "lon": -73.8792197}, {"type": "node", "id": 2545091220, "lat": 40.6699834, "lon": -73.8792898}, {"type": "node", "id": 2545091227, "lat": 40.6699862, "lon": -73.8791784}, {"type": "node", "id": 2545091234, "lat": 40.6699931, "lon": -73.8792229}, {"type": "node", "id": 2545091237, "lat": 40.6699954, "lon": -73.8791156}, {"type": "node", "id": 2545091241, "lat": 40.6699987, "lon": -73.8790928}, {"type": "node", "id": 2545091244, "lat": 40.6699991, "lon": -73.8791816}, {"type": "node", "id": 2545091250, "lat": 40.6700082, "lon": -73.8791188}, {"type": "node", "id": 2545142584, "lat": 40.664227, "lon": -73.8933377}, {"type": "node", "id": 2545142587, "lat": 40.6642387, "lon": -73.8931901}, {"type": "node", "id": 2545142592, "lat": 40.6642482, "lon": -73.8931925}, {"type": "node", "id": 2545142598, "lat": 40.6642573, "lon": -73.8930028}, {"type": "node", "id": 2545142600, "lat": 40.6642651, "lon": -73.8930091}, {"type": "node", "id": 2545142605, "lat": 40.664268, "lon": -73.8935956}, {"type": "node", "id": 2545142606, "lat": 40.6642689, "lon": -73.8935898}, {"type": "node", "id": 2545142607, "lat": 40.6642719, "lon": -73.8935906}, {"type": "node", "id": 2545142615, "lat": 40.6643012, "lon": -73.8933625}, {"type": "node", "id": 2545142616, "lat": 40.664302, "lon": -73.8933565}, {"type": "node", "id": 2545142618, "lat": 40.664305, "lon": -73.8933635}, {"type": "node", "id": 2547630877, "lat": 40.6784593, "lon": -73.9464953}, {"type": "node", "id": 2547630948, "lat": 40.6785149, "lon": -73.9464133}, {"type": "node", "id": 2547630960, "lat": 40.6785179, "lon": -73.9464891}, {"type": "node", "id": 2547631024, "lat": 40.6785669, "lon": -73.9467762}, {"type": "node", "id": 2547631127, "lat": 40.6786764, "lon": -73.9467637}, {"type": "node", "id": 2547631162, "lat": 40.6787637, "lon": -73.9460328}, {"type": "node", "id": 2547631205, "lat": 40.6787823, "lon": -73.9463892}, {"type": "node", "id": 2550150500, "lat": 40.6812351, "lon": -73.9568637, "tags": {"addr:housenumber": "1100", "addr:postcode": "11238", "addr:street": "Fulton Street", "alt_name": "Brooklyn Prospect Clinton Hill Middle School", "amenity": "school", "name": "Clinton Hill Middle School", "operator": "Brooklyn Prospect Charter School", "phone": "+1-718-783-1570", "website": "https://www.brooklynprospect.org/our-schools/clinton-hill-middle/"}}, {"type": "node", "id": 2550153839, "lat": 40.6821005, "lon": -73.9659989}, {"type": "node", "id": 2550153847, "lat": 40.6821174, "lon": -73.9660348}, {"type": "node", "id": 2550153851, "lat": 40.6821214, "lon": -73.9660698}, {"type": "node", "id": 2550153855, "lat": 40.6821255, "lon": -73.9660365}, {"type": "node", "id": 2550153860, "lat": 40.6821287, "lon": -73.9657434}, {"type": "node", "id": 2550153983, "lat": 40.6823687, "lon": -73.9661217}, {"type": "node", "id": 2550153988, "lat": 40.6823768, "lon": -73.9660482}, {"type": "node", "id": 2550154111, "lat": 40.6827133, "lon": -73.9661139}, {"type": "node", "id": 2550154115, "lat": 40.6827236, "lon": -73.9660292}, {"type": "node", "id": 2550154124, "lat": 40.6827427, "lon": -73.9658723}, {"type": "node", "id": 2550154733, "lat": 40.6822782, "lon": -73.9691166}, {"type": "node", "id": 2550154734, "lat": 40.6823052, "lon": -73.9688745}, {"type": "node", "id": 2550154738, "lat": 40.6825692, "lon": -73.9696234}, {"type": "node", "id": 2550154740, "lat": 40.6826184, "lon": -73.9691821}, {"type": "node", "id": 2550154756, "lat": 40.6827915, "lon": -73.9696662}, {"type": "node", "id": 2550154758, "lat": 40.6828303, "lon": -73.9690768}, {"type": "node", "id": 2550154759, "lat": 40.6828414, "lon": -73.9689778}, {"type": "node", "id": 2550154761, "lat": 40.6828567, "lon": -73.9690818}, {"type": "node", "id": 2561254470, "lat": 40.6672871, "lon": -73.9114473}, {"type": "node", "id": 2561254517, "lat": 40.6673238, "lon": -73.9111949}, {"type": "node", "id": 2561255493, "lat": 40.6682369, "lon": -73.911426}, {"type": "node", "id": 2561255806, "lat": 40.6685938, "lon": -73.9122544}, {"type": "node", "id": 2561255848, "lat": 40.6686278, "lon": -73.9120233}, {"type": "node", "id": 2561298659, "lat": 40.6683792, "lon": -73.9054167}, {"type": "node", "id": 2561298668, "lat": 40.6684668, "lon": -73.905439}, {"type": "node", "id": 2561298670, "lat": 40.6684808, "lon": -73.9047053}, {"type": "node", "id": 2561298681, "lat": 40.6685695, "lon": -73.9047279}, {"type": "node", "id": 2561298705, "lat": 40.6686913, "lon": -73.905496}, {"type": "node", "id": 2561298717, "lat": 40.6687835, "lon": -73.9055194}, {"type": "node", "id": 2561298721, "lat": 40.6687967, "lon": -73.9047856}, {"type": "node", "id": 2561298734, "lat": 40.6688853, "lon": -73.9048081}, {"type": "node", "id": 2561308789, "lat": 40.6682441, "lon": -73.8945335}, {"type": "node", "id": 2561308794, "lat": 40.6682608, "lon": -73.8943977}, {"type": "node", "id": 2561308795, "lat": 40.6682669, "lon": -73.894655}, {"type": "node", "id": 2561308809, "lat": 40.668333, "lon": -73.894741}, {"type": "node", "id": 2561308836, "lat": 40.6684448, "lon": -73.8947702}, {"type": "node", "id": 2561308870, "lat": 40.6685339, "lon": -73.8947228}, {"type": "node", "id": 2561308883, "lat": 40.6685856, "lon": -73.894633}, {"type": "node", "id": 2561308891, "lat": 40.6686079, "lon": -73.894493}, {"type": "node", "id": 2561311881, "lat": 40.6674557, "lon": -73.8980207}, {"type": "node", "id": 2561311882, "lat": 40.6674575, "lon": -73.8982764}, {"type": "node", "id": 2561311883, "lat": 40.6674581, "lon": -73.8984803}, {"type": "node", "id": 2561311885, "lat": 40.6674871, "lon": -73.898284}, {"type": "node", "id": 2561311889, "lat": 40.6674925, "lon": -73.8977722}, {"type": "node", "id": 2561311891, "lat": 40.6674939, "lon": -73.8980304}, {"type": "node", "id": 2561311946, "lat": 40.6676278, "lon": -73.8985287}, {"type": "node", "id": 2561311947, "lat": 40.6676285, "lon": -73.8985237}, {"type": "node", "id": 2561312051, "lat": 40.6679404, "lon": -73.8986084}, {"type": "node", "id": 2561312052, "lat": 40.6679415, "lon": -73.8986011}, {"type": "node", "id": 2561312069, "lat": 40.6680187, "lon": -73.8986208}, {"type": "node", "id": 2561312086, "lat": 40.6680916, "lon": -73.8983802}, {"type": "node", "id": 2561312100, "lat": 40.6681564, "lon": -73.8979414}, {"type": "node", "id": 2564699465, "lat": 40.6453961, "lon": -73.8984033}, {"type": "node", "id": 2564699481, "lat": 40.6454443, "lon": -73.8983281}, {"type": "node", "id": 2564699483, "lat": 40.6454501, "lon": -73.8983344}, {"type": "node", "id": 2564699490, "lat": 40.6454619, "lon": -73.898476}, {"type": "node", "id": 2564699491, "lat": 40.6454674, "lon": -73.8984673}, {"type": "node", "id": 2564699531, "lat": 40.6455837, "lon": -73.8986115}, {"type": "node", "id": 2564699532, "lat": 40.6455838, "lon": -73.8983262}, {"type": "node", "id": 2564699534, "lat": 40.6455897, "lon": -73.8986022}, {"type": "node", "id": 2564699545, "lat": 40.6456043, "lon": -73.8982936}, {"type": "node", "id": 2564699564, "lat": 40.6456372, "lon": -73.8983292}, {"type": "node", "id": 2564699575, "lat": 40.645651, "lon": -73.8980205}, {"type": "node", "id": 2564699576, "lat": 40.6456614, "lon": -73.8982906}, {"type": "node", "id": 2564699578, "lat": 40.6456684, "lon": -73.8979779}, {"type": "node", "id": 2564699580, "lat": 40.64567, "lon": -73.8981889}, {"type": "node", "id": 2564699581, "lat": 40.6456742, "lon": -73.8979843}, {"type": "node", "id": 2564699582, "lat": 40.6456762, "lon": -73.8983067}, {"type": "node", "id": 2564699584, "lat": 40.6456777, "lon": -73.8982646}, {"type": "node", "id": 2564699590, "lat": 40.6456886, "lon": -73.8981591}, {"type": "node", "id": 2564699591, "lat": 40.6456926, "lon": -73.8982807}, {"type": "node", "id": 2564699596, "lat": 40.6457029, "lon": -73.8982245}, {"type": "node", "id": 2564699598, "lat": 40.6457077, "lon": -73.8984601}, {"type": "node", "id": 2564699605, "lat": 40.645718, "lon": -73.8979005}, {"type": "node", "id": 2564699637, "lat": 40.6457805, "lon": -73.8979783}, {"type": "node", "id": 2564699640, "lat": 40.6457838, "lon": -73.8979731}, {"type": "node", "id": 2564699651, "lat": 40.6458125, "lon": -73.898293}, {"type": "node", "id": 2564699688, "lat": 40.6458901, "lon": -73.8989495}, {"type": "node", "id": 2564699699, "lat": 40.6459342, "lon": -73.8988806}, {"type": "node", "id": 2564699707, "lat": 40.6459569, "lon": -73.8989057}, {"type": "node", "id": 2564699742, "lat": 40.6461366, "lon": -73.8986251}, {"type": "node", "id": 2564699748, "lat": 40.646164, "lon": -73.8985215}, {"type": "node", "id": 2564699756, "lat": 40.6461868, "lon": -73.8985466}, {"type": "node", "id": 2564699763, "lat": 40.6462091, "lon": -73.8984512}, {"type": "node", "id": 2564819780, "lat": 40.6396173, "lon": -73.8986584}, {"type": "node", "id": 2564819943, "lat": 40.6397596, "lon": -73.8988172}, {"type": "node", "id": 2564820012, "lat": 40.6398129, "lon": -73.898735}, {"type": "node", "id": 2564820164, "lat": 40.6399357, "lon": -73.8985454}, {"type": "node", "id": 2564820253, "lat": 40.6399938, "lon": -73.8990452}, {"type": "node", "id": 2564820301, "lat": 40.6400345, "lon": -73.8989823}, {"type": "node", "id": 2564820435, "lat": 40.6401573, "lon": -73.8987927}, {"type": "node", "id": 2564820633, "lat": 40.6403278, "lon": -73.89794}, {"type": "node", "id": 2564820700, "lat": 40.6404031, "lon": -73.899502}, {"type": "node", "id": 2564820719, "lat": 40.6404261, "lon": -73.8977882}, {"type": "node", "id": 2564820729, "lat": 40.6404296, "lon": -73.897404}, {"type": "node", "id": 2564820763, "lat": 40.6404737, "lon": -73.8992792}, {"type": "node", "id": 2564820809, "lat": 40.6405115, "lon": -73.899221}, {"type": "node", "id": 2564820815, "lat": 40.6405165, "lon": -73.8993269}, {"type": "node", "id": 2564820824, "lat": 40.6405253, "lon": -73.8992365}, {"type": "node", "id": 2564820880, "lat": 40.6405482, "lon": -73.8991643}, {"type": "node", "id": 2564820887, "lat": 40.6405494, "lon": -73.8981873}, {"type": "node", "id": 2564820904, "lat": 40.6405621, "lon": -73.8991798}, {"type": "node", "id": 2564820913, "lat": 40.640572, "lon": -73.8975629}, {"type": "node", "id": 2564820971, "lat": 40.6406471, "lon": -73.8980348}, {"type": "node", "id": 2564821040, "lat": 40.6407133, "lon": -73.8989093}, {"type": "node", "id": 2564821079, "lat": 40.6407389, "lon": -73.8978931}, {"type": "node", "id": 2564821088, "lat": 40.640756, "lon": -73.898957}, {"type": "node", "id": 2564821310, "lat": 40.6409737, "lon": -73.8981552}, {"type": "node", "id": 2564821312, "lat": 40.6409785, "lon": -73.8986135}, {"type": "node", "id": 2564821330, "lat": 40.640994, "lon": -73.8986309}, {"type": "node", "id": 2564821377, "lat": 40.6410396, "lon": -73.8980534}, {"type": "node", "id": 2564821599, "lat": 40.6412302, "lon": -73.8982662}, {"type": "node", "id": 2564863886, "lat": 40.634395, "lon": -73.8978106}, {"type": "node", "id": 2564864049, "lat": 40.6345153, "lon": -73.8979443}, {"type": "node", "id": 2564864063, "lat": 40.6345365, "lon": -73.8979113}, {"type": "node", "id": 2564864079, "lat": 40.6345513, "lon": -73.8978885}, {"type": "node", "id": 2564864154, "lat": 40.6346808, "lon": -73.897608}, {"type": "node", "id": 2564864174, "lat": 40.6347085, "lon": -73.8983023}, {"type": "node", "id": 2564864180, "lat": 40.6347107, "lon": -73.8976412}, {"type": "node", "id": 2564864183, "lat": 40.6347128, "lon": -73.8982205}, {"type": "node", "id": 2564864189, "lat": 40.6347237, "lon": -73.8975415}, {"type": "node", "id": 2564864197, "lat": 40.6347341, "lon": -73.8972846}, {"type": "node", "id": 2564864200, "lat": 40.634741, "lon": -73.8982518}, {"type": "node", "id": 2564864202, "lat": 40.6347436, "lon": -73.8981022}, {"type": "node", "id": 2564864211, "lat": 40.6347554, "lon": -73.8981545}, {"type": "node", "id": 2564864232, "lat": 40.6348023, "lon": -73.8980112}, {"type": "node", "id": 2564864245, "lat": 40.6348288, "lon": -73.8980406}, {"type": "node", "id": 2564864247, "lat": 40.6348328, "lon": -73.8979939}, {"type": "node", "id": 2564864259, "lat": 40.6348481, "lon": -73.8980108}, {"type": "node", "id": 2564864260, "lat": 40.6348524, "lon": -73.8979635}, {"type": "node", "id": 2564864264, "lat": 40.6348677, "lon": -73.8979804}, {"type": "node", "id": 2564864268, "lat": 40.6348806, "lon": -73.8974473}, {"type": "node", "id": 2564864272, "lat": 40.6348875, "lon": -73.8985011}, {"type": "node", "id": 2564864276, "lat": 40.6348939, "lon": -73.8974266}, {"type": "node", "id": 2564864284, "lat": 40.63492, "lon": -73.8984507}, {"type": "node", "id": 2564864293, "lat": 40.6349414, "lon": -73.8978101}, {"type": "node", "id": 2564864295, "lat": 40.6349434, "lon": -73.8975171}, {"type": "node", "id": 2564864301, "lat": 40.6349467, "lon": -73.8984803}, {"type": "node", "id": 2564864303, "lat": 40.6349514, "lon": -73.8977946}, {"type": "node", "id": 2564864305, "lat": 40.6349568, "lon": -73.8974964}, {"type": "node", "id": 2564864311, "lat": 40.6349624, "lon": -73.8978334}, {"type": "node", "id": 2564864356, "lat": 40.6350895, "lon": -73.8976794}, {"type": "node", "id": 2564864363, "lat": 40.6351028, "lon": -73.8976587}, {"type": "node", "id": 2564864376, "lat": 40.6351472, "lon": -73.8981247}, {"type": "node", "id": 2564864379, "lat": 40.6351534, "lon": -73.8977505}, {"type": "node", "id": 2564864385, "lat": 40.635164, "lon": -73.8981433}, {"type": "node", "id": 2564864389, "lat": 40.6351668, "lon": -73.8977298}, {"type": "node", "id": 2564864397, "lat": 40.6351859, "lon": -73.8980647}, {"type": "node", "id": 2564864403, "lat": 40.6351975, "lon": -73.8980775}, {"type": "node", "id": 2564864462, "lat": 40.6353019, "lon": -73.8979155}, {"type": "node", "id": 2564934059, "lat": 40.6849905, "lon": -73.9229968}, {"type": "node", "id": 2564934060, "lat": 40.6850165, "lon": -73.9227793}, {"type": "node", "id": 2564934061, "lat": 40.6850808, "lon": -73.9224064}, {"type": "node", "id": 2564934062, "lat": 40.6850874, "lon": -73.9227939}, {"type": "node", "id": 2564934063, "lat": 40.6851149, "lon": -73.9221218}, {"type": "node", "id": 2564934064, "lat": 40.6851163, "lon": -73.9227343}, {"type": "node", "id": 2564934066, "lat": 40.6851263, "lon": -73.9224492}, {"type": "node", "id": 2564934068, "lat": 40.6851302, "lon": -73.9224166}, {"type": "node", "id": 2564934071, "lat": 40.6851498, "lon": -73.9224541}, {"type": "node", "id": 2564934252, "lat": 40.6855157, "lon": -73.9229215}, {"type": "node", "id": 2564934284, "lat": 40.685527, "lon": -73.9231074}, {"type": "node", "id": 2564934324, "lat": 40.6855467, "lon": -73.9226625}, {"type": "node", "id": 2564934327, "lat": 40.6855484, "lon": -73.9229283}, {"type": "node", "id": 2564934333, "lat": 40.6855524, "lon": -73.9226636}, {"type": "node", "id": 2564934352, "lat": 40.6855601, "lon": -73.922599}, {"type": "node", "id": 2564934382, "lat": 40.6855833, "lon": -73.9225066}, {"type": "node", "id": 2564934395, "lat": 40.6855947, "lon": -73.9225089}, {"type": "node", "id": 2564934439, "lat": 40.6856283, "lon": -73.9222276}, {"type": "node", "id": 2564949101, "lat": 40.690641, "lon": -73.9175633}, {"type": "node", "id": 2564949115, "lat": 40.690685, "lon": -73.9180924}, {"type": "node", "id": 2564949154, "lat": 40.6907744, "lon": -73.9182489}, {"type": "node", "id": 2564949159, "lat": 40.690786, "lon": -73.9174204}, {"type": "node", "id": 2564949162, "lat": 40.6907983, "lon": -73.9174418}, {"type": "node", "id": 2564949188, "lat": 40.6908502, "lon": -73.9179296}, {"type": "node", "id": 2564949235, "lat": 40.6909395, "lon": -73.918086}, {"type": "node", "id": 2564949281, "lat": 40.6910127, "lon": -73.9172305}, {"type": "node", "id": 2564949312, "lat": 40.6910698, "lon": -73.9173305}, {"type": "node", "id": 2564949325, "lat": 40.6910927, "lon": -73.917308}, {"type": "node", "id": 2564949456, "lat": 40.691213, "lon": -73.9175879}, {"type": "node", "id": 2564949473, "lat": 40.6912383, "lon": -73.917563}, {"type": "node", "id": 2564949486, "lat": 40.6912683, "lon": -73.9178221}, {"type": "node", "id": 2564949488, "lat": 40.6912733, "lon": -73.9178309}, {"type": "node", "id": 2564949517, "lat": 40.6913185, "lon": -73.9177726}, {"type": "node", "id": 2564965696, "lat": 40.6861713, "lon": -73.9102777}, {"type": "node", "id": 2564965704, "lat": 40.6861884, "lon": -73.9103077}, {"type": "node", "id": 2564965716, "lat": 40.6862136, "lon": -73.9101991}, {"type": "node", "id": 2564965774, "lat": 40.6862272, "lon": -73.9102229}, {"type": "node", "id": 2564965789, "lat": 40.6862427, "lon": -73.9102544}, {"type": "node", "id": 2564965901, "lat": 40.6863817, "lon": -73.9104989}, {"type": "node", "id": 2564965940, "lat": 40.6864504, "lon": -73.9107686}, {"type": "node", "id": 2564965950, "lat": 40.686468, "lon": -73.9107995}, {"type": "node", "id": 2564965967, "lat": 40.6865048, "lon": -73.9107153}, {"type": "node", "id": 2564965978, "lat": 40.6865259, "lon": -73.9107427}, {"type": "node", "id": 2564965993, "lat": 40.6865396, "lon": -73.9107667}, {"type": "node", "id": 2564966231, "lat": 40.6868141, "lon": -73.9096099}, {"type": "node", "id": 2564966482, "lat": 40.687138, "lon": -73.9101795}, {"type": "node", "id": 2565141933, "lat": 40.6823401, "lon": -73.959558}, {"type": "node", "id": 2565141958, "lat": 40.6823699, "lon": -73.9592957}, {"type": "node", "id": 2565141973, "lat": 40.6823798, "lon": -73.9592084}, {"type": "node", "id": 2565142036, "lat": 40.6825415, "lon": -73.9574216}, {"type": "node", "id": 2565142039, "lat": 40.6825509, "lon": -73.9595993}, {"type": "node", "id": 2565142041, "lat": 40.6825538, "lon": -73.9595735}, {"type": "node", "id": 2565142052, "lat": 40.6825685, "lon": -73.9594439}, {"type": "node", "id": 2565142061, "lat": 40.6825752, "lon": -73.9570468}, {"type": "node", "id": 2565142065, "lat": 40.6825874, "lon": -73.9570358}, {"type": "node", "id": 2565142067, "lat": 40.6825906, "lon": -73.9592497}, {"type": "node", "id": 2565142105, "lat": 40.6826288, "lon": -73.9570443}, {"type": "node", "id": 2565142107, "lat": 40.6826296, "lon": -73.9570373}, {"type": "node", "id": 2565142263, "lat": 40.6827962, "lon": -73.9574738}, {"type": "node", "id": 2565142266, "lat": 40.6828047, "lon": -73.9574023}, {"type": "node", "id": 2565142277, "lat": 40.6828222, "lon": -73.9572548}, {"type": "node", "id": 2565142298, "lat": 40.6828428, "lon": -73.957081}, {"type": "node", "id": 2566250171, "lat": 40.6376102, "lon": -73.9373831}, {"type": "node", "id": 2566250174, "lat": 40.6376141, "lon": -73.9373027}, {"type": "node", "id": 2566250176, "lat": 40.6376168, "lon": -73.9372604}, {"type": "node", "id": 2566250181, "lat": 40.6376274, "lon": -73.9373041}, {"type": "node", "id": 2566250182, "lat": 40.6376299, "lon": -73.9372617}, {"type": "node", "id": 2566301963, "lat": 40.6410663, "lon": -73.9483831}, {"type": "node", "id": 2566301964, "lat": 40.6410901, "lon": -73.9480243}, {"type": "node", "id": 2566302087, "lat": 40.6413114, "lon": -73.9484114}, {"type": "node", "id": 2566302092, "lat": 40.6413165, "lon": -73.9483351}, {"type": "node", "id": 2566302113, "lat": 40.6413353, "lon": -73.9480527}, {"type": "node", "id": 2566343232, "lat": 40.6411545, "lon": -73.9345681}, {"type": "node", "id": 2566343547, "lat": 40.6414005, "lon": -73.9345898}, {"type": "node", "id": 2566343588, "lat": 40.6414644, "lon": -73.9345955}, {"type": "node", "id": 2566404897, "lat": 40.6525868, "lon": -73.9540381, "tags": {"amenity": "school", "name": "Flatbush Ascend Lower School", "operator": "Ascend Public Charter Schools", "phone": "+1-347-464-7600", "website": "https://ascendlearning.org/lower-schools/flatbush-ascend-lower"}}, {"type": "node", "id": 2566471398, "lat": 40.6513955, "lon": -73.9355955}, {"type": "node", "id": 2566566631, "lat": 40.6589941, "lon": -73.9441049}, {"type": "node", "id": 2566566641, "lat": 40.659018, "lon": -73.9437081}, {"type": "node", "id": 2566570028, "lat": 40.6586097, "lon": -73.9465892}, {"type": "node", "id": 2566570036, "lat": 40.6586321, "lon": -73.946214}, {"type": "node", "id": 2566570038, "lat": 40.6586394, "lon": -73.9462148}, {"type": "node", "id": 2566570039, "lat": 40.6586439, "lon": -73.9461393}, {"type": "node", "id": 2566570081, "lat": 40.6586733, "lon": -73.9466354}, {"type": "node", "id": 2566570082, "lat": 40.6586756, "lon": -73.9465961}, {"type": "node", "id": 2566570101, "lat": 40.6587417, "lon": -73.9466425}, {"type": "node", "id": 2566570103, "lat": 40.658744, "lon": -73.9466032}, {"type": "node", "id": 2566570118, "lat": 40.6588272, "lon": -73.9466119}, {"type": "node", "id": 2566570121, "lat": 40.6588429, "lon": -73.946236}, {"type": "node", "id": 2566570123, "lat": 40.6588474, "lon": -73.9461604}, {"type": "node", "id": 2566570124, "lat": 40.6588497, "lon": -73.9462367}, {"type": "node", "id": 2566702249, "lat": 40.657485, "lon": -73.9249547}, {"type": "node", "id": 2566702325, "lat": 40.6576769, "lon": -73.9246454}, {"type": "node", "id": 2566702334, "lat": 40.6576901, "lon": -73.9251841}, {"type": "node", "id": 2566702368, "lat": 40.6577681, "lon": -73.924748}, {"type": "node", "id": 2566702377, "lat": 40.6578024, "lon": -73.9247861}, {"type": "node", "id": 2566702397, "lat": 40.6578644, "lon": -73.9249154}, {"type": "node", "id": 2566702404, "lat": 40.6578852, "lon": -73.9248794}, {"type": "node", "id": 2566737329, "lat": 40.6628241, "lon": -73.9273791}, {"type": "node", "id": 2566737414, "lat": 40.6633231, "lon": -73.9279151}, {"type": "node", "id": 2566737416, "lat": 40.6633291, "lon": -73.9278382}, {"type": "node", "id": 2566737420, "lat": 40.6633525, "lon": -73.9278021}, {"type": "node", "id": 2566737421, "lat": 40.6633545, "lon": -73.9278666}, {"type": "node", "id": 2566737427, "lat": 40.663388, "lon": -73.9278417}, {"type": "node", "id": 2566737430, "lat": 40.6634192, "lon": -73.9277935}, {"type": "node", "id": 2566737559, "lat": 40.6641307, "lon": -73.9285869}, {"type": "node", "id": 2566881533, "lat": 40.6605067, "lon": -73.9073099}, {"type": "node", "id": 2566881566, "lat": 40.6606147, "lon": -73.9066067}, {"type": "node", "id": 2566898382, "lat": 40.6653943, "lon": -73.8979581}, {"type": "node", "id": 2566898432, "lat": 40.6654977, "lon": -73.8972528}, {"type": "node", "id": 2566898461, "lat": 40.6656367, "lon": -73.8980193}, {"type": "node", "id": 2566916977, "lat": 40.6603169, "lon": -73.8903145, "tags": {"addr:city": "Brooklyn", "addr:housenumber": "580", "addr:postcode": "11207", "addr:state": "NY", "addr:street": "Hegeman Avenue", "alt_name": "New Lots", "amenity": "school", "fax": "+1-718-272-3446", "grades": "PK;0-5;SE", "name": "Public School 213", "operator": "New York City Department of Education", "operator:short": "NYC Public Schools", "operator:type": "public", "operator:wikidata": "Q408230", "phone": "+1-718-257-4034", "ref": "K213", "short_name": "P.S. 213", "website": "https://www.schools.nyc.gov/schools/K213", "wheelchair": "no"}}, {"type": "node", "id": 2566917113, "lat": 40.6592206, "lon": -73.8898961}, {"type": "node", "id": 2566917161, "lat": 40.6593743, "lon": -73.8900105}, {"type": "node", "id": 2566917211, "lat": 40.6594666, "lon": -73.8893218}, {"type": "node", "id": 2566917268, "lat": 40.6596204, "lon": -73.8894363}, {"type": "node", "id": 2566917278, "lat": 40.6596297, "lon": -73.8901905}, {"type": "node", "id": 2566917337, "lat": 40.659717, "lon": -73.8899861}, {"type": "node", "id": 2566917520, "lat": 40.6600089, "lon": -73.8900486}, {"type": "node", "id": 2566917556, "lat": 40.6600649, "lon": -73.8905135}, {"type": "node", "id": 2566917560, "lat": 40.6600673, "lon": -73.8905079}, {"type": "node", "id": 2566917595, "lat": 40.6601143, "lon": -73.8898004}, {"type": "node", "id": 2566917617, "lat": 40.6601316, "lon": -73.8905643}, {"type": "node", "id": 2566917620, "lat": 40.6601344, "lon": -73.8905577}, {"type": "node", "id": 2566917623, "lat": 40.6601394, "lon": -73.8901448}, {"type": "node", "id": 2566917639, "lat": 40.6601542, "lon": -73.8903172}, {"type": "node", "id": 2566917640, "lat": 40.6601564, "lon": -73.8903121}, {"type": "node", "id": 2566917641, "lat": 40.6601642, "lon": -73.8900862}, {"type": "node", "id": 2566917644, "lat": 40.6601767, "lon": -73.8902971}, {"type": "node", "id": 2566917657, "lat": 40.6602022, "lon": -73.8903526}, {"type": "node", "id": 2566917666, "lat": 40.6602085, "lon": -73.8906215}, {"type": "node", "id": 2566917672, "lat": 40.660214, "lon": -73.8903247}, {"type": "node", "id": 2566917693, "lat": 40.66023, "lon": -73.8901716}, {"type": "node", "id": 2566917697, "lat": 40.6602434, "lon": -73.8905292}, {"type": "node", "id": 2566917701, "lat": 40.6602469, "lon": -73.8905318}, {"type": "node", "id": 2566917715, "lat": 40.6602698, "lon": -73.890201}, {"type": "node", "id": 2566917723, "lat": 40.6602817, "lon": -73.8901729}, {"type": "node", "id": 2566917785, "lat": 40.6603785, "lon": -73.8899954}, {"type": "node", "id": 2566917794, "lat": 40.6603816, "lon": -73.889988}, {"type": "node", "id": 2566917811, "lat": 40.6604134, "lon": -73.8901313}, {"type": "node", "id": 2566917817, "lat": 40.6604192, "lon": -73.8901356}, {"type": "node", "id": 2566917853, "lat": 40.660458, "lon": -73.8900446}, {"type": "node", "id": 2566926201, "lat": 40.6602487, "lon": -73.8874451}, {"type": "node", "id": 2566926208, "lat": 40.6602857, "lon": -73.8873064}, {"type": "node", "id": 2566926210, "lat": 40.6603029, "lon": -73.8873193}, {"type": "node", "id": 2566926230, "lat": 40.660435, "lon": -73.8875847}, {"type": "node", "id": 2566926235, "lat": 40.6604584, "lon": -73.8869061}, {"type": "node", "id": 2566926249, "lat": 40.6605403, "lon": -73.8869675}, {"type": "node", "id": 2566926250, "lat": 40.6605466, "lon": -73.8869529}, {"type": "node", "id": 2566926262, "lat": 40.6605878, "lon": -73.8869838}, {"type": "node", "id": 2566926283, "lat": 40.6606619, "lon": -73.8870584}, {"type": "node", "id": 2567035049, "lat": 40.6674075, "lon": -73.9448263}, {"type": "node", "id": 2567035143, "lat": 40.6660581, "lon": -73.9448036}, {"type": "node", "id": 2567035147, "lat": 40.6660653, "lon": -73.9449379}, {"type": "node", "id": 2567035151, "lat": 40.6660702, "lon": -73.9450293}, {"type": "node", "id": 2567035160, "lat": 40.6660772, "lon": -73.945161}, {"type": "node", "id": 2567035180, "lat": 40.6661287, "lon": -73.9447971}, {"type": "node", "id": 2567035182, "lat": 40.6661299, "lon": -73.9448196}, {"type": "node", "id": 2567035208, "lat": 40.6661457, "lon": -73.9449305}, {"type": "node", "id": 2567035214, "lat": 40.6661506, "lon": -73.9450219}, {"type": "node", "id": 2567035267, "lat": 40.6662157, "lon": -73.9449268}, {"type": "node", "id": 2567035275, "lat": 40.6662205, "lon": -73.9450215}, {"type": "node", "id": 2567035362, "lat": 40.6662919, "lon": -73.9449201}, {"type": "node", "id": 2567035366, "lat": 40.6662967, "lon": -73.9450148}, {"type": "node", "id": 2567035387, "lat": 40.6663338, "lon": -73.9448008}, {"type": "node", "id": 2567035410, "lat": 40.6663756, "lon": -73.9447969}, {"type": "node", "id": 2567035417, "lat": 40.6663847, "lon": -73.9449678}, {"type": "node", "id": 2567035421, "lat": 40.6663906, "lon": -73.9449673}, {"type": "node", "id": 2567035427, "lat": 40.6663993, "lon": -73.9451314}, {"type": "node", "id": 2567036102, "lat": 40.6672677, "lon": -73.9447174}, {"type": "node", "id": 2567036103, "lat": 40.6672712, "lon": -73.9447857}, {"type": "node", "id": 2567036106, "lat": 40.6672777, "lon": -73.9449099}, {"type": "node", "id": 2567036113, "lat": 40.667283, "lon": -73.945013}, {"type": "node", "id": 2567036169, "lat": 40.6673786, "lon": -73.9447761}, {"type": "node", "id": 2567036171, "lat": 40.6673813, "lon": -73.9448286}, {"type": "node", "id": 2567036174, "lat": 40.6673988, "lon": -73.944899}, {"type": "node", "id": 2567036175, "lat": 40.6674004, "lon": -73.9449298}, {"type": "node", "id": 2567036176, "lat": 40.6674003, "lon": -73.9446889}, {"type": "node", "id": 2567036177, "lat": 40.6674012, "lon": -73.9447054}, {"type": "node", "id": 2567036182, "lat": 40.6674165, "lon": -73.945001}, {"type": "node", "id": 2567036185, "lat": 40.6674187, "lon": -73.9450438}, {"type": "node", "id": 2567036187, "lat": 40.6674128, "lon": -73.9449287}, {"type": "node", "id": 2567036224, "lat": 40.667529, "lon": -73.9446774}, {"type": "node", "id": 2567084176, "lat": 40.6646489, "lon": -73.9596161, "tags": {"amenity": "school", "fax": "+1-718-701-8328", "name": "Exceed Upper School", "official_name": "Explore Exceed Upper School", "phone": "+1-347-689-0200", "website": "https://exploreschools.org/exceed-upper/"}}, {"type": "node", "id": 2567092588, "lat": 40.6684335, "lon": -73.9589106}, {"type": "node", "id": 2567092615, "lat": 40.6685045, "lon": -73.9592538}, {"type": "node", "id": 2567092629, "lat": 40.6685332, "lon": -73.9590016}, {"type": "node", "id": 2567092633, "lat": 40.6685411, "lon": -73.9589853}, {"type": "node", "id": 2567092635, "lat": 40.6685475, "lon": -73.9590721}, {"type": "node", "id": 2567092639, "lat": 40.6685609, "lon": -73.9590838}, {"type": "node", "id": 2567092644, "lat": 40.6685754, "lon": -73.9591935}, {"type": "node", "id": 2567092645, "lat": 40.668578, "lon": -73.9590634}, {"type": "node", "id": 2567092646, "lat": 40.6685807, "lon": -73.9590768}, {"type": "node", "id": 2567092647, "lat": 40.6685822, "lon": -73.9592261}, {"type": "node", "id": 2567092648, "lat": 40.6685855, "lon": -73.9591768}, {"type": "node", "id": 2567092671, "lat": 40.6687627, "lon": -73.9589985}, {"type": "node", "id": 2567092672, "lat": 40.6687649, "lon": -73.9590097}, {"type": "node", "id": 2567092676, "lat": 40.6687664, "lon": -73.9589061}, {"type": "node", "id": 2567092690, "lat": 40.6687823, "lon": -73.9589842}, {"type": "node", "id": 2567092692, "lat": 40.6687836, "lon": -73.9590031}, {"type": "node", "id": 2567092698, "lat": 40.6687912, "lon": -73.9591033}, {"type": "node", "id": 2567092700, "lat": 40.6687926, "lon": -73.9591099}, {"type": "node", "id": 2567092718, "lat": 40.6688131, "lon": -73.9591026}, {"type": "node", "id": 2567092723, "lat": 40.6688212, "lon": -73.9591197}, {"type": "node", "id": 2567092725, "lat": 40.6688257, "lon": -73.9591415}, {"type": "node", "id": 2567092727, "lat": 40.6688308, "lon": -73.9587687}, {"type": "node", "id": 2567092733, "lat": 40.6689009, "lon": -73.9591147}, {"type": "node", "id": 2567092735, "lat": 40.6689023, "lon": -73.9591142}, {"type": "node", "id": 2567104418, "lat": 40.6687046, "lon": -73.961057}, {"type": "node", "id": 2567104422, "lat": 40.668769, "lon": -73.9610337}, {"type": "node", "id": 2567104423, "lat": 40.6687704, "lon": -73.9610403}, {"type": "node", "id": 2567104427, "lat": 40.6688617, "lon": -73.9618051}, {"type": "node", "id": 2567104428, "lat": 40.6688882, "lon": -73.9618484}, {"type": "node", "id": 2567104430, "lat": 40.6689035, "lon": -73.9612108}, {"type": "node", "id": 2567104436, "lat": 40.668979, "lon": -73.9615629}, {"type": "node", "id": 2567104444, "lat": 40.6691218, "lon": -73.9611301}, {"type": "node", "id": 2567104447, "lat": 40.6691689, "lon": -73.9608891}, {"type": "node", "id": 2567104448, "lat": 40.6691703, "lon": -73.9608955}, {"type": "node", "id": 2567104449, "lat": 40.6692256, "lon": -73.9616145}, {"type": "node", "id": 2567104450, "lat": 40.6692332, "lon": -73.9608658}, {"type": "node", "id": 2567104451, "lat": 40.6692466, "lon": -73.9619209}, {"type": "node", "id": 2567104452, "lat": 40.6692517, "lon": -73.9618863}, {"type": "node", "id": 2567104453, "lat": 40.6692778, "lon": -73.9618768}, {"type": "node", "id": 2567104454, "lat": 40.6692837, "lon": -73.9619048}, {"type": "node", "id": 2567104455, "lat": 40.669306, "lon": -73.9618967}, {"type": "node", "id": 2567104456, "lat": 40.6693091, "lon": -73.9619115}, {"type": "node", "id": 2567104457, "lat": 40.669399, "lon": -73.9616555}, {"type": "node", "id": 2567104458, "lat": 40.669411, "lon": -73.9616512}, {"type": "node", "id": 2567104459, "lat": 40.6694175, "lon": -73.9618563}, {"type": "node", "id": 2567104460, "lat": 40.6694207, "lon": -73.9618712}, {"type": "node", "id": 2567104461, "lat": 40.6694336, "lon": -73.961822}, {"type": "node", "id": 2567104462, "lat": 40.6694392, "lon": -73.9618485}, {"type": "node", "id": 2567104463, "lat": 40.6694444, "lon": -73.9618106}, {"type": "node", "id": 2567104464, "lat": 40.6694459, "lon": -73.9618176}, {"type": "node", "id": 2567121614, "lat": 40.6626644, "lon": -73.9610762, "tags": {"addr:housenumber": "1100", "addr:postcode": "11225", "addr:street": "Washington Avenue", "amenity": "school", "name": "Workshop Middle School", "phone": "+1-917-444-1750", "website": "https://workshopmiddleschool.org"}}, {"type": "node", "id": 2567909644, "lat": 40.6881183, "lon": -73.9349844}, {"type": "node", "id": 2567909649, "lat": 40.6881428, "lon": -73.9347647}, {"type": "node", "id": 2567909846, "lat": 40.6886484, "lon": -73.9350908}, {"type": "node", "id": 2567909859, "lat": 40.6886733, "lon": -73.9348676}, {"type": "node", "id": 2567939390, "lat": 40.6725586, "lon": -73.9531654}, {"type": "node", "id": 2567939970, "lat": 40.6724428, "lon": -73.953575}, {"type": "node", "id": 2567939993, "lat": 40.6722439, "lon": -73.9531948}, {"type": "node", "id": 2567939998, "lat": 40.672442, "lon": -73.9535613}, {"type": "node", "id": 2567939999, "lat": 40.6722652, "lon": -73.9535916}, {"type": "node", "id": 2567940021, "lat": 40.6725792, "lon": -73.9535485}, {"type": "node", "id": 2567948098, "lat": 40.6900892, "lon": -73.9503341}, {"type": "node", "id": 2567948385, "lat": 40.6906328, "lon": -73.9504427}, {"type": "node", "id": 2567965248, "lat": 40.6926255, "lon": -73.934878}, {"type": "node", "id": 2567965346, "lat": 40.6927054, "lon": -73.9341515}, {"type": "node", "id": 2567990405, "lat": 40.6941037, "lon": -73.9480363}, {"type": "node", "id": 2567990406, "lat": 40.6941157, "lon": -73.9481875}, {"type": "node", "id": 2567990435, "lat": 40.694162, "lon": -73.9475496}, {"type": "node", "id": 2567990507, "lat": 40.6942978, "lon": -73.948224}, {"type": "node", "id": 2567990571, "lat": 40.6944401, "lon": -73.9482714}, {"type": "node", "id": 2567990628, "lat": 40.6946018, "lon": -73.9483039}, {"type": "node", "id": 2568023429, "lat": 40.6738199, "lon": -73.9420017}, {"type": "node", "id": 2568023435, "lat": 40.673846, "lon": -73.9419992}, {"type": "node", "id": 2568023436, "lat": 40.6738468, "lon": -73.9420131}, {"type": "node", "id": 2568023437, "lat": 40.6738552, "lon": -73.942633}, {"type": "node", "id": 2568023440, "lat": 40.6738813, "lon": -73.9426104}, {"type": "node", "id": 2568023441, "lat": 40.6738825, "lon": -73.9426304}, {"type": "node", "id": 2568023442, "lat": 40.6738911, "lon": -73.9426095}, {"type": "node", "id": 2568023443, "lat": 40.6738917, "lon": -73.9426204}, {"type": "node", "id": 2568023444, "lat": 40.6739218, "lon": -73.9419432}, {"type": "node", "id": 2568023445, "lat": 40.6739253, "lon": -73.9420055}, {"type": "node", "id": 2568023446, "lat": 40.6739579, "lon": -73.942614}, {"type": "node", "id": 2568023447, "lat": 40.6739607, "lon": -73.9421746}, {"type": "node", "id": 2568023448, "lat": 40.6739607, "lon": -73.9426647}, {"type": "node", "id": 2568023449, "lat": 40.6739702, "lon": -73.9419386}, {"type": "node", "id": 2568023450, "lat": 40.6739716, "lon": -73.941964}, {"type": "node", "id": 2568023451, "lat": 40.6739778, "lon": -73.94248}, {"type": "node", "id": 2568023452, "lat": 40.6740052, "lon": -73.9425404}, {"type": "node", "id": 2568023453, "lat": 40.6740119, "lon": -73.9426597}, {"type": "node", "id": 2568023454, "lat": 40.6740336, "lon": -73.9425376}, {"type": "node", "id": 2568023455, "lat": 40.6740495, "lon": -73.9428221}, {"type": "node", "id": 2568023461, "lat": 40.6740602, "lon": -73.942165}, {"type": "node", "id": 2568023462, "lat": 40.6740773, "lon": -73.9424704}, {"type": "node", "id": 2568023465, "lat": 40.674091, "lon": -73.9428181}, {"type": "node", "id": 2568023466, "lat": 40.6740958, "lon": -73.9429037}, {"type": "node", "id": 2568023467, "lat": 40.674128, "lon": -73.9419196}, {"type": "node", "id": 2568023469, "lat": 40.6741297, "lon": -73.9419488}, {"type": "node", "id": 2568023472, "lat": 40.6741889, "lon": -73.9421526}, {"type": "node", "id": 2568023474, "lat": 40.6742073, "lon": -73.9424818}, {"type": "node", "id": 2568023479, "lat": 40.6742412, "lon": -73.9424785}, {"type": "node", "id": 2568023480, "lat": 40.6742434, "lon": -73.9425171}, {"type": "node", "id": 2568023483, "lat": 40.6744454, "lon": -73.9421278}, {"type": "node", "id": 2568023484, "lat": 40.674466, "lon": -73.9424956}, {"type": "node", "id": 2568023485, "lat": 40.6745303, "lon": -73.9418807}, {"type": "node", "id": 2568023486, "lat": 40.6745318, "lon": -73.9419087}, {"type": "node", "id": 2568023493, "lat": 40.6746069, "lon": -73.9420045}, {"type": "node", "id": 2568023494, "lat": 40.6746118, "lon": -73.941901}, {"type": "node", "id": 2568023497, "lat": 40.6746175, "lon": -73.9420035}, {"type": "node", "id": 2568023500, "lat": 40.6746303, "lon": -73.9424224}, {"type": "node", "id": 2568023502, "lat": 40.6746339, "lon": -73.9424876}, {"type": "node", "id": 2568023504, "lat": 40.6746435, "lon": -73.9424211}, {"type": "node", "id": 2568023505, "lat": 40.6746471, "lon": -73.9424863}, {"type": "node", "id": 2568023507, "lat": 40.6746542, "lon": -73.9428498}, {"type": "node", "id": 2568036779, "lat": 40.6773619, "lon": -73.9421022, "tags": {"addr:housenumber": "1485", "addr:postcode": "11216", "addr:street": "Pacific Street", "amenity": "school", "name": "Uncommon Charter High School"}}, {"type": "node", "id": 2568056290, "lat": 40.6988031, "lon": -73.9463203}, {"type": "node", "id": 2568056303, "lat": 40.6988798, "lon": -73.9463346}, {"type": "node", "id": 2568056304, "lat": 40.6989137, "lon": -73.9454242}, {"type": "node", "id": 2568056305, "lat": 40.6989275, "lon": -73.9453093}, {"type": "node", "id": 2568056311, "lat": 40.6989596, "lon": -73.9450052}, {"type": "node", "id": 2568056314, "lat": 40.6989694, "lon": -73.9463532}, {"type": "node", "id": 2568056316, "lat": 40.6989735, "lon": -73.9448892}, {"type": "node", "id": 2568056321, "lat": 40.6990361, "lon": -73.9463656}, {"type": "node", "id": 2568056322, "lat": 40.6990365, "lon": -73.9449023}, {"type": "node", "id": 2568056344, "lat": 40.6991591, "lon": -73.9449276}, {"type": "node", "id": 2568056371, "lat": 40.6993285, "lon": -73.9449627}, {"type": "node", "id": 2568056392, "lat": 40.6994562, "lon": -73.9449891}, {"type": "node", "id": 2568056405, "lat": 40.699517, "lon": -73.9450017}, {"type": "node", "id": 2568062897, "lat": 40.6693649, "lon": -73.9346935}, {"type": "node", "id": 2568062917, "lat": 40.6694353, "lon": -73.9346872}, {"type": "node", "id": 2568062945, "lat": 40.6694541, "lon": -73.9346855}, {"type": "node", "id": 2568063043, "lat": 40.6695083, "lon": -73.9346805}, {"type": "node", "id": 2568063259, "lat": 40.6696237, "lon": -73.9346701}, {"type": "node", "id": 2568134897, "lat": 40.6882566, "lon": -73.9600353, "tags": {"addr:housenumber": "358", "addr:postcode": "11238", "addr:street": "Classon Avenue", "amenity": "school", "name": "The Winchendon School", "phone": "+1-347-763-8520", "website": "https://winchendon.org"}}, {"type": "node", "id": 2568143624, "lat": 40.6923093, "lon": -73.9527896}, {"type": "node", "id": 2568143634, "lat": 40.6923248, "lon": -73.9526542}, {"type": "node", "id": 2568143636, "lat": 40.6923327, "lon": -73.9525846}, {"type": "node", "id": 2568143643, "lat": 40.6923545, "lon": -73.9523937}, {"type": "node", "id": 2568226996, "lat": 40.671693, "lon": -73.9236806}, {"type": "node", "id": 2568227055, "lat": 40.6717512, "lon": -73.9247564}, {"type": "node", "id": 2568227201, "lat": 40.6718566, "lon": -73.9236652}, {"type": "node", "id": 2568227206, "lat": 40.671862, "lon": -73.9237649}, {"type": "node", "id": 2568227210, "lat": 40.6718662, "lon": -73.9238435}, {"type": "node", "id": 2568227214, "lat": 40.6718723, "lon": -73.9237639}, {"type": "node", "id": 2568227218, "lat": 40.6718766, "lon": -73.9238426}, {"type": "node", "id": 2568227232, "lat": 40.6719147, "lon": -73.924741}, {"type": "node", "id": 2568366760, "lat": 40.6792407, "lon": -73.93047}, {"type": "node", "id": 2568366766, "lat": 40.6792723, "lon": -73.9310534}, {"type": "node", "id": 2568366772, "lat": 40.6792988, "lon": -73.93153}, {"type": "node", "id": 2568366774, "lat": 40.679328, "lon": -73.9320675}, {"type": "node", "id": 2568366778, "lat": 40.679354, "lon": -73.9327829}, {"type": "node", "id": 2568401830, "lat": 40.680054, "lon": -73.9269379}, {"type": "node", "id": 2568401832, "lat": 40.6801226, "lon": -73.9263422}, {"type": "node", "id": 2568401834, "lat": 40.680124, "lon": -73.9269836}, {"type": "node", "id": 2568401836, "lat": 40.6801276, "lon": -73.9269525}, {"type": "node", "id": 2568401838, "lat": 40.6801528, "lon": -73.9269893}, {"type": "node", "id": 2568401840, "lat": 40.680158, "lon": -73.9269445}, {"type": "node", "id": 2568401842, "lat": 40.6801785, "lon": -73.9259836}, {"type": "node", "id": 2568401848, "lat": 40.6801981, "lon": -73.9263688}, {"type": "node", "id": 2568401850, "lat": 40.6801994, "lon": -73.9263575}, {"type": "node", "id": 2568401852, "lat": 40.6802026, "lon": -73.925774}, {"type": "node", "id": 2568401854, "lat": 40.6802319, "lon": -73.9269592}, {"type": "node", "id": 2568401856, "lat": 40.6802332, "lon": -73.9262506}, {"type": "node", "id": 2568401862, "lat": 40.6802621, "lon": -73.9260002}, {"type": "node", "id": 2568401864, "lat": 40.680293, "lon": -73.9264286}, {"type": "node", "id": 2568401866, "lat": 40.680295, "lon": -73.9263881}, {"type": "node", "id": 2568401868, "lat": 40.6803091, "lon": -73.9262657}, {"type": "node", "id": 2568401870, "lat": 40.6803212, "lon": -73.9263933}, {"type": "node", "id": 2568401872, "lat": 40.6803353, "lon": -73.9262709}, {"type": "node", "id": 2568401874, "lat": 40.6804065, "lon": -73.9269196}, {"type": "node", "id": 2568401876, "lat": 40.6804592, "lon": -73.9264617}, {"type": "node", "id": 2568401878, "lat": 40.6804635, "lon": -73.9264216}, {"type": "node", "id": 2568401880, "lat": 40.6804714, "lon": -73.9258274}, {"type": "node", "id": 2568401882, "lat": 40.6804776, "lon": -73.9262992}, {"type": "node", "id": 2568401884, "lat": 40.6804801, "lon": -73.9257518}, {"type": "node", "id": 2568401886, "lat": 40.6805655, "lon": -73.9269512}, {"type": "node", "id": 2568401888, "lat": 40.6806645, "lon": -73.9260617}, {"type": "node", "id": 2568401890, "lat": 40.6806679, "lon": -73.9260624}, {"type": "node", "id": 2568401892, "lat": 40.6806953, "lon": -73.9257946}, {"type": "node", "id": 2568490561, "lat": 40.6798698, "lon": -73.9219263}, {"type": "node", "id": 2568490574, "lat": 40.6798966, "lon": -73.9216886}, {"type": "node", "id": 2568490580, "lat": 40.6799599, "lon": -73.9211281}, {"type": "node", "id": 2568490581, "lat": 40.6799859, "lon": -73.9208977}, {"type": "node", "id": 2568490621, "lat": 40.6804181, "lon": -73.9220357}, {"type": "node", "id": 2568490626, "lat": 40.680445, "lon": -73.9217979}, {"type": "node", "id": 2568490640, "lat": 40.6805081, "lon": -73.9212374}, {"type": "node", "id": 2568490642, "lat": 40.6805318, "lon": -73.9210272}, {"type": "node", "id": 2568597889, "lat": 40.677751, "lon": -73.9082147}, {"type": "node", "id": 2568617364, "lat": 40.6803747, "lon": -73.9109814}, {"type": "node", "id": 2568617366, "lat": 40.6803845, "lon": -73.9108942}, {"type": "node", "id": 2568617373, "lat": 40.6803912, "lon": -73.9108349}, {"type": "node", "id": 2568617384, "lat": 40.680405, "lon": -73.9107134}, {"type": "node", "id": 2568617387, "lat": 40.680413, "lon": -73.9106425}, {"type": "node", "id": 2568617390, "lat": 40.6804229, "lon": -73.9105544}, {"type": "node", "id": 2568617391, "lat": 40.6804264, "lon": -73.9105233}, {"type": "node", "id": 2568617395, "lat": 40.6804362, "lon": -73.9104371}, {"type": "node", "id": 2568617398, "lat": 40.6804504, "lon": -73.9103117}, {"type": "node", "id": 2568617402, "lat": 40.6804603, "lon": -73.910224}, {"type": "node", "id": 2568617503, "lat": 40.6809372, "lon": -73.9110057}, {"type": "node", "id": 2568617512, "lat": 40.6809622, "lon": -73.910784}, {"type": "node", "id": 2568698068, "lat": 40.7009707, "lon": -73.9126662}, {"type": "node", "id": 2568698096, "lat": 40.7010077, "lon": -73.9127286}, {"type": "node", "id": 2568698113, "lat": 40.7010242, "lon": -73.9127117}, {"type": "node", "id": 2568698142, "lat": 40.7010497, "lon": -73.9127997}, {"type": "node", "id": 2568698157, "lat": 40.7010662, "lon": -73.9127828}, {"type": "node", "id": 2568698171, "lat": 40.7010864, "lon": -73.9128616}, {"type": "node", "id": 2568698176, "lat": 40.7010906, "lon": -73.9126738}, {"type": "node", "id": 2568698189, "lat": 40.7011136, "lon": -73.9127126}, {"type": "node", "id": 2568698210, "lat": 40.7011512, "lon": -73.9126119}, {"type": "node", "id": 2568698219, "lat": 40.7011742, "lon": -73.9126507}, {"type": "node", "id": 2568698221, "lat": 40.7011781, "lon": -73.9124542}, {"type": "node", "id": 2568698231, "lat": 40.7011969, "lon": -73.9125327}, {"type": "node", "id": 2568698235, "lat": 40.7012142, "lon": -73.912515}, {"type": "node", "id": 2568698249, "lat": 40.7012393, "lon": -73.9126042}, {"type": "node", "id": 2568698268, "lat": 40.7012579, "lon": -73.9125852}, {"type": "node", "id": 2568698274, "lat": 40.7012952, "lon": -73.9126482}, {"type": "node", "id": 2568881663, "lat": 40.7108793, "lon": -73.9091552}, {"type": "node", "id": 2568881749, "lat": 40.7110112, "lon": -73.9090213}, {"type": "node", "id": 2568881814, "lat": 40.711136, "lon": -73.9092335}, {"type": "node", "id": 2568881861, "lat": 40.7112255, "lon": -73.9093841}, {"type": "node", "id": 2568881874, "lat": 40.7112517, "lon": -73.9098935}, {"type": "node", "id": 2568881877, "lat": 40.7112611, "lon": -73.9098044}, {"type": "node", "id": 2568881879, "lat": 40.7112628, "lon": -73.9093467}, {"type": "node", "id": 2568881885, "lat": 40.711266, "lon": -73.9097995}, {"type": "node", "id": 2568881887, "lat": 40.7112735, "lon": -73.9093652}, {"type": "node", "id": 2568881897, "lat": 40.7112953, "lon": -73.9098493}, {"type": "node", "id": 2568881933, "lat": 40.7113663, "lon": -73.9100885}, {"type": "node", "id": 2568881936, "lat": 40.7113755, "lon": -73.9089533}, {"type": "node", "id": 2568881943, "lat": 40.7113891, "lon": -73.9089765}, {"type": "node", "id": 2568881944, "lat": 40.7113898, "lon": -73.9096679}, {"type": "node", "id": 2568881956, "lat": 40.7114137, "lon": -73.9095397}, {"type": "node", "id": 2568881963, "lat": 40.7114222, "lon": -73.9095544}, {"type": "node", "id": 2568881967, "lat": 40.7114324, "lon": -73.9095123}, {"type": "node", "id": 2568881969, "lat": 40.7114356, "lon": -73.9095178}, {"type": "node", "id": 2568881971, "lat": 40.7114441, "lon": -73.9095325}, {"type": "node", "id": 2568881983, "lat": 40.7114708, "lon": -73.9088565}, {"type": "node", "id": 2568881985, "lat": 40.7114738, "lon": -73.9095838}, {"type": "node", "id": 2568881990, "lat": 40.7114844, "lon": -73.9088796}, {"type": "node", "id": 2568881992, "lat": 40.7114901, "lon": -73.9091485}, {"type": "node", "id": 2568881999, "lat": 40.7115049, "lon": -73.9092219}, {"type": "node", "id": 2568882011, "lat": 40.7115224, "lon": -73.9092043}, {"type": "node", "id": 2568882022, "lat": 40.711557, "lon": -73.9093118}, {"type": "node", "id": 2568882029, "lat": 40.711564, "lon": -73.9093807}, {"type": "node", "id": 2568882034, "lat": 40.7115868, "lon": -73.9090517}, {"type": "node", "id": 2568882037, "lat": 40.7116024, "lon": -73.9094471}, {"type": "node", "id": 2568882044, "lat": 40.7116089, "lon": -73.9084093}, {"type": "node", "id": 2568882046, "lat": 40.7116195, "lon": -73.9091072}, {"type": "node", "id": 2568882048, "lat": 40.7116233, "lon": -73.9094262}, {"type": "node", "id": 2568882056, "lat": 40.7116371, "lon": -73.9090893}, {"type": "node", "id": 2568882090, "lat": 40.7117355, "lon": -73.9086246}, {"type": "node", "id": 2568882095, "lat": 40.7117433, "lon": -73.9082729}, {"type": "node", "id": 2568882099, "lat": 40.7117567, "lon": -73.9092927}, {"type": "node", "id": 2568882123, "lat": 40.7118158, "lon": -73.9088192}, {"type": "node", "id": 2568882126, "lat": 40.7118227, "lon": -73.909625}, {"type": "node", "id": 2568882142, "lat": 40.7118547, "lon": -73.9091932}, {"type": "node", "id": 2568882151, "lat": 40.7118853, "lon": -73.9092452}, {"type": "node", "id": 2568882154, "lat": 40.7118906, "lon": -73.9092398}, {"type": "node", "id": 2568882162, "lat": 40.7119075, "lon": -73.9085522}, {"type": "node", "id": 2568882173, "lat": 40.7119384, "lon": -73.9085208}, {"type": "node", "id": 2568882194, "lat": 40.7119883, "lon": -73.9091124}, {"type": "node", "id": 2568882198, "lat": 40.7119927, "lon": -73.9086395}, {"type": "node", "id": 2568882200, "lat": 40.7119934, "lon": -73.9091072}, {"type": "node", "id": 2568882205, "lat": 40.7120024, "lon": -73.9086297}, {"type": "node", "id": 2568882207, "lat": 40.712007, "lon": -73.9094378}, {"type": "node", "id": 2568882221, "lat": 40.7120387, "lon": -73.9091843}, {"type": "node", "id": 2568882349, "lat": 40.7121625, "lon": -73.9089343}, {"type": "node", "id": 2568882353, "lat": 40.7121647, "lon": -73.908932}, {"type": "node", "id": 2568882375, "lat": 40.7122082, "lon": -73.9090121}, {"type": "node", "id": 2568882598, "lat": 40.7124994, "lon": -73.90831}, {"type": "node", "id": 2568882605, "lat": 40.7125193, "lon": -73.9086621}, {"type": "node", "id": 2568882613, "lat": 40.7124885, "lon": -73.9079337}, {"type": "node", "id": 2568882709, "lat": 40.7129361, "lon": -73.9082301}, {"type": "node", "id": 2568882712, "lat": 40.7129522, "lon": -73.9086685}, {"type": "node", "id": 2569797501, "lat": 40.7237854, "lon": -73.8555482}, {"type": "node", "id": 2569797504, "lat": 40.723795, "lon": -73.8555424}, {"type": "node", "id": 2569797512, "lat": 40.7238297, "lon": -73.8556736}, {"type": "node", "id": 2569797538, "lat": 40.7238901, "lon": -73.8555961}, {"type": "node", "id": 2569797543, "lat": 40.7239019, "lon": -73.8556295}, {"type": "node", "id": 2569797557, "lat": 40.7239353, "lon": -73.8554566}, {"type": "node", "id": 2569797561, "lat": 40.7239572, "lon": -73.8554432}, {"type": "node", "id": 2569797587, "lat": 40.7239898, "lon": -73.8555352}, {"type": "node", "id": 2573098504, "lat": 40.6783553, "lon": -73.9671771}, {"type": "node", "id": 2573098534, "lat": 40.6786965, "lon": -73.9670533}, {"type": "node", "id": 2573098543, "lat": 40.6787217, "lon": -73.9670056}, {"type": "node", "id": 2573098593, "lat": 40.6787928, "lon": -73.9669798}, {"type": "node", "id": 2573098739, "lat": 40.6790272, "lon": -73.9668947}, {"type": "node", "id": 2573098745, "lat": 40.6790397, "lon": -73.9668902}, {"type": "node", "id": 2573544621, "lat": 40.6718831, "lon": -73.9365253}, {"type": "node", "id": 2573544622, "lat": 40.6719997, "lon": -73.9387412}, {"type": "node", "id": 2573544623, "lat": 40.6722932, "lon": -73.937822}, {"type": "node", "id": 2573544624, "lat": 40.6723399, "lon": -73.9387101}, {"type": "node", "id": 2573544626, "lat": 40.672585, "lon": -73.9364612}, {"type": "node", "id": 2573544627, "lat": 40.6726548, "lon": -73.9377889}, {"type": "node", "id": 2581990942, "lat": 40.6742152, "lon": -73.9138115}, {"type": "node", "id": 2581990950, "lat": 40.674626, "lon": -73.9127338}, {"type": "node", "id": 2581990952, "lat": 40.6747539, "lon": -73.912721}, {"type": "node", "id": 2581990953, "lat": 40.6748134, "lon": -73.9137515}, {"type": "node", "id": 2581995457, "lat": 40.6411132, "lon": -73.9345644}, {"type": "node", "id": 2581995459, "lat": 40.6411181, "lon": -73.9344678}, {"type": "node", "id": 2581995461, "lat": 40.6411314, "lon": -73.9342081}, {"type": "node", "id": 2581995471, "lat": 40.6417062, "lon": -73.9346169}, {"type": "node", "id": 2581995472, "lat": 40.6417243, "lon": -73.9342606}, {"type": "node", "id": 2581995820, "lat": 40.6370509, "lon": -73.9373828}, {"type": "node", "id": 2581995821, "lat": 40.6370947, "lon": -73.936667}, {"type": "node", "id": 2672978876, "lat": 40.6651444, "lon": -73.876}, {"type": "node", "id": 2672978877, "lat": 40.6651566, "lon": -73.8760091}, {"type": "node", "id": 2672978879, "lat": 40.6654129, "lon": -73.8753716}, {"type": "node", "id": 2672978882, "lat": 40.6657571, "lon": -73.8764551}, {"type": "node", "id": 2672978883, "lat": 40.666222, "lon": -73.8768004}, {"type": "node", "id": 2672978884, "lat": 40.6664905, "lon": -73.8761719}, {"type": "node", "id": 2713490842, "lat": 40.6785269, "lon": -73.9618894, "tags": {"addr:housenumber": "561", "addr:postcode": "11238", "addr:street": "Grand Avenue", "amenity": "school", "name": "Gotham Professional Arts Academy", "website": "https://www.gothamacademy.org"}}, {"type": "node", "id": 2713495837, "lat": 40.6769735, "lon": -73.9601888, "tags": {"alt_name": "P.S. 705", "amenity": "school", "fax": "+1-718-230-0531", "name": "Brooklyn Arts & Science Elementary School", "phone": "+1-718-230-0851", "website": "https://www.brooklynartselementary.org"}}, {"type": "node", "id": 2715577157, "lat": 40.7144843, "lon": -73.9459921}, {"type": "node", "id": 2715577161, "lat": 40.7145545, "lon": -73.9452663}, {"type": "node", "id": 2715577162, "lat": 40.7149991, "lon": -73.9460788}, {"type": "node", "id": 2715578922, "lat": 40.7113178, "lon": -73.940306}, {"type": "node", "id": 2715582210, "lat": 40.7086257, "lon": -73.9383541}, {"type": "node", "id": 2715582211, "lat": 40.7090198, "lon": -73.939892}, {"type": "node", "id": 2715582212, "lat": 40.7091785, "lon": -73.9384474}, {"type": "node", "id": 2715609670, "lat": 40.6490689, "lon": -73.9660417, "tags": {"barrier": "gate"}}, {"type": "node", "id": 2715609671, "lat": 40.6498685, "lon": -73.9668893}, {"type": "node", "id": 2715609673, "lat": 40.6501158, "lon": -73.9662285}, {"type": "node", "id": 2715609674, "lat": 40.6501247, "lon": -73.9662586}, {"type": "node", "id": 2715613628, "lat": 40.711963, "lon": -73.9597393}, {"type": "node", "id": 2715613629, "lat": 40.712012, "lon": -73.9608961}, {"type": "node", "id": 2715613630, "lat": 40.7120153, "lon": -73.9597054}, {"type": "node", "id": 2715613631, "lat": 40.7122339, "lon": -73.9604691}, {"type": "node", "id": 2778782359, "lat": 40.6919851, "lon": -73.9319805}, {"type": "node", "id": 2837938580, "lat": 40.7000742, "lon": -73.955015, "tags": {"addr:housenumber": "127", "addr:postcode": "11206", "addr:street": "Wallabout Street", "amenity": "school", "ele": "4", "gnis:feature_id": "2082399", "name": "Yeshiva Bnos Spinka"}}, {"type": "node", "id": 2837938581, "lat": 40.70061, "lon": -73.9560577, "tags": {"addr:housenumber": "40", "addr:postcode": "11206", "addr:street": "Lynch Street", "amenity": "school", "ele": "4", "gnis:feature_id": "2082408", "name": "Yeshiva Mesivta Arugath Habosem"}}, {"type": "node", "id": 2837949767, "lat": 40.7032106, "lon": -73.9482279, "tags": {"addr:housenumber": "101", "addr:postcode": "11206", "addr:street": "Walton Street", "amenity": "school", "ele": "4", "gnis:feature_id": "2082153", "name": "Intermediate School 318", "wikidata": "Q17182193"}}, {"type": "node", "id": 2837959372, "lat": 40.7021063, "lon": -73.9557189, "tags": {"addr:housenumber": "199", "addr:postcode": "11211", "addr:street": "Lee Avenue", "amenity": "school", "ele": "5", "gnis:feature_id": "2082169", "name": "Keren Hatorah"}}, {"type": "node", "id": 2837986015, "lat": 40.7046722, "lon": -73.9532117}, {"type": "node", "id": 2837986024, "lat": 40.7047091, "lon": -73.9531558}, {"type": "node", "id": 2837986044, "lat": 40.7047903, "lon": -73.9533462}, {"type": "node", "id": 2837986045, "lat": 40.7047938, "lon": -73.9533409}, {"type": "node", "id": 2837986050, "lat": 40.7048271, "lon": -73.9532904}, {"type": "node", "id": 2837986054, "lat": 40.7048602, "lon": -73.9534165}, {"type": "node", "id": 2837986061, "lat": 40.7048935, "lon": -73.953366}, {"type": "node", "id": 2838085102, "lat": 40.7041916, "lon": -73.9609452, "tags": {"addr:housenumber": "563", "addr:postcode": "11211", "addr:street": "Bedford Avenue", "amenity": "school", "ele": "13", "gnis:feature_id": "2081632", "name": "Bais Yakov of Khal Adas Yereim"}}, {"type": "node", "id": 2838102155, "lat": 40.7067842, "lon": -73.9605115, "tags": {"addr:housenumber": "185", "addr:postcode": "11211", "addr:street": "Wilson Street", "amenity": "school", "ele": "15", "gnis:feature_id": "2082189", "name": "Mesivta Nachlas Yacov A Yerim"}}, {"type": "node", "id": 2838158923, "lat": 40.7069914, "lon": -73.9680901, "tags": {"addr:housenumber": "31", "addr:postcode": "11249", "addr:street": "Division Avenue", "amenity": "school", "ele": "5", "gnis:feature_id": "2081886", "name": "Be'ikvei Hatzoin"}}, {"type": "node", "id": 2838353329, "lat": 40.7061555, "lon": -73.9519987, "tags": {"addr:housenumber": "324", "addr:postcode": "11211", "addr:street": "Penn Street", "amenity": "school", "ele": "7", "gnis:feature_id": "2082297", "name": "Talmud Torah of Kasho"}}, {"type": "node", "id": 2838402264, "lat": 40.7024847, "lon": -73.9418038}, {"type": "node", "id": 2838402277, "lat": 40.7025574, "lon": -73.9418158}, {"type": "node", "id": 2838402526, "lat": 40.7029814, "lon": -73.9418861}, {"type": "node", "id": 2838402530, "lat": 40.7030269, "lon": -73.9418936}, {"type": "node", "id": 2838492505, "lat": 40.7064629, "lon": -73.9453463}, {"type": "node", "id": 2838492506, "lat": 40.7064969, "lon": -73.9449959}, {"type": "node", "id": 2838492509, "lat": 40.7066742, "lon": -73.9462974}, {"type": "node", "id": 2838492514, "lat": 40.7068513, "lon": -73.9450138}, {"type": "node", "id": 2838492515, "lat": 40.706873, "lon": -73.9463307}, {"type": "node", "id": 2838492521, "lat": 40.7070202, "lon": -73.9450421}, {"type": "node", "id": 2838530799, "lat": 40.7070651, "lon": -73.9523273, "tags": {"addr:housenumber": "345", "addr:postcode": "11211", "addr:street": "Hewes Street", "amenity": "school", "ele": "8", "gnis:feature_id": "2081897", "name": "Bnos Chayil"}}, {"type": "node", "id": 2838577387, "lat": 40.7046903, "lon": -73.9389969}, {"type": "node", "id": 2838577601, "lat": 40.7048289, "lon": -73.9382758}, {"type": "node", "id": 2838577603, "lat": 40.7048469, "lon": -73.9390488}, {"type": "node", "id": 2838577670, "lat": 40.7052182, "lon": -73.9391735}, {"type": "node", "id": 2838577810, "lat": 40.705357, "lon": -73.938451}, {"type": "node", "id": 2838577852, "lat": 40.7055132, "lon": -73.9393377}, {"type": "node", "id": 2838577864, "lat": 40.7055482, "lon": -73.9391471}, {"type": "node", "id": 2838578125, "lat": 40.705912, "lon": -73.9391356},