{"version": 0.6, "generator": "Overpass API 0.7.62.8 e802775f", "osm3s": {"timestamp_osm_base": "2026-01-13T09:30:39Z", "copyright": "The data included in this document is from www.openstreetmap.org. The data is made available under ODbL."}, "elements": [{"type": "node", "id": 245660950, "lat": 19.0190616, "lon": 72.8575206, "tags": {"source": "AND"}}, {"type": "node", "id": 631493980, "lat": 19.0353273, "lon": 72.8597511}, {"type": "node", "id": 631493994, "lat": 19.0367462, "lon": 72.860318}, {"type": "node", "id": 1281204550, "lat": 19.0209503, "lon": 72.8589049}, {"type": "node", "id": 1281204569, "lat": 19.0204278, "lon": 72.8588338}, {"type": "node", "id": 1287695919, "lat": 19.0081883, "lon": 72.8539476}, {"type": "node", "id": 1287695926, "lat": 19.0086752, "lon": 72.8539798}, {"type": "node", "id": 1287695938, "lat": 19.0077014, "lon": 72.8532181}, {"type": "node", "id": 1311768755, "lat": 19.0211306, "lon": 72.8590511}, {"type": "node", "id": 1311768756, "lat": 19.021313, "lon": 72.8590688}, {"type": "node", "id": 1311768840, "lat": 19.0211168, "lon": 72.8592095}, {"type": "node", "id": 1311768874, "lat": 19.0212993, "lon": 72.8592272}, {"type": "node", "id": 1419256929, "lat": 19.0192046, "lon": 72.8602182}, {"type": "node", "id": 1419256940, "lat": 19.0196684, "lon": 72.8569997, "tags": {"source": "AND"}}, {"type": "node", "id": 1419256941, "lat": 19.0201928, "lon": 72.8605096}, {"type": "node", "id": 1650708088, "lat": 19.0112105, "lon": 72.8618315}, {"type": "node", "id": 1650708091, "lat": 19.0116259, "lon": 72.860356}, {"type": "node", "id": 1650708126, "lat": 19.0133514, "lon": 72.8624784}, {"type": "node", "id": 1650708132, "lat": 19.0134179, "lon": 72.860657}, {"type": "node", "id": 1650753824, "lat": 19.0189989, "lon": 72.8588785}, {"type": "node", "id": 1650753844, "lat": 19.0192186, "lon": 72.8589021}, {"type": "node", "id": 1650753846, "lat": 19.0192633, "lon": 72.8595165}, {"type": "node", "id": 1650753849, "lat": 19.0193824, "lon": 72.8589927}, {"type": "node", "id": 1650753851, "lat": 19.0193913, "lon": 72.8569821}, {"type": "node", "id": 1650753852, "lat": 19.0194047, "lon": 72.8591857}, {"type": "node", "id": 1650753918, "lat": 19.0211771, "lon": 72.8574014}, {"type": "node", "id": 2290766956, "lat": 19.0049348, "lon": 72.8531362}, {"type": "node", "id": 2290766966, "lat": 19.0064565, "lon": 72.8507419}, {"type": "node", "id": 3205767044, "lat": 19.0277452, "lon": 72.868275}, {"type": "node", "id": 3591607438, "lat": 19.0277334, "lon": 72.8683552}, {"type": "node", "id": 3591607444, "lat": 19.0277542, "lon": 72.8682144}, {"type": "node", "id": 3591607451, "lat": 19.0278374, "lon": 72.8683723}, {"type": "node", "id": 3591607452, "lat": 19.0278581, "lon": 72.8682315}, {"type": "node", "id": 4264834970, "lat": 19.0358885, "lon": 72.8583026}, {"type": "node", "id": 4292746785, "lat": 19.0123652, "lon": 72.8605715}, {"type": "node", "id": 4292746805, "lat": 19.0133494, "lon": 72.86209}, {"type": "node", "id": 4292746828, "lat": 19.0146208, "lon": 72.8625911}, {"type": "node", "id": 4292746829, "lat": 19.0147029, "lon": 72.8625156}, {"type": "node", "id": 4423695890, "lat": 19.0323408, "lon": 72.8595512, "tags": {"addr:district": "Mumbai", "addr:full": "Sion-Matunga Estate, Plot No: 96, Road No.31, Near Gandhi Market, King Circle-Sion (East)", "addr:postcode": "400022", "addr:state": "Maharashtra", "amenity": "hospital", "contact:phone": "2224035459", "name": "Smt S.R.Mehta and Sir K.P.Cardiac Institute", "name:en": "Smt. S.R.Mehta and Sir K.P.Cardiac Institute", "operator:type": "private", "source": "OpenGovernmentData", "website": "https://srmkpcardiac.com/"}}, {"type": "node", "id": 4848773727, "lat": 19.0358379, "lon": 72.8609822, "tags": {"amenity": "hospital", "name": "Mata Lachmi Hospital"}}, {"type": "node", "id": 5792364461, "lat": 19.0360806, "lon": 72.8581106}, {"type": "node", "id": 5792364462, "lat": 19.0373889, "lon": 72.8586434}, {"type": "node", "id": 7043090395, "lat": 19.0190313, "lon": 72.8639666, "tags": {"addr:district": "Mumbai", "addr:full": "4, Margaret House, Opp Indian Oil, Wadala (E)", "addr:postcode": "400037", "addr:state": "Maharashtra", "amenity": "hospital", "name": "Genesis Speciality Center (Health-Check Up", "source": "OpenGovernmentData"}}, {"type": "node", "id": 7045155680, "lat": 19.0431439, "lon": 72.8936943, "tags": {"addr:district": "Mumbai", "addr:full": "5, Safal Ganga, Opposite Collector's Colony, Chembur Camp", "addr:postcode": "400074", "addr:state": "Maharashtra", "amenity": "hospital", "name": "Universal Eye Clinic and Surgical Centre", "source": "OpenGovernmentData"}}, {"type": "node", "id": 7048172474, "lat": 19.0338607, "lon": 72.8590146, "tags": {"addr:district": "Mumbai", "addr:full": "No. 1/ 7, Sindhi Society, opp. Gurukrupa Hotel, Sion", "addr:postcode": "400022", "addr:state": "Maharashtra", "amenity": "hospital", "name": "Vaishnav Seva Samaj", "operator:type": "government", "source": "OpenGovernmentData"}}, {"type": "node", "id": 7049683148, "lat": 19.031047, "lon": 72.860038, "tags": {"addr:district": "Mumbai", "addr:full": "Mumbai", "addr:postcode": "400022", "addr:state": "Maharashtra", "amenity": "hospital", "name": "Shanmukhananda Jasubhai R k shah Medical Centre", "source": "OpenGovernmentData"}}, {"type": "node", "id": 7052027524, "lat": 19.0279281, "lon": 72.8538381, "tags": {"addr:district": "Mumbai", "addr:full": "Sanjay, Ground Floor, Plot 376, Telang Cross Road No.2, Near Matunga Circle", "addr:postcode": "400019", "addr:state": "Maharashtra", "amenity": "hospital", "name": "Jashem Eye Institute", "source": "OpenGovernmentData"}}, {"type": "node", "id": 7052058100, "lat": 19.0342874, "lon": 72.8591891, "tags": {"addr:district": "Mumbai", "addr:full": "2/254, Alka Mansion, Dr Ambedkar Road, Sion West", "addr:postcode": "400022", "addr:state": "Maharashtra", "amenity": "hospital", "name": "Vyas' Surgery", "source": "OpenGovernmentData"}}, {"type": "node", "id": 7052181497, "lat": 19.0399657, "lon": 72.8546199, "tags": {"addr:district": "Mumbai", "addr:full": "90 Feet Road, Ground, 1st, 2nd & 3rd Road, At Masiha Islampura Co-operative Housing Society Ltd., Behind Sion Hospital, Near Dharavi Police Station", "addr:postcode": "400017", "addr:state": "Maharashtra", "amenity": "hospital", "healthcare": "hospital", "name": "Sai Hospital", "source": "OpenGovernmentData"}}, {"type": "node", "id": 7053266063, "lat": 19.0418977, "lon": 72.8640935, "tags": {"addr:district": "Mumbai", "addr:full": "6/206, Shiv Mahal Chs, Sion Main Road", "addr:postcode": "400022", "addr:state": "Maharashtra", "amenity": "hospital", "name": "Dr. Deosthaci's Eye Care Centre", "source": "OpenGovernmentData"}}, {"type": "node", "id": 7054852418, "lat": 19.0444281, "lon": 72.8651664, "tags": {"addr:district": "Mumbai", "addr:full": "# 102, Maryland Corner, Plot No.39, Next To Hp Petrol Pump,Sion(E)", "addr:postcode": "400022", "addr:state": "Maharashtra", "amenity": "hospital", "name": "Krishna Eye Centre", "source": "OpenGovernmentData"}}, {"type": "node", "id": 7055279023, "lat": 19.0308961, "lon": 72.8600594, "tags": {"addr:district": "Mumbai", "addr:full": "4Th Floor, (Tower Block), Jasubhai R K Shah Medical Centre 292,Comrade Harbansial Marg, Sion East", "addr:postcode": "400022", "addr:state": "Maharashtra", "amenity": "hospital", "name": "Shanmukhananda Aditya Jyot Eye Institute", "source": "OpenGovernmentData"}}, {"type": "node", "id": 7063808889, "lat": 19.0254153, "lon": 72.8535792, "tags": {"addr:district": "Mumbai", "addr:full": "Matunga", "addr:postcode": "400019", "addr:state": "Maharashtra", "amenity": "hospital", "name": "Lions Club Of East Bombay", "source": "OpenGovernmentData"}}, {"type": "node", "id": 7070054648, "lat": 19.0353486, "lon": 72.8960936, "tags": {"addr:district": "Mumbai", "addr:full": "Sita Estate, Near Ashish Cinema, Aziz Baug, Mahul Road, Chembur", "addr:postcode": "400074", "addr:state": "Maharashtra", "amenity": "hospital", "name": "Sai Baba Hospital, Mumbai", "source": "OpenGovernmentData"}}, {"type": "node", "id": 7079665691, "lat": 19.0120922, "lon": 72.8549686, "tags": {"addr:district": "Mumbai", "addr:full": "17/1, Vijay Niwas, R.A.K Road Wadala (W)", "addr:postcode": "400031", "addr:state": "Maharashtra", "amenity": "hospital", "name": "Shobha Maternity and Surgical Home", "source": "OpenGovernmentData"}}, {"type": "node", "id": 7225067271, "lat": 19.0369195, "lon": 72.8582046, "tags": {"addr:district": "Mumbai", "addr:full": "Dr Babasaheb Ambedkar Road, Sion West, Sion", "addr:postcode": "400022", "addr:state": "Maharashtra", "amenity": "hospital", "description": "Medical Colleges Hospital", "healthcare": "hospital", "name": "L.T.Muncipal Medical College and Sion Hospital", "source": "OpenGovernmentData"}}, {"type": "node", "id": 7663961403, "lat": 19.042245, "lon": 72.894166, "tags": {"addr:district": "Mumbai Suburban", "addr:full": "Door No. 10, 1, Mahul Road, Laxmi Colony, Tolaram Colony, Chembur, Mumbai", "addr:postcode": "400071", "addr:state": "Maharastra", "amenity": "hospital", "name": "Chandra Maternity Hospital", "source": "Local Knowledge"}}, {"type": "node", "id": 7663961444, "lat": 19.0411897, "lon": 72.8940869, "tags": {"addr:district": "Mumbai Suburban", "addr:full": "Plot No.16, Prem Nivas, Mahul Road, Laxmi Colony, Chembur, Near Ashish Theatre, Mumbai", "addr:postcode": "400074", "addr:state": "Maharastra", "amenity": "hospital", "name": "Shiv Hospital", "source": "Local Knowledge"}}, {"type": "node", "id": 7663961446, "lat": 19.040567, "lon": 72.897252, "tags": {"addr:district": "Mumbai Suburban", "addr:full": "Behind Ashish Theater, Tolaram Colony, RCF Colony, Chembur, Mumbai", "addr:postcode": "400074", "addr:state": "Maharastra", "amenity": "hospital", "name": "RCF Hospital", "source": "Local Knowledge"}}, {"type": "node", "id": 7663961476, "lat": 19.0413817, "lon": 72.8947434, "tags": {"addr:district": "Mumbai Suburban", "addr:full": "9-1, Laxmi Colony, Tolaram Colony, RCF Colony, Chembur, Mumbai", "addr:postcode": "400074", "addr:state": "Maharastra", "amenity": "hospital", "name": "Chandra Hospital", "source": "Local Knowledge"}}, {"type": "node", "id": 7664032209, "lat": 19.040411, "lon": 72.854633, "tags": {"addr:district": "Mumbai City", "addr:full": "Dharavi Vivekananda Cooperative Housing Society Limited, RP Nagar, Dharavi, Mumbai", "addr:postcode": "400017", "addr:state": "Maharastra", "amenity": "hospital", "healthcare": "hospital", "name": "Janani Hospital", "source": "Local Knowledge"}}, {"type": "node", "id": 7664032232, "lat": 19.0363806, "lon": 72.8598664, "tags": {"addr:district": "Mumbai City", "addr:full": "RB2 Central Railway Quarters, Jain Society, Sion, Mumbai", "addr:postcode": "400022", "addr:state": "Maharastra", "amenity": "hospital", "healthcare": "hospital", "name": "Sion Hospital", "source": "Local Knowledge"}}, {"type": "node", "id": 7664032240, "lat": 19.04033, "lon": 72.8553219, "tags": {"addr:district": "Mumbai City", "addr:full": "Bandra Reclamation Road, Muslim Nagar, Kumbhar Wada, Bandra West, Mumbai", "addr:postcode": "400017", "addr:state": "Maharastra", "amenity": "hospital", "healthcare": "hospital", "name": "Lelavati Hospital", "source": "Local Knowledge"}}, {"type": "node", "id": 7664032241, "lat": 19.040315, "lon": 72.854812, "tags": {"addr:district": "Mumbai City", "addr:full": "Dharavi Vivekananda Cooperative Housing Society Limited, 90 Feet Road, Muslim Nagar, RP Nagar, Dharavi, Mumbai", "addr:postcode": "400017", "addr:state": "Maharastra", "amenity": "hospital", "healthcare": "hospital", "name": "Aayush Hospital", "source": "Local Knowledge"}}, {"type": "node", "id": 10172914444, "lat": 19.0422679, "lon": 72.8941536, "tags": {"amenity": "hospital", "healthcare": "hospital", "name": "Chandra maternity Hospital"}}, {"type": "node", "id": 10172914445, "lat": 19.0414049, "lon": 72.8947448, "tags": {"amenity": "hospital", "healthcare": "hospital", "name": "Chandra Hospital"}}, {"type": "node", "id": 10172914446, "lat": 19.0412186, "lon": 72.8940795, "tags": {"amenity": "hospital", "healthcare": "hospital", "name": "Shiv Hospital"}}, {"type": "node", "id": 10172914447, "lat": 19.0406126, "lon": 72.8972639, "tags": {"amenity": "hospital", "healthcare": "hospital", "name": "RCF Hospital"}}, {"type": "node", "id": 10244151108, "lat": 19.0054328, "lon": 72.8512323}, {"type": "node", "id": 10244200809, "lat": 19.0053973, "lon": 72.8520101}, {"type": "node", "id": 10244200810, "lat": 19.0050295, "lon": 72.8520635}, {"type": "node", "id": 12989590769, "lat": 19.0347495, "lon": 72.8572857}, {"type": "node", "id": 12989590770, "lat": 19.0341457, "lon": 72.8588447}, {"type": "node", "id": 12989590771, "lat": 19.0349359, "lon": 72.8591754}, {"type": "node", "id": 12989590772, "lat": 19.0355437, "lon": 72.8576164}, {"type": "way", "id": 49681498, "nodes": [5792364461, 4264834970, 631493980, 631493994, 5792364462, 5792364461], "tags": {"addr:postcode": "400022", "addr:street": "Laxmibai Kelkar Marg", "amenity": "hospital", "emergency": "yes", "healthcare": "hospital", "helipad": "no", "name": "Lokmanya Tilak Hospital", "name:etymology:wikidata": "Q312555", "wikidata": "Q6668710", "wikipedia": "en:Lokmanya Tilak Municipal General Hospital"}}, {"type": "way", "id": 112781797, "nodes": [1650753918, 1281204550, 1281204569, 1419256941, 1419256929, 1650753846, 1650753852, 1650753849, 1650753844, 1650753824, 245660950, 1650753851, 1419256940, 1650753918], "tags": {"amenity": "hospital", "healthcare": "hospital", "historic": "public", "name": "Acworth Leper Asylum"}}, {"type": "way", "id": 116342799, "nodes": [1311768756, 1311768755, 1311768840, 1311768874, 1311768756], "tags": {"addr:city": "Wadala, Mumbai", "addr:full": "Registered Office, Plot No 153, Major Parmeshwaran Road Road No 9, Opp Siws College Gate No 3, Wadala (West)", "addr:housenumber": "Plot 153", "addr:postcode": "400031", "addr:state": "Maharashtra", "addr:street": "Major R Parameswaran Road", "amenity": "hospital", "building": "yes", "healthcare:speciality": "ophthalmology", "name": "Aditya Jyot Eye Hospital", "source": "OpenGovernmentData"}}, {"type": "way", "id": 152244251, "nodes": [1650708091, 1650708088, 1650708126, 4292746805, 4292746828, 4292746829, 1650708132, 4292746785, 1650708091], "tags": {"amenity": "hospital", "name": "BPT Hospital"}}, {"type": "way", "id": 353378830, "nodes": [3591607452, 3591607451, 3591607438, 3205767044, 3591607444, 3591607452], "tags": {"addr:city": "Mumbai", "addr:housenumber": "Sector - 7, CGS Colony", "addr:postcode": "400037", "addr:street": "Sheikh Misari Road", "amenity": "hospital", "healthcare": "hospital", "name": "Sanjeevni hospital"}}, {"type": "way", "id": 1120060026, "nodes": [2290766966, 1287695926, 1287695919, 1287695938, 2290766956, 10244200810, 10244200809, 10244151108, 2290766966], "tags": {"addr:district": "Mumbai", "addr:full": "Jerbai Wadia Road, Sewree East, Mumbai", "addr:postcode": "400015", "addr:state": "Maharashtra", "amenity": "hospital", "name": "Municipal TB Hospital", "source": "OpenGovernmentData"}}, {"type": "way", "id": 1413471846, "nodes": [12989590769, 12989590770, 12989590771, 12989590772, 12989590769], "tags": {"amenity": "hospital", "healthcare": "hospital", "name": "Sion Hospital"}}]}