{"version": 0.6, "generator": "Overpass API 0.7.62.8 e802775f", "osm3s": {"timestamp_osm_base": "2026-01-15T20:31:14Z", "copyright": "The data included in this document is from www.openstreetmap.org. The data is made available under ODbL."}, "elements": [{"type": "node", "id": 56327207, "lat": 51.0741638, "lon": 3.7779799, "tags": {"bus": "yes", "public_transport": "stop_position"}}, {"type": "node", "id": 88304390, "lat": 51.0524368, "lon": 3.7655389, "tags": {"bus": "yes", "public_transport": "stop_position"}}, {"type": "node", "id": 253375312, "lat": 51.0687408, "lon": 3.7638861, "tags": {"bus": "yes", "public_transport": "stop_position"}}, {"type": "node", "id": 253375314, "lat": 51.068428, "lon": 3.7629924, "tags": {"bus": "yes", "public_transport": "stop_position"}}, {"type": "node", "id": 253375320, "lat": 51.0666293, "lon": 3.7581391, "tags": {"bus": "yes", "public_transport": "stop_position"}}, {"type": "node", "id": 269134092, "lat": 51.0442872, "lon": 3.7556569, "tags": {"bus": "yes", "public_transport": "stop_position"}}, {"type": "node", "id": 457453309, "lat": 51.0594, "lon": 3.74587, "tags": {"bench": "no", "bin": "yes", "bus": "yes", "highway": "bus_stop", "name": "Sint-Amandsberg Halvemaanstraat", "network": "DLOV", "network:wikidata": "Q614819", "operator": "De Lijn", "operator:wikidata": "Q614819", "public_transport": "platform", "ref:De_Lijn": "213090", "route_ref:De_Lijn": "10;70;71;76;77;78;737;738;741", "shelter": "no", "tactile_paving": "yes", "zone:De_Lijn": "01"}}, {"type": "node", "id": 457453310, "lat": 51.0618815, "lon": 3.7493079, "tags": {"bench": "yes", "bin": "yes", "bus": "yes", "highway": "bus_stop", "lit": "yes", "name": "Sint-Amandsberg Dienstencentrum", "network": "DLOV", "network:wikidata": "Q614819", "operator": "De Lijn", "operator:wikidata": "Q614819", "public_transport": "platform", "ref:De_Lijn": "200219", "route_ref:De_Lijn": "10;70;71;76;77;78;737;738;741", "shelter": "no", "tactile_paving": "no", "zone:De_Lijn": "01"}}, {"type": "node", "id": 457453311, "lat": 51.0619324, "lon": 3.7494337, "tags": {"bench": "yes", "bin": "yes", "bus": "yes", "highway": "bus_stop", "lit": "no", "name": "Sint-Amandsberg Dienstencentrum", "network": "DLOV", "network:wikidata": "Q614819", "operator": "De Lijn", "operator:wikidata": "Q614819", "public_transport": "platform", "ref:De_Lijn": "201219", "route_ref:De_Lijn": "10;70;71;76;77;78;737;738;741", "shelter": "no", "tactile_paving": "no", "zone:De_Lijn": "01"}}, {"type": "node", "id": 457453312, "lat": 51.0652596, "lon": 3.7531174, "tags": {"bench": "no", "bin": "yes", "bus": "yes", "highway": "bus_stop", "lit": "no", "name": "Sint-Amandsberg Grondwetlaan", "network": "DLOV", "network:wikidata": "Q614819", "operator": "De Lijn", "operator:wikidata": "Q614819", "public_transport": "platform", "ref:De_Lijn": "201218", "route_ref:De_Lijn": "10;70;71;76;77;78;737;738;741", "shelter": "no", "tactile_paving": "no", "zone:De_Lijn": "01"}}, {"type": "node", "id": 457453313, "lat": 51.0647283, "lon": 3.7527478, "tags": {"bench": "no", "bin": "yes", "bus": "yes", "highway": "bus_stop", "lit": "yes", "name": "Sint-Amandsberg Grondwetlaan", "network": "DLOV", "network:wikidata": "Q614819", "operator": "De Lijn", "operator:wikidata": "Q614819", "public_transport": "platform", "ref:De_Lijn": "200218", "route_ref:De_Lijn": "10;70;71;76;77;78;737;738;741", "shelter": "no", "tactile_paving": "no", "zone:De_Lijn": "01"}}, {"type": "node", "id": 457453316, "lat": 51.0590684, "lon": 3.7447736, "tags": {"bench": "no", "bin": "yes", "bus": "yes", "highway": "bus_stop", "name": "Sint-Amandsberg Halvemaanstraat", "network": "DLOV", "network:wikidata": "Q614819", "operator": "De Lijn", "operator:wikidata": "Q614819", "public_transport": "platform", "ref:De_Lijn": "212090", "route_ref:De_Lijn": "10;70;71;76;77;78;737;738;741", "shelter": "no", "tactile_paving": "yes", "zone:De_Lijn": "01"}}, {"type": "node", "id": 458242824, "lat": 51.0732091, "lon": 3.7762695, "tags": {"bench": "yes", "bin": "yes", "bus": "yes", "highway": "bus_stop", "lit": "yes", "name": "Sint-Amandsberg Oudebareelstraat", "network": "DLOV", "network:wikidata": "Q614819", "operator": "De Lijn", "operator:wikidata": "Q614819", "public_transport": "platform", "ref:De_Lijn": "200129", "route_ref:De_Lijn": "76;77;78", "shelter": "yes", "tactile_paving": "no"}}, {"type": "node", "id": 458242826, "lat": 51.0617395, "lon": 3.7611924, "tags": {"bench": "yes", "bin": "yes", "bus": "yes", "highway": "bus_stop", "lit": "yes", "name": "Sint-Amandsberg Jef Crickstraat", "network": "DLOV", "network:wikidata": "Q614819", "operator": "De Lijn", "operator:wikidata": "Q614819", "public_transport": "platform", "ref:De_Lijn": "200259", "route_ref:De_Lijn": "12a;12b", "shelter": "yes", "tactile_paving": "no", "zone:De_Lijn": "01"}}, {"type": "node", "id": 458242829, "lat": 51.0605061, "lon": 3.7559522, "tags": {"bench": "yes", "bin": "yes", "bus": "yes", "check_date:shelter": "2022-08-27", "highway": "bus_stop", "name": "Sint-Amandsberg Rozebroekstraat", "network": "DLOV", "network:wikidata": "Q614819", "operator": "De Lijn", "operator:wikidata": "Q614819", "public_transport": "platform", "ref:De_Lijn": "200045", "route_ref:De_Lijn": "12a;12b", "shelter": "yes", "zone:De_Lijn": "01"}}, {"type": "node", "id": 458244543, "lat": 51.0770168, "lon": 3.7811555, "tags": {"bench": "yes", "bin": "yes", "bus": "yes", "highway": "bus_stop", "name": "Sint-Amandsberg Achtenkouterstraat", "network": "DLOV", "network:wikidata": "Q614819", "operator": "De Lijn", "operator:wikidata": "Q614819", "public_transport": "platform", "ref:De_Lijn": "200242", "route_ref:De_Lijn": "12a;76;77;78", "shelter": "yes", "wheelchair": "yes", "zone:De_Lijn": "01"}}, {"type": "node", "id": 458244545, "lat": 51.0487881, "lon": 3.7442344, "tags": {"bench": "no", "bin": "no", "bus": "yes", "check_date:shelter": "2022-02-23", "highway": "bus_stop", "name": "Gent Forelstraat", "network": "DLOV", "network:wikidata": "Q614819", "operator": "De Lijn", "operator:wikidata": "Q614819", "public_transport": "platform", "ref:De_Lijn": "202134", "route_ref:De_Lijn": "34;348;349", "shelter": "no", "tactile_paving": "no", "zone:De_Lijn": "01"}}, {"type": "node", "id": 461900026, "lat": 51.0633434, "lon": 3.768857, "tags": {"bus": "yes", "highway": "bus_stop", "name": "Sint-Amandsberg Nachtegaaldreef", "network": "DLOV", "network:wikidata": "Q614819", "operator": "De Lijn", "operator:wikidata": "Q614819", "public_transport": "platform", "ref:De_Lijn": "200261", "route_ref:De_Lijn": "12a;12b", "shelter": "yes", "tactile_paving": "no", "zone:De_Lijn": "01"}}, {"type": "node", "id": 464066409, "lat": 51.0553739, "lon": 3.7811334, "tags": {"bench": "no", "bin": "no", "bus": "yes", "highway": "bus_stop", "lit": "no", "name": "Destelbergen Zenderstraat", "network": "DLOV", "network:wikidata": "Q614819", "operator": "De Lijn", "operator:wikidata": "Q614819", "public_transport": "platform", "ref:De_Lijn": "202455", "route_ref:De_Lijn": "33;34;348;349", "shelter": "no", "tactile_paving": "no", "zone:De_Lijn": "01"}}, {"type": "node", "id": 464066417, "lat": 51.056085, "lon": 3.7972332, "tags": {"bench": "no", "bin": "yes", "bus": "yes", "highway": "bus_stop", "lit": "no", "name": "Destelbergen Kerk", "network": "DLOV", "network:wikidata": "Q614819", "operator": "De Lijn", "operator:wikidata": "Q614819", "public_transport": "platform", "ref:De_Lijn": "202485", "route_ref:De_Lijn": "33;34;348;349", "shelter": "no", "tactile_paving": "no", "zone:De_Lijn": "01"}}, {"type": "node", "id": 464066423, "lat": 51.0564875, "lon": 3.7906761, "tags": {"bench": "no", "bin": "no", "bus": "yes", "highway": "bus_stop", "lit": "yes", "name": "Destelbergen Eenbeekstraat", "network": "DLOV", "network:wikidata": "Q614819", "operator": "De Lijn", "operator:wikidata": "Q614819", "public_transport": "platform", "ref:De_Lijn": "212456", "route_ref:De_Lijn": "33;34;348;349", "shelter": "no", "tactile_paving": "no", "zone:De_Lijn": "01"}}, {"type": "node", "id": 464066429, "lat": 51.054113, "lon": 3.7710472, "tags": {"bench": "yes", "bin": "yes", "bus": "yes", "highway": "bus_stop", "lit": "no", "name": "Destelbergen Admiraalstraat", "network": "DLOV", "network:wikidata": "Q614819", "operator": "De Lijn", "operator:wikidata": "Q614819", "public_transport": "platform", "ref:De_Lijn": "202454", "route_ref:De_Lijn": "33;34;348;349", "shelter": "yes", "tactile_paving": "no", "zone:De_Lijn": "01"}}, {"type": "node", "id": 464066435, "lat": 51.0521238, "lon": 3.7539538, "tags": {"bench": "no", "bin": "yes", "bus": "yes", "highway": "bus_stop", "name": "Sint-Amandsberg Baeyensstraat", "network": "DLOV", "network:wikidata": "Q614819", "operator": "De Lijn", "operator:wikidata": "Q614819", "public_transport": "platform", "ref:De_Lijn": "202451", "route_ref:De_Lijn": "16;33;34;348;349", "shelter": "no", "tactile_paving": "no", "zone:De_Lijn": "01"}}, {"type": "node", "id": 464066444, "lat": 51.0526942, "lon": 3.7480629, "tags": {"bench": "no", "bus": "yes", "highway": "bus_stop", "name": "Sint-Amandsberg Heernisplein", "network": "DLOV", "network:wikidata": "Q614819", "network:wikipedia": "nl:De Lijn (vervoermaatschappij)", "operator": "De Lijn", "operator:wikidata": "Q614819", "public_transport": "platform", "ref:De_Lijn": "200135", "route_ref:De_Lijn": "11;33;34;348;349", "shelter": "no", "zone:De_Lijn": "01"}}, {"type": "node", "id": 464066449, "lat": 51.0532179, "lon": 3.7453137, "tags": {"bench": "yes", "bin": "yes", "bus": "yes", "highway": "bus_stop", "name": "Gent Banierstraat", "network": "DLOV", "network:wikidata": "Q614819", "network:wikipedia": "nl:De Lijn (vervoermaatschappij)", "operator": "De Lijn", "operator:wikidata": "Q614819", "public_transport": "platform", "ref:De_Lijn": "200136", "route_ref:De_Lijn": "11;33;34;348;349", "shelter": "yes", "tactile_paving": "yes", "zone:De_Lijn": "01"}}, {"type": "node", "id": 464066453, "lat": 51.0552671, "lon": 3.7427819, "tags": {"bench": "no", "bin": "no", "bus": "yes", "highway": "bus_stop", "name": "Gent Nieuwhof", "network": "DLOV", "network:wikidata": "Q614819", "network:wikipedia": "nl:De Lijn (vervoermaatschappij)", "operator": "De Lijn", "operator:wikidata": "Q614819", "public_transport": "platform", "ref:De_Lijn": "200137", "route_ref:De_Lijn": "11;33;34;348;349", "shelter": "no", "zone:De_Lijn": "01"}}, {"type": "node", "id": 464066460, "lat": 51.0579977, "lon": 3.7452768, "tags": {"bench": "no", "bus": "yes", "highway": "bus_stop", "name": "Gent Van Arenbergstraat", "network": "DLOV", "network:wikidata": "Q614819", "operator": "De Lijn", "operator:wikidata": "Q614819", "public_transport": "platform", "ref:De_Lijn": "201308", "route_ref:De_Lijn": "12a;12b", "shelter": "no", "zone:De_Lijn": "01"}}, {"type": "node", "id": 464066465, "lat": 51.058791, "lon": 3.7486567, "tags": {"bench": "yes", "bin": "yes", "bus": "yes", "highway": "bus_stop", "name": "Gent Schoolstraat", "network": "DLOV", "network:wikidata": "Q614819", "operator": "De Lijn", "operator:wikidata": "Q614819", "public_transport": "platform", "ref:De_Lijn": "201307", "route_ref:De_Lijn": "12a;12b", "shelter": "yes", "zone:De_Lijn": "01"}}, {"type": "node", "id": 465481130, "lat": 51.0475071, "lon": 3.7458801, "tags": {"bench": "yes", "bus": "yes", "highway": "bus_stop", "name": "Gent Vlaamsekaai", "network": "DLOV", "network:wikidata": "Q614819", "operator": "De Lijn", "operator:wikidata": "Q614819", "public_transport": "platform", "ref:De_Lijn": "203133", "route_ref:De_Lijn": "34;348;349", "shelter": "yes", "zone:De_Lijn": "01"}}, {"type": "node", "id": 465481131, "lat": 51.0519239, "lon": 3.7551229, "tags": {"bench": "yes", "bin": "yes", "bus": "yes", "highway": "bus_stop", "name": "Sint-Amandsberg Baeyensstraat", "network": "DLOV", "network:wikidata": "Q614819", "operator": "De Lijn", "operator:wikidata": "Q614819", "public_transport": "platform", "ref:De_Lijn": "203451", "route_ref:De_Lijn": "33;34;348;349", "shelter": "yes", "tactile_paving": "yes", "zone:De_Lijn": "01"}}, {"type": "node", "id": 465481132, "lat": 51.0525032, "lon": 3.7492833, "tags": {"bench": "no", "bin": "yes", "bus": "yes", "highway": "bus_stop", "lit": "no", "name": "Sint-Amandsberg Heernisplein", "network": "DLOV", "network:wikidata": "Q614819", "network:wikipedia": "nl:De Lijn (vervoermaatschappij)", "operator": "De Lijn", "operator:wikidata": "Q614819", "public_transport": "platform", "ref:De_Lijn": "201135", "route_ref:De_Lijn": "11;33;34;348;349", "shelter": "no", "tactile_paving": "yes", "zone:De_Lijn": "01"}}, {"type": "node", "id": 465481134, "lat": 51.0571439, "lon": 3.751095, "tags": {"bench": "no", "bus": "yes", "highway": "bus_stop", "name": "Gent Van Cleemputteplein", "network": "DLOV", "network:wikidata": "Q614819", "operator": "De Lijn", "operator:wikidata": "Q614819", "public_transport": "platform", "ref:De_Lijn": "201436", "route_ref:De_Lijn": "16", "shelter": "no", "zone:De_Lijn": "01"}}, {"type": "node", "id": 465503135, "lat": 51.0518512, "lon": 3.7592664, "tags": {"bench": "no", "bin": "no", "bus": "yes", "highway": "bus_stop", "name": "Destelbergen Lossystraat", "network": "DLOV", "network:wikidata": "Q614819", "operator": "De Lijn", "operator:wikidata": "Q614819", "public_transport": "platform", "ref:De_Lijn": "203452", "route_ref:De_Lijn": "33;34;348;349", "shelter": "no", "zone:De_Lijn": "01"}}, {"type": "node", "id": 470196343, "lat": 51.0719947, "lon": 3.7964106, "tags": {"bench": "yes", "bin": "yes", "bus": "yes", "highway": "bus_stop", "lit": "yes", "name": "Sint-Amandsberg Achtendries", "network": "DLOV", "network:wikidata": "Q614819", "operator": "De Lijn", "operator:wikidata": "Q614819", "public_transport": "platform", "ref:De_Lijn": "201044", "route_ref:De_Lijn": "12a", "shelter": "yes", "tactile_paving": "no", "zone:De_Lijn": "01"}}, {"type": "node", "id": 470373575, "lat": 51.0631044, "lon": 3.7985607, "tags": {"bus": "yes", "highway": "bus_stop", "name": "Destelbergen Stationsstraat", "network": "DLOV", "network:wikidata": "Q614819", "operator": "De Lijn", "operator:wikidata": "Q614819", "public_transport": "platform", "ref:De_Lijn": "212487", "route_ref:De_Lijn": "348", "zone:De_Lijn": "01"}}, {"type": "node", "id": 470834510, "lat": 51.0774638, "lon": 3.7669949, "tags": {"bench": "yes", "bin": "yes", "bus": "yes", "highway": "bus_stop", "lit": "yes", "name": "Oostakker Goedlevenstraat", "network": "DLOV", "network:wikidata": "Q614819", "operator": "De Lijn", "operator:wikidata": "Q614819", "public_transport": "platform", "ref:De_Lijn": "201203", "route_ref:De_Lijn": "12b", "shelter": "yes", "tactile_paving": "no", "zone:De_Lijn": "01"}}, {"type": "node", "id": 470834515, "lat": 51.0724315, "lon": 3.7641839, "tags": {"bench": "no", "bus": "yes", "highway": "bus_stop", "name": "Sint-Amandsberg Zingemkouterstraat", "network": "DLOV", "network:wikidata": "Q614819", "operator": "De Lijn", "operator:wikidata": "Q614819", "public_transport": "platform", "ref:De_Lijn": "200212", "route_ref:De_Lijn": "38;39;930", "shelter": "no", "tactile_paving": "no", "zone:De_Lijn": "01"}}, {"type": "node", "id": 471122367, "lat": 51.0738379, "lon": 3.769618, "tags": {"bench": "no", "bin": "no", "bus": "yes", "highway": "bus_stop", "lit": "yes", "name": "Oostakker Zangvogellaan", "network": "DLOV", "network:wikidata": "Q614819", "operator": "De Lijn", "operator:wikidata": "Q614819", "public_transport": "platform", "ref:De_Lijn": "213538", "route_ref:De_Lijn": "12b", "shelter": "no", "tactile_paving": "no", "zone:De_Lijn": "01"}}, {"type": "node", "id": 471122368, "lat": 51.0774986, "lon": 3.7668367, "tags": {"bench": "yes", "bin": "yes", "bus": "yes", "highway": "bus_stop", "lit": "yes", "name": "Oostakker Goedlevenstraat", "network": "DLOV", "network:wikidata": "Q614819", "operator": "De Lijn", "operator:wikidata": "Q614819", "public_transport": "platform", "ref:De_Lijn": "200203", "route_ref:De_Lijn": "12b", "shelter": "yes", "tactile_paving": "no", "zone:De_Lijn": "01"}}, {"type": "node", "id": 471122369, "lat": 51.0723534, "lon": 3.7598266, "tags": {"bench": "yes", "bus": "yes", "highway": "bus_stop", "name": "Sint-Amandsberg Gevaertstraat", "network": "DLOV", "network:wikidata": "Q614819", "operator": "De Lijn", "operator:wikidata": "Q614819", "public_transport": "platform", "ref:De_Lijn": "200213", "route_ref:De_Lijn": "38;39;930", "shelter": "no", "tactile_paving": "no", "zone:De_Lijn": "01"}}, {"type": "node", "id": 471122371, "lat": 51.072589, "lon": 3.7612744, "tags": {"bench": "no", "bus": "yes", "highway": "bus_stop", "name": "Sint-Amandsberg Gevaertstraat", "network": "DLOV", "network:wikidata": "Q614819", "operator": "De Lijn", "operator:wikidata": "Q614819", "public_transport": "platform", "ref:De_Lijn": "201213", "route_ref:De_Lijn": "38;39;930", "shelter": "no", "zone:De_Lijn": "01"}}, {"type": "node", "id": 471122373, "lat": 51.071074, "lon": 3.7557213, "tags": {"bench": "yes", "bin": "yes", "bus": "yes", "highway": "bus_stop", "name": "Sint-Amandsberg Snellaertplein", "network": "DLOV", "network:wikidata": "Q614819", "operator": "De Lijn", "operator:wikidata": "Q614819", "public_transport": "platform", "ref:De_Lijn": "200214", "route_ref:De_Lijn": "10", "shelter": "yes", "tactile_paving": "no", "zone:De_Lijn": "01"}}, {"type": "node", "id": 471122374, "lat": 51.0666491, "lon": 3.7581302, "tags": {"bench": "yes", "bin": "yes", "bus": "yes", "highway": "bus_stop", "name": "Sint-Amandsberg Zavelput", "network": "DLOV", "network:wikidata": "Q614819", "operator": "De Lijn", "operator:wikidata": "Q614819", "public_transport": "platform", "ref:De_Lijn": "200216", "route_ref:De_Lijn": "10;76;77;78", "shelter": "yes", "zone:De_Lijn": "01"}}, {"type": "node", "id": 471762209, "lat": 51.0488826, "lon": 3.7434245, "tags": {"bench": "no", "bin": "no", "bus": "yes", "check_date:shelter": "2022-02-23", "highway": "bus_stop", "name": "Gent Zalmstraat", "network": "DLOV", "network:wikidata": "Q614819", "operator": "De Lijn", "operator:wikidata": "Q614819", "public_transport": "platform", "ref:De_Lijn": "201443", "route_ref:De_Lijn": "16", "shelter": "no", "tactile_paving": "no", "zone:De_Lijn": "01"}}, {"type": "node", "id": 471762211, "lat": 51.0476019, "lon": 3.7474249, "tags": {"bench": "yes", "bin": "yes", "bus": "yes", "highway": "bus_stop", "lit": "yes", "name": "Gent Minneplein", "network": "DLOV", "network:wikidata": "Q614819", "operator": "De Lijn", "operator:wikidata": "Q614819", "public_transport": "platform", "ref:De_Lijn": "200231", "route_ref:De_Lijn": "16", "shelter": "yes", "tactile_paving": "yes", "zone:De_Lijn": "01"}}, {"type": "node", "id": 471762212, "lat": 51.0505601, "lon": 3.7526676, "tags": {"bus": "yes", "highway": "bus_stop", "name": "Sint-Amandsberg Aannemersstraat", "network": "DLOV", "network:wikidata": "Q614819", "operator": "De Lijn", "operator:wikidata": "Q614819", "public_transport": "platform", "ref:De_Lijn": "212134", "route_ref:De_Lijn": "11;16", "zone:De_Lijn": "01"}}, {"type": "node", "id": 472114554, "lat": 51.0497781, "lon": 3.7432703, "tags": {"bench": "no", "bus": "yes", "check_date:shelter": "2022-03-28", "highway": "bus_stop", "name": "Gent Forelstraat", "network": "DLOV", "network:wikidata": "Q614819", "operator": "De Lijn", "operator:wikidata": "Q614819", "public_transport": "platform", "ref:De_Lijn": "203134", "route_ref:De_Lijn": "34;348;349", "shelter": "no", "zone:De_Lijn": "01"}}, {"type": "node", "id": 472114557, "lat": 51.0470994, "lon": 3.7451543, "tags": {"bench": "no", "bus": "yes", "highway": "bus_stop", "name": "Gent Vlaamsekaai", "network": "DLOV", "network:wikidata": "Q614819", "operator": "De Lijn", "operator:wikidata": "Q614819", "public_transport": "platform", "ref:De_Lijn": "200442", "route_ref:De_Lijn": "16", "shelter": "no", "zone:De_Lijn": "01"}}, {"type": "node", "id": 473186710, "lat": 51.0779324, "lon": 3.753569, "tags": {"bench": "yes", "bin": "yes", "bus": "yes", "highway": "bus_stop", "name": "Oostakker Sint-Bernadettestraat", "network": "DLOV", "network:wikidata": "Q614819", "operator": "De Lijn", "operator:wikidata": "Q614819", "public_transport": "platform", "ref:De_Lijn": "201262", "route_ref:De_Lijn": "70;71;737;738;741", "shelter": "yes", "tactile_paving": "no", "zone:De_Lijn": "01"}}, {"type": "node", "id": 473186711, "lat": 51.0760642, "lon": 3.7525123, "tags": {"bench": "yes", "bus": "yes", "highway": "bus_stop", "name": "Gent Bernadette Kerk", "network": "DLOV", "network:wikidata": "Q614819", "operator": "De Lijn", "operator:wikidata": "Q614819", "public_transport": "platform", "ref:De_Lijn": "203546", "route_ref:De_Lijn": "70;71;737;738;741", "shelter": "yes", "zone:De_Lijn": "01"}}, {"type": "node", "id": 473186712, "lat": 51.0726999, "lon": 3.7522356, "tags": {"bench": "yes", "bin": "yes", "bus": "yes", "highway": "bus_stop", "name": "Gent La Sapini\u00e8re", "network": "DLOV", "network:wikidata": "Q614819", "operator": "De Lijn", "operator:wikidata": "Q614819", "public_transport": "platform", "ref:De_Lijn": "213546", "route_ref:De_Lijn": "70;71;737;738;741", "shelter": "yes", "tactile_paving": "no", "zone:De_Lijn": "01"}}, {"type": "node", "id": 473186714, "lat": 51.0686721, "lon": 3.750163, "tags": {"bench": "no", "bin": "no", "bus": "yes", "highway": "bus_stop", "name": "Sint-Amandsberg Visitatiestraat", "network": "DLOV", "network:wikidata": "Q614819", "operator": "De Lijn", "operator:wikidata": "Q614819", "public_transport": "platform", "ref:De_Lijn": "201266", "route_ref:De_Lijn": "70;71;737;738;741", "shelter": "no", "tactile_paving": "no", "zone:De_Lijn": "01"}}, {"type": "node", "id": 473186715, "lat": 51.0591272, "lon": 3.7498217, "tags": {"bench": "yes", "bin": "yes", "bus": "yes", "highway": "bus_stop", "lit": "yes", "name": "Gent Schoolstraat", "network": "DLOV", "network:wikidata": "Q614819", "operator": "De Lijn", "operator:wikidata": "Q614819", "public_transport": "platform", "ref:De_Lijn": "200641", "route_ref:De_Lijn": "12a;12b", "shelter": "yes", "tactile_paving": "no", "zone:De_Lijn": "01"}}, {"type": "node", "id": 473872666, "lat": 51.0580651, "lon": 3.745059, "tags": {"bench": "no", "bus": "yes", "highway": "bus_stop", "name": "Gent Van Arenbergstraat", "network": "DLOV", "network:wikidata": "Q614819", "operator": "De Lijn", "operator:wikidata": "Q614819", "public_transport": "platform", "ref:De_Lijn": "200308", "route_ref:De_Lijn": "12a;12b", "shelter": "no", "zone:De_Lijn": "01"}}, {"type": "node", "id": 473872668, "lat": 51.0479632, "lon": 3.7544629, "tags": {"bench": "yes", "bin": "yes", "bus": "yes", "highway": "bus_stop", "name": "Sint-Amandsberg Gentbruggebrug", "network": "DLOV", "network:wikidata": "Q614819", "operator": "De Lijn", "operator:wikidata": "Q614819", "public_transport": "platform", "ref:De_Lijn": "200133", "route_ref:De_Lijn": "11;16", "shelter": "yes", "zone:De_Lijn": "01"}}, {"type": "node", "id": 473872669, "lat": 51.0606168, "lon": 3.757011, "tags": {"bench": "yes", "bus": "yes", "highway": "bus_stop", "name": "Sint-Amandsberg Rozebroekstraat", "network": "DLOV", "network:wikidata": "Q614819", "operator": "De Lijn", "operator:wikidata": "Q614819", "public_transport": "platform", "ref:De_Lijn": "201260", "route_ref:De_Lijn": "12a;12b", "shelter": "yes", "tactile_paving": "no", "zone:De_Lijn": "01"}}, {"type": "node", "id": 473872671, "lat": 51.0504, "lon": 3.75257, "tags": {"bus": "yes", "highway": "bus_stop", "name": "Sint-Amandsberg Aannemersstraat", "network": "DLOV", "network:wikidata": "Q614819", "operator": "De Lijn", "operator:wikidata": "Q614819", "public_transport": "platform", "ref:De_Lijn": "213134", "route_ref:De_Lijn": "11;16", "zone:De_Lijn": "01"}}, {"type": "node", "id": 476293308, "lat": 51.0671594, "lon": 3.7743187, "tags": {"bench": "no", "bin": "yes", "bus": "yes", "highway": "bus_stop", "lit": "yes", "name": "Sint-Amandsberg Vinkenlaan", "network": "DLOV", "network:wikidata": "Q614819", "operator": "De Lijn", "operator:wikidata": "Q614819", "public_transport": "platform", "ref:De_Lijn": "201301", "route_ref:De_Lijn": "12a;12b", "shelter": "no", "tactile_paving": "yes", "zone:De_Lijn": "01"}}, {"type": "node", "id": 476293309, "lat": 51.0703563, "lon": 3.7765704, "tags": {"bench": "no", "bin": "yes", "bus": "yes", "highway": "bus_stop", "lit": "no", "name": "Sint-Amandsberg Schuurstraat", "network": "DLOV", "network:wikidata": "Q614819", "operator": "De Lijn", "operator:wikidata": "Q614819", "public_transport": "platform", "ref:De_Lijn": "201323", "route_ref:De_Lijn": "12a;12b", "shelter": "no", "tactile_paving": "no", "zone:De_Lijn": "01"}}, {"type": "node", "id": 476293310, "lat": 51.0700722, "lon": 3.7763576, "tags": {"bench": "no", "bin": "no", "bus": "yes", "highway": "bus_stop", "lit": "no", "name": "Sint-Amandsberg Schuurstraat", "network": "DLOV", "network:wikidata": "Q614819", "operator": "De Lijn", "operator:wikidata": "Q614819", "public_transport": "platform", "ref:De_Lijn": "200300", "route_ref:De_Lijn": "12a;12b", "shelter": "yes", "tactile_paving": "no", "zone:De_Lijn": "01"}}, {"type": "node", "id": 476293311, "lat": 51.0740816, "lon": 3.7809613, "tags": {"bench": "no", "bus": "yes", "highway": "bus_stop", "name": "Sint-Amandsberg Beelbroekstraat", "network": "DLOV", "network:wikidata": "Q614819", "operator": "De Lijn", "operator:wikidata": "Q614819", "public_transport": "platform", "ref:De_Lijn": "235296", "route_ref:De_Lijn": "Flex", "shelter": "no", "tactile_paving": "no", "zone:De_Lijn": "01"}}, {"type": "node", "id": 476293313, "lat": 51.0660398, "lon": 3.767826, "tags": {"bus": "yes", "highway": "bus_stop", "name": "Sint-Amandsberg Koerspleinstraat", "network": "DLOV", "network:wikidata": "Q614819", "operator": "De Lijn", "operator:wikidata": "Q614819", "public_transport": "platform", "ref:De_Lijn": "201302", "route_ref:De_Lijn": "12a;12b", "shelter": "no", "zone:De_Lijn": "01"}}, {"type": "node", "id": 476293314, "lat": 51.0687565, "lon": 3.7638772, "tags": {"bench": "yes", "bin": "yes", "bus": "yes", "highway": "bus_stop", "name": "Sint-Amandsberg Everstraat", "network": "DLOV", "network:wikidata": "Q614819", "operator": "De Lijn", "operator:wikidata": "Q614819", "public_transport": "platform", "ref:De_Lijn": "200217", "route_ref:De_Lijn": "76;77;78", "shelter": "yes", "tactile_paving": "no", "zone:De_Lijn": "01"}}, {"type": "node", "id": 476293315, "lat": 51.068389, "lon": 3.7630767, "tags": {"bench": "yes", "bus": "yes", "highway": "bus_stop", "name": "Sint-Amandsberg Everstraat", "network": "DLOV", "network:wikidata": "Q614819", "operator": "De Lijn", "operator:wikidata": "Q614819", "public_transport": "platform", "ref:De_Lijn": "201217", "route_ref:De_Lijn": "76;77;78", "shelter": "yes", "zone:De_Lijn": "01"}}, {"type": "node", "id": 476293316, "lat": 51.0670343, "lon": 3.759341, "tags": {"bench": "yes", "bin": "yes", "bus": "yes", "highway": "bus_stop", "name": "Sint-Amandsberg Zavelput", "network": "DLOV", "network:wikidata": "Q614819", "operator": "De Lijn", "operator:wikidata": "Q614819", "public_transport": "platform", "ref:De_Lijn": "201216", "route_ref:De_Lijn": "10;76;77;78", "shelter": "yes", "tactile_paving": "no", "zone:De_Lijn": "01"}}, {"type": "node", "id": 476293317, "lat": 51.0618769, "lon": 3.7625488, "tags": {"bench": "yes", "bin": "yes", "bus": "yes", "highway": "bus_stop", "lit": "yes", "name": "Sint-Amandsberg Jef Crickstraat", "network": "DLOV", "network:wikidata": "Q614819", "operator": "De Lijn", "operator:wikidata": "Q614819", "public_transport": "platform", "ref:De_Lijn": "201259", "route_ref:De_Lijn": "12a;12b", "shelter": "yes", "tactile_paving": "yes", "zone:De_Lijn": "01"}}, {"type": "node", "id": 505369594, "lat": 51.0550562, "lon": 3.7428759, "tags": {"bench": "no", "bus": "yes", "highway": "bus_stop", "name": "Gent Nieuwhof", "network": "DLOV", "network:wikidata": "Q614819", "network:wikipedia": "nl:De Lijn (vervoermaatschappij)", "operator": "De Lijn", "operator:wikidata": "Q614819", "public_transport": "platform", "ref:De_Lijn": "201137", "route_ref:De_Lijn": "11;33;34;348;349", "shelter": "no", "zone:De_Lijn": "01"}}, {"type": "node", "id": 512728599, "lat": 51.0523884, "lon": 3.766674, "tags": {"bus": "yes", "highway": "bus_stop", "name": "Destelbergen Stelplaats", "network": "DLOV", "network:wikidata": "Q614819", "operator": "De Lijn", "operator:wikidata": "Q614819", "public_transport": "platform", "ref:De_Lijn": "203453", "route_ref:De_Lijn": "33;34;348;349", "zone:De_Lijn": "01"}}, {"type": "node", "id": 512728601, "lat": 51.0536231, "lon": 3.7702897, "tags": {"bench": "no", "bin": "yes", "bus": "yes", "highway": "bus_stop", "lit": "no", "name": "Destelbergen Admiraalstraat", "network": "DLOV", "network:wikidata": "Q614819", "operator": "De Lijn", "operator:wikidata": "Q614819", "public_transport": "platform", "ref:De_Lijn": "203454", "route_ref:De_Lijn": "33;34;348;349", "shelter": "no", "tactile_paving": "no", "zone:De_Lijn": "01"}}, {"type": "node", "id": 512728605, "lat": 51.0602273, "lon": 3.7979297, "tags": {"bench": "no", "bin": "no", "bus": "yes", "departures_board": "timetable", "highway": "bus_stop", "lit": "no", "name": "Destelbergen Kouterstraat", "name:nl": "Destelbergen Kouterstraat", "network": "DLOV", "network:wikidata": "Q614819", "operator": "De Lijn", "operator:wikidata": "Q614819", "public_transport": "platform", "ref:De_Lijn": "202486", "route_ref:De_Lijn": "348", "shelter": "no", "tactile_paving": "no", "zone:De_Lijn": "01"}}, {"type": "node", "id": 512728609, "lat": 51.0563891, "lon": 3.7907894, "tags": {"bench": "no", "bin": "no", "bus": "yes", "highway": "bus_stop", "lit": "no", "name": "Destelbergen Eenbeekstraat", "network": "DLOV", "network:wikidata": "Q614819", "operator": "De Lijn", "operator:wikidata": "Q614819", "public_transport": "platform", "ref:De_Lijn": "213456", "route_ref:De_Lijn": "33;34;348;349", "shelter": "no", "tactile_paving": "no", "zone:De_Lijn": "01"}}, {"type": "node", "id": 512728611, "lat": 51.0559389, "lon": 3.7976209, "tags": {"bench": "no", "bin": "yes", "bus": "yes", "highway": "bus_stop", "lit": "yes", "name": "Destelbergen Kerk", "network": "DLOV", "network:wikidata": "Q614819", "operator": "De Lijn", "operator:wikidata": "Q614819", "public_transport": "platform", "ref:De_Lijn": "203485", "route_ref:De_Lijn": "33;348;349", "shelter": "yes", "tactile_paving": "no", "zone:De_Lijn": "01"}}, {"type": "node", "id": 512728613, "lat": 51.0553307, "lon": 3.7814536, "tags": {"bench": "yes", "bin": "yes", "bus": "yes", "highway": "bus_stop", "lit": "no", "name": "Destelbergen Zenderstraat", "network": "DLOV", "network:wikidata": "Q614819", "operator": "De Lijn", "operator:wikidata": "Q614819", "public_transport": "platform", "ref:De_Lijn": "203455", "route_ref:De_Lijn": "33;34;348;349", "shelter": "yes", "tactile_paving": "no", "zone:De_Lijn": "01"}}, {"type": "node", "id": 702790440, "lat": 51.0559924, "lon": 3.7971358, "tags": {"bus": "yes", "public_transport": "stop_position"}}, {"type": "node", "id": 1166766324, "lat": 51.0518117, "lon": 3.7581376, "tags": {"bench": "no", "bin": "yes", "bus": "yes", "highway": "bus_stop", "name": "Destelbergen Lossystraat", "network": "DLOV", "network:wikidata": "Q614819", "operator": "De Lijn", "operator:wikidata": "Q614819", "public_transport": "platform", "ref:De_Lijn": "202452", "route_ref:De_Lijn": "33;34;348;349", "shelter": "no", "zone:De_Lijn": "01"}}, {"type": "node", "id": 1232334929, "lat": 51.0497554, "lon": 3.7432176, "tags": {"bus": "yes", "public_transport": "stop_position"}}, {"type": "node", "id": 1390771508, "lat": 51.0768305, "lon": 3.7812748, "tags": {"bench": "yes", "bin": "yes", "bus": "yes", "highway": "bus_stop", "name": "Sint-Amandsberg Achtenkouterstraat", "network": "DLOV", "network:wikidata": "Q614819", "operator": "De Lijn", "operator:wikidata": "Q614819", "public_transport": "platform", "ref:De_Lijn": "201298", "route_ref:De_Lijn": "12a;76;77;78", "shelter": "yes", "zone:De_Lijn": "01"}}, {"type": "node", "id": 1390771513, "lat": 51.075365, "lon": 3.7796496, "tags": {"bench": "yes", "bus": "yes", "highway": "bus_stop", "name": "Sint-Amandsberg P+R Oostakker", "network": "DLOV", "network:wikidata": "Q614819", "operator": "De Lijn", "operator:wikidata": "Q614819", "public_transport": "platform", "ref:De_Lijn": "201244", "route_ref:De_Lijn": "12a;76;77;78", "shelter": "yes", "zone:De_Lijn": "01"}}, {"type": "node", "id": 1401008868, "lat": 51.0720342, "lon": 3.7964051, "tags": {"bus": "yes", "public_transport": "stop_position"}}, {"type": "node", "id": 1432493553, "lat": 51.080668, "lon": 3.7446875, "tags": {"railway": "level_crossing"}}, {"type": "node", "id": 1628210612, "lat": 51.0434, "lon": 3.7706776, "tags": {"bench": "yes", "bin": "yes", "bus": "yes", "highway": "bus_stop", "lit": "yes", "name": "Gentbrugge De Guchteneerestraat", "network": "DLOV", "network:wikidata": "Q614819", "operator": "De Lijn", "operator:wikidata": "Q614819", "public_transport": "platform", "ref:De_Lijn": "201471", "route_ref:De_Lijn": "9a;9b", "shelter": "yes", "tactile_paving": "no", "zone:De_Lijn": "01"}}, {"type": "node", "id": 1628210711, "lat": 51.0472429, "lon": 3.7718015, "tags": {"bench": "no", "bus": "yes", "covered": "no", "highway": "bus_stop", "lit": "yes", "name": "Gentbrugge Bosakker", "network": "DLOV", "network:wikidata": "Q614819", "operator": "De Lijn", "operator:wikidata": "Q614819", "physically_present": "no", "public_transport": "platform", "ref:De_Lijn": "200488", "route_ref:De_Lijn": "Flex", "shelter": "no", "tactile_paving": "no", "zone:De_Lijn": "01"}}, {"type": "node", "id": 1628298482, "lat": 51.074467, "lon": 3.7783923, "tags": {"bus": "yes", "public_transport": "stop_position"}}, {"type": "node", "id": 1628351194, "lat": 51.0630859, "lon": 3.7985593, "tags": {"bus": "yes", "public_transport": "stop_position"}}, {"type": "node", "id": 1992086866, "lat": 51.0480173, "lon": 3.75421, "tags": {"bench": "yes", "bus": "yes", "highway": "bus_stop", "name": "Sint-Amandsberg Gentbruggebrug", "network": "DLOV", "network:wikidata": "Q614819", "operator": "De Lijn", "operator:wikidata": "Q614819", "public_transport": "platform", "ref:De_Lijn": "201133", "route_ref:De_Lijn": "11;16", "shelter": "no", "tactile_paving": "yes", "zone:De_Lijn": "01"}}, {"type": "node", "id": 1992086875, "lat": 51.0429202, "lon": 3.7593148, "tags": {"bench": "no", "bin": "no", "bus": "yes", "check_date:shelter": "2023-03-26", "highway": "bus_stop", "name": "Gentbrugge Hielstraat", "network": "DLOV", "network:wikidata": "Q614819", "operator": "De Lijn", "operator:wikidata": "Q614819", "public_transport": "platform", "ref:De_Lijn": "201131", "route_ref:De_Lijn": "11", "shelter": "no", "tactile_paving": "no", "zone:De_Lijn": "01"}}, {"type": "node", "id": 1992086878, "lat": 51.0525181, "lon": 3.7655733, "tags": {"bench": "yes", "bin": "yes", "bus": "yes", "highway": "bus_stop", "name": "Destelbergen Stelplaats", "network": "DLOV", "network:wikidata": "Q614819", "operator": "De Lijn", "operator:wikidata": "Q614819", "public_transport": "platform", "ref:De_Lijn": "202453", "route_ref:De_Lijn": "33;34;348;349", "shelter": "yes", "zone:De_Lijn": "01"}}, {"type": "node", "id": 1992086880, "lat": 51.0453366, "lon": 3.755669, "tags": {"bench": "no", "bus": "yes", "highway": "bus_stop", "name": "Gentbrugge Tweekapellenstraat", "network": "DLOV", "network:wikidata": "Q614819", "operator": "De Lijn", "operator:wikidata": "Q614819", "public_transport": "platform", "ref:De_Lijn": "200132", "route_ref:De_Lijn": "11", "shelter": "no", "zone:De_Lijn": "01"}}, {"type": "node", "id": 1992470386, "lat": 51.0485325, "lon": 3.742556, "tags": {"bench": "no", "bin": "yes", "bus": "yes", "highway": "bus_stop", "name": "Gent Zalmstraat", "network": "DLOV", "network:wikidata": "Q614819", "operator": "De Lijn", "operator:wikidata": "Q614819", "public_transport": "platform", "ref:De_Lijn": "200443", "route_ref:De_Lijn": "16", "shelter": "no", "tactile_paving": "no", "zone:De_Lijn": "01"}}, {"type": "node", "id": 2225073595, "lat": 51.0471763, "lon": 3.7517674, "tags": {"bench": "yes", "bin": "yes", "bus": "yes", "highway": "bus_stop", "name": "Gent Wolterslaan", "network": "DLOV", "network:wikidata": "Q614819", "operator": "De Lijn", "operator:wikidata": "Q614819", "public_transport": "platform", "ref:De_Lijn": "201468", "route_ref:De_Lijn": "16", "shelter": "yes", "zone:De_Lijn": "01"}}, {"type": "node", "id": 2225073645, "lat": 51.0470114, "lon": 3.7519775, "tags": {"bench": "yes", "bin": "yes", "bus": "yes", "highway": "bus_stop", "name": "Gent Wolterslaan", "network": "DLOV", "network:wikidata": "Q614819", "operator": "De Lijn", "operator:wikidata": "Q614819", "public_transport": "platform", "ref:De_Lijn": "200468", "route_ref:De_Lijn": "16", "shelter": "yes", "zone:De_Lijn": "01"}}, {"type": "node", "id": 2233619088, "lat": 51.0530985, "lon": 3.7454446, "tags": {"bench": "no", "bin": "yes", "bus": "yes", "highway": "bus_stop", "name": "Gent Banierstraat", "network": "DLOV", "network:wikidata": "Q614819", "network:wikipedia": "nl:De Lijn (vervoermaatschappij)", "operator": "De Lijn", "operator:wikidata": "Q614819", "public_transport": "platform", "ref:De_Lijn": "201136", "route_ref:De_Lijn": "11;33;34;348;349", "shelter": "no", "zone:De_Lijn": "01"}}, {"type": "node", "id": 2233619143, "lat": 51.0431562, "lon": 3.7593783, "tags": {"bus": "yes", "highway": "bus_stop", "name": "Gentbrugge Hielstraat", "network": "DLOV", "network:wikidata": "Q614819", "operator": "De Lijn", "operator:wikidata": "Q614819", "public_transport": "platform", "ref:De_Lijn": "200131", "route_ref:De_Lijn": "11", "zone:De_Lijn": "01"}}, {"type": "node", "id": 2233619154, "lat": 51.0441664, "lon": 3.7555717, "tags": {"bench": "no", "bus": "yes", "highway": "bus_stop", "name": "Gentbrugge Tweekapellenstraat", "network": "DLOV", "network:wikidata": "Q614819", "operator": "De Lijn", "operator:wikidata": "Q614819", "public_transport": "platform", "ref:De_Lijn": "201132", "route_ref:De_Lijn": "11", "shelter": "no", "zone:De_Lijn": "01"}}, {"type": "node", "id": 2233811274, "lat": 51.0481036, "lon": 3.7542092, "tags": {"bus": "yes", "public_transport": "stop_position"}}, {"type": "node", "id": 2234808097, "lat": 51.047702, "lon": 3.7473114, "tags": {"bench": "yes", "bin": "yes", "bus": "yes", "highway": "bus_stop", "name": "Gent Minneplein", "network": "DLOV", "network:wikidata": "Q614819", "operator": "De Lijn", "operator:wikidata": "Q614819", "public_transport": "platform", "ref:De_Lijn": "201231", "route_ref:De_Lijn": "16", "shelter": "yes", "zone:De_Lijn": "01"}}, {"type": "node", "id": 2234808288, "lat": 51.0579976, "lon": 3.7450435, "tags": {"bus": "yes", "public_transport": "stop_position"}}, {"type": "node", "id": 2234808300, "lat": 51.0580441, "lon": 3.7452448, "tags": {"bus": "yes", "public_transport": "stop_position"}}, {"type": "node", "id": 2234808313, "lat": 51.0570209, "lon": 3.7511305, "tags": {"bench": "no", "bus": "yes", "highway": "bus_stop", "name": "Gent Van Cleemputteplein", "network": "DLOV", "network:wikidata": "Q614819", "operator": "De Lijn", "operator:wikidata": "Q614819", "public_transport": "platform", "ref:De_Lijn": "200436", "route_ref:De_Lijn": "16", "shelter": "no", "zone:De_Lijn": "01"}}, {"type": "node", "id": 2237010268, "lat": 51.0608242, "lon": 3.7745698, "tags": {"bus": "yes", "highway": "bus_stop", "name": "Destelbergen Admiraaldreef", "network": "DLOV", "network:wikidata": "Q614819", "operator": "De Lijn", "operator:wikidata": "Q614819", "public_transport": "platform", "ref:De_Lijn": "201946", "route_ref:De_Lijn": "140", "shelter": "no", "zone:De_Lijn": "01"}}, {"type": "node", "id": 2237010276, "lat": 51.0578229, "lon": 3.7846182, "tags": {"bench": "no", "bin": "no", "bus": "yes", "highway": "bus_stop", "lit": "no", "name": "Destelbergen Leeuweriklaan", "network": "DLOV", "network:wikidata": "Q614819", "operator": "De Lijn", "operator:wikidata": "Q614819", "public_transport": "platform", "ref:De_Lijn": "201945", "route_ref:De_Lijn": "140", "shelter": "no", "tactile_paving": "no", "zone:De_Lijn": "01"}}, {"type": "node", "id": 2237010296, "lat": 51.0580825, "lon": 3.767312, "tags": {"bus": "yes", "highway": "bus_stop", "name": "Destelbergen Markiesakker", "network": "DLOV", "network:wikidata": "Q614819", "operator": "De Lijn", "operator:wikidata": "Q614819", "public_transport": "platform", "ref:De_Lijn": "201947", "route_ref:De_Lijn": "140", "zone:De_Lijn": "01"}}, {"type": "node", "id": 2237010347, "lat": 51.046959, "lon": 3.7646601, "tags": {"bench": "yes", "bin": "yes", "bus": "yes", "check_date:shelter": "2023-03-26", "highway": "bus_stop", "lit": "yes", "name": "Gentbrugge Gentbruggekouter", "network": "DLOV", "network:wikidata": "Q614819", "operator": "De Lijn", "operator:wikidata": "Q614819", "public_transport": "platform", "ref:De_Lijn": "200490", "route_ref:De_Lijn": "225", "shelter": "yes", "tactile_paving": "no", "zone:De_Lijn": "01"}}, {"type": "node", "id": 2237010360, "lat": 51.0448042, "lon": 3.7596798, "tags": {"bench": "yes", "bin": "yes", "bus": "yes", "highway": "bus_stop", "lit": "yes", "name": "Gentbrugge Kerk", "network": "DLOV", "network:wikidata": "Q614819", "operator": "De Lijn", "operator:wikidata": "Q614819", "public_transport": "platform", "ref:De_Lijn": "200491", "route_ref:De_Lijn": "225", "shelter": "yes", "tactile_paving": "no", "zone:De_Lijn": "01"}}, {"type": "node", "id": 2237010370, "lat": 51.0446636, "lon": 3.7706406, "tags": {"bench": "no", "bin": "no", "bus": "yes", "highway": "bus_stop", "lit": "no", "name": "Gentbrugge Klaverpoel", "network": "DLOV", "network:wikidata": "Q614819", "operator": "De Lijn", "operator:wikidata": "Q614819", "public_transport": "platform", "ref:De_Lijn": "200486", "route_ref:De_Lijn": "225", "shelter": "no", "tactile_paving": "no", "zone:De_Lijn": "01"}}, {"type": "node", "id": 2237010381, "lat": 51.0443282, "lon": 3.7662156, "tags": {"bench": "no", "bus": "yes", "highway": "bus_stop", "name": "Gentbrugge Robiniadreef", "network": "DLOV", "network:wikidata": "Q614819", "operator": "De Lijn", "operator:wikidata": "Q614819", "public_transport": "platform", "ref:De_Lijn": "201890", "route_ref:De_Lijn": "140", "shelter": "no", "zone:De_Lijn": "01"}}, {"type": "node", "id": 2237010392, "lat": 51.0433264, "lon": 3.7615406, "tags": {"bus": "yes", "highway": "bus_stop", "name": "Gentbrugge Van Dyckstraat", "network": "DLOV", "network:wikidata": "Q614819", "operator": "De Lijn", "operator:wikidata": "Q614819", "public_transport": "platform", "ref:De_Lijn": "200492", "route_ref:De_Lijn": "225", "zone:De_Lijn": "01"}}, {"type": "node", "id": 2237010400, "lat": 51.047927, "lon": 3.7685979, "tags": {"bench": "no", "bin": "no", "bus": "yes", "highway": "bus_stop", "lit": "no", "name": "Gentbrugge Oudekouter", "network": "DLOV", "network:wikidata": "Q614819", "operator": "De Lijn", "operator:wikidata": "Q614819", "public_transport": "platform", "ref:De_Lijn": "212489", "route_ref:De_Lijn": "225", "shelter": "no", "tactile_paving": "no", "zone:De_Lijn": "01"}}, {"type": "node", "id": 2237010483, "lat": 51.0705334, "lon": 3.7704483, "tags": {"bench": "yes", "bin": "yes", "bus": "yes", "highway": "bus_stop", "name": "Sint-Amandsberg Carelshof", "network": "DLOV", "network:wikidata": "Q614819", "operator": "De Lijn", "operator:wikidata": "Q614819", "public_transport": "platform", "ref:De_Lijn": "201128", "route_ref:De_Lijn": "76;77;78", "shelter": "yes", "zone:De_Lijn": "01"}}, {"type": "node", "id": 2237010486, "lat": 51.0707845, "lon": 3.770661, "tags": {"bench": "yes", "bin": "yes", "bus": "yes", "highway": "bus_stop", "lit": "yes", "name": "Sint-Amandsberg Carelshof", "network": "DLOV", "network:wikidata": "Q614819", "operator": "De Lijn", "operator:wikidata": "Q614819", "public_transport": "platform", "ref:De_Lijn": "200128", "route_ref:De_Lijn": "76;77;78", "shelter": "yes", "tactile_paving": "no", "zone:De_Lijn": "01"}}, {"type": "node", "id": 2237010491, "lat": 51.0661428, "lon": 3.7687775, "tags": {"bus": "yes", "highway": "bus_stop", "name": "Sint-Amandsberg Koerspleinstraat", "network": "DLOV", "network:wikidata": "Q614819", "operator": "De Lijn", "operator:wikidata": "Q614819", "public_transport": "platform", "ref:De_Lijn": "200302", "route_ref:De_Lijn": "12a;12b", "shelter": "yes", "zone:De_Lijn": "01"}}, {"type": "node", "id": 2237010493, "lat": 51.0633462, "lon": 3.7692928, "tags": {"bus": "yes", "highway": "bus_stop", "name": "Sint-Amandsberg Nachtegaaldreef", "network": "DLOV", "network:wikidata": "Q614819", "operator": "De Lijn", "operator:wikidata": "Q614819", "public_transport": "platform", "ref:De_Lijn": "201261", "route_ref:De_Lijn": "12a;12b", "shelter": "no", "tactile_paving": "no", "zone:De_Lijn": "01"}}, {"type": "node", "id": 2237010502, "lat": 51.0670735, "lon": 3.7733604, "tags": {"bench": "yes", "bin": "yes", "bus": "yes", "highway": "bus_stop", "name": "Sint-Amandsberg Vinkenlaan", "network": "DLOV", "network:wikidata": "Q614819", "operator": "De Lijn", "operator:wikidata": "Q614819", "public_transport": "platform", "ref:De_Lijn": "200301", "route_ref:De_Lijn": "12a;12b", "shelter": "yes", "tactile_paving": "yes", "zone:De_Lijn": "01"}}, {"type": "node", "id": 2237010507, "lat": 51.0678494, "lon": 3.7500632, "tags": {"bench": "no", "bin": "no", "bus": "yes", "highway": "bus_stop", "name": "Sint-Amandsberg Visitatiestraat", "network": "DLOV", "network:wikidata": "Q614819", "operator": "De Lijn", "operator:wikidata": "Q614819", "public_transport": "platform", "ref:De_Lijn": "200266", "route_ref:De_Lijn": "70;71;737;738;741", "shelter": "no", "tactile_paving": "no", "zone:De_Lijn": "01"}}, {"type": "node", "id": 2237010508, "lat": 51.0684457, "lon": 3.7494155, "tags": {"bus": "yes", "highway": "bus_stop", "name": "Sint-Amandsberg Visitatiestraat", "network": "DLOV", "network:wikidata": "Q614819", "operator": "De Lijn", "operator:wikidata": "Q614819", "public_transport": "platform", "ref:De_Lijn": "203543", "route_ref:De_Lijn": "70;71;72", "zone:De_Lijn": "01"}}, {"type": "node", "id": 2237010527, "lat": 51.0462467, "lon": 3.7447814, "tags": {"bench": "no", "bin": "no", "bus": "yes", "highway": "bus_stop", "lit": "yes", "name": "Gent Vlaamsekaai", "network": "DLOV", "network:wikidata": "Q614819", "operator": "De Lijn", "operator:wikidata": "Q614819", "public_transport": "platform", "ref:De_Lijn": "202133", "route_ref:De_Lijn": "34;348;349", "shelter": "no", "tactile_paving": "no", "zone:De_Lijn": "01"}}, {"type": "node", "id": 2237010752, "lat": 51.0687662, "lon": 3.7638372}, {"type": "node", "id": 2237010753, "lat": 51.0688479, "lon": 3.7640658}, {"type": "node", "id": 2238789257, "lat": 51.0731049, "lon": 3.7765223, "tags": {"bench": "yes", "bus": "yes", "highway": "bus_stop", "name": "Sint-Amandsberg Oudebareelstraat", "network": "DLOV", "network:wikidata": "Q614819", "operator": "De Lijn", "operator:wikidata": "Q614819", "public_transport": "platform", "ref:De_Lijn": "201129", "route_ref:De_Lijn": "12a;76;77;78", "shelter": "yes", "zone:De_Lijn": "01"}}, {"type": "node", "id": 2238789368, "lat": 51.0767648, "lon": 3.7812835}, {"type": "node", "id": 2238789369, "lat": 51.0767719, "lon": 3.7812667}, {"type": "node", "id": 2238789370, "lat": 51.0767953, "lon": 3.7813166}, {"type": "node", "id": 2238789373, "lat": 51.0768025, "lon": 3.7812998}, {"type": "node", "id": 2239073228, "lat": 51.073933, "lon": 3.7695644, "tags": {"bench": "no", "bin": "no", "bus": "yes", "highway": "bus_stop", "lit": "yes", "name": "Oostakker Zangvogellaan", "network": "DLOV", "network:wikidata": "Q614819", "operator": "De Lijn", "operator:wikidata": "Q614819", "public_transport": "platform", "ref:De_Lijn": "212538", "route_ref:De_Lijn": "12b", "shelter": "no", "tactile_paving": "no", "zone:De_Lijn": "01"}}, {"type": "node", "id": 2239073269, "lat": 51.0723062, "lon": 3.7641492, "tags": {"bench": "no", "bus": "yes", "highway": "bus_stop", "name": "Sint-Amandsberg Zingemkouterstraat", "network": "DLOV", "network:wikidata": "Q614819", "operator": "De Lijn", "operator:wikidata": "Q614819", "public_transport": "platform", "ref:De_Lijn": "201212", "route_ref:De_Lijn": "38;39", "shelter": "no", "tactile_paving": "no", "zone:De_Lijn": "01"}}, {"type": "node", "id": 2239445612, "lat": 51.0710983, "lon": 3.7557045}, {"type": "node", "id": 2239445613, "lat": 51.0711056, "lon": 3.7556866}, {"type": "node", "id": 2239445614, "lat": 51.0711316, "lon": 3.7557389}, {"type": "node", "id": 2239445615, "lat": 51.0711389, "lon": 3.7557209}, {"type": "node", "id": 2260710687, "lat": 51.0630435, "lon": 3.79862, "tags": {"bus": "yes", "highway": "bus_stop", "name": "Destelbergen Stationsstraat", "network": "DLOV", "network:wikidata": "Q614819", "operator": "De Lijn", "operator:wikidata": "Q614819", "public_transport": "platform", "ref:De_Lijn": "213487", "route_ref:De_Lijn": "348", "zone:De_Lijn": "01"}}, {"type": "node", "id": 2260710688, "lat": 51.0603415, "lon": 3.7979405, "tags": {"bench": "no", "bin": "no", "bus": "yes", "departures_board": "timetable", "highway": "bus_stop", "lit": "no", "name": "Destelbergen Kouterstraat", "name:nl": "Destelbergen Kouterstraat", "network": "DLOV", "network:wikidata": "Q614819", "operator": "De Lijn", "operator:wikidata": "Q614819", "public_transport": "platform", "ref:De_Lijn": "203486", "route_ref:De_Lijn": "348", "shelter": "no", "tactile_paving": "no", "zone:De_Lijn": "01"}}, {"type": "node", "id": 2260710689, "lat": 51.0552576, "lon": 3.7950045, "tags": {"bus": "yes", "highway": "bus_stop", "name": "Destelbergen Reinaertweg", "network": "DLOV", "network:wikidata": "Q614819", "operator": "De Lijn", "operator:wikidata": "Q614819", "public_transport": "platform", "ref:De_Lijn": "203750", "route_ref:De_Lijn": "34", "zone:De_Lijn": "01"}}, {"type": "node", "id": 2260710691, "lat": 51.0482063, "lon": 3.7960406, "tags": {"bench": "yes", "bin": "yes", "bus": "yes", "highway": "bus_stop", "name": "Destelbergen Scheldekant", "network": "DLOV", "network:wikidata": "Q614819", "operator": "De Lijn", "operator:wikidata": "Q614819", "public_transport": "platform", "ref:De_Lijn": "203459", "route_ref:De_Lijn": "34", "shelter": "yes", "zone:De_Lijn": "01"}}, {"type": "node", "id": 2260710692, "lat": 51.0485175, "lon": 3.7962088, "tags": {"bus": "yes", "highway": "bus_stop", "name": "Destelbergen Scheldekant", "network": "DLOV", "network:wikidata": "Q614819", "operator": "De Lijn", "operator:wikidata": "Q614819", "public_transport": "platform", "ref:De_Lijn": "202459", "route_ref:De_Lijn": "34", "zone:De_Lijn": "01"}}, {"type": "node", "id": 2260710749, "lat": 51.0482045, "lon": 3.796121, "tags": {"bus": "yes", "public_transport": "stop_position"}}, {"type": "node", "id": 2260710761, "lat": 51.0485191, "lon": 3.7961203, "tags": {"bus": "yes", "public_transport": "stop_position"}}, {"type": "node", "id": 2260710772, "lat": 51.0560306, "lon": 3.7980138, "tags": {"bus": "yes", "public_transport": "stop_position"}}, {"type": "node", "id": 2260710786, "lat": 51.0630811, "lon": 3.7987634, "tags": {"bus": "yes", "public_transport": "stop_position"}}, {"type": "node", "id": 2372496373, "lat": 51.071554, "lon": 3.7477578, "tags": {"bus": "yes", "highway": "bus_stop", "name": "Gent Post Hogeweg", "network": "DLOV", "network:wikidata": "Q614819", "operator": "De Lijn", "operator:wikidata": "Q614819", "public_transport": "platform", "ref:De_Lijn": "200265", "route_ref:De_Lijn": "70;71;72", "zone:De_Lijn": "01"}}, {"type": "node", "id": 2372496413, "lat": 51.0715706, "lon": 3.7478408, "tags": {"bus": "yes", "name": "Gent Post Hogeweg", "public_transport": "stop_position"}}, {"type": "node", "id": 2372510804, "lat": 51.0714001, "lon": 3.7480013, "tags": {"bench": "yes", "bus": "yes", "highway": "bus_stop", "name": "Gent Post Hogeweg", "network": "DLOV", "network:wikidata": "Q614819", "operator": "De Lijn", "operator:wikidata": "Q614819", "public_transport": "platform", "ref:De_Lijn": "201265", "route_ref:De_Lijn": "70;71;72", "shelter": "yes", "zone:De_Lijn": "01"}}, {"type": "node", "id": 2372904494, "lat": 51.0760216, "lon": 3.7523495, "tags": {"bench": "yes", "bus": "yes", "highway": "bus_stop", "name": "Gent Bernadette Kerk", "network": "DLOV", "network:wikidata": "Q614819", "operator": "De Lijn", "operator:wikidata": "Q614819", "public_transport": "platform", "ref:De_Lijn": "202546", "route_ref:De_Lijn": "70;71;737;738;741", "shelter": "yes", "zone:De_Lijn": "01"}}, {"type": "node", "id": 2372904583, "lat": 51.0770505, "lon": 3.7500693, "tags": {"bus": "yes", "highway": "bus_stop", "name": "Gent Motorstraat", "network": "DLOV", "network:wikidata": "Q614819", "operator": "De Lijn", "operator:wikidata": "Q614819", "public_transport": "platform", "ref:De_Lijn": "201263", "route_ref:De_Lijn": "70;71;72", "zone:De_Lijn": "01"}}, {"type": "node", "id": 2372904584, "lat": 51.0771242, "lon": 3.7498333, "tags": {"bus": "yes", "highway": "bus_stop", "name": "Gent Motorstraat", "network": "DLOV", "network:wikidata": "Q614819", "operator": "De Lijn", "operator:wikidata": "Q614819", "public_transport": "platform", "ref:De_Lijn": "200263", "route_ref:De_Lijn": "70;71;72", "zone:De_Lijn": "01"}}, {"type": "node", "id": 2372904618, "lat": 51.0779709, "lon": 3.7534213, "tags": {"bench": "yes", "bin": "yes", "bus": "yes", "highway": "bus_stop", "name": "Oostakker Sint-Bernadettestraat", "network": "DLOV", "network:wikidata": "Q614819", "operator": "De Lijn", "operator:wikidata": "Q614819", "public_transport": "platform", "ref:De_Lijn": "200262", "route_ref:De_Lijn": "70;71;737;738;741", "shelter": "yes", "tactile_paving": "no", "zone:De_Lijn": "01"}}, {"type": "node", "id": 2372904632, "lat": 51.0741443, "lon": 3.7466209, "tags": {"bus": "yes", "highway": "bus_stop", "name": "Gent Scheeplosserstraat", "network": "DLOV", "network:wikidata": "Q614819", "operator": "De Lijn", "operator:wikidata": "Q614819", "public_transport": "platform", "ref:De_Lijn": "200264", "shelter": "yes", "zone:De_Lijn": "01"}}, {"type": "node", "id": 2372904633, "lat": 51.0748596, "lon": 3.7464245, "tags": {"bus": "yes", "highway": "bus_stop", "name": "Gent Scheeplosserstraat", "network": "DLOV", "network:wikidata": "Q614819", "operator": "De Lijn", "operator:wikidata": "Q614819", "public_transport": "platform", "ref:De_Lijn": "201264", "zone:De_Lijn": "01"}}, {"type": "node", "id": 2372904634, "lat": 51.0745743, "lon": 3.7784171, "tags": {"bench": "yes", "bin": "yes", "bus": "yes", "highway": "bus_stop", "lit": "no", "name": "Sint-Amandsberg P+R Oostakker", "network": "DLOV", "network:wikidata": "Q614819", "operator": "De Lijn", "operator:wikidata": "Q614819", "public_transport": "platform", "ref:De_Lijn": "202136", "route_ref:De_Lijn": "76;77;78", "shelter": "yes", "tactile_paving": "no", "zone:De_Lijn": "01"}}, {"type": "node", "id": 2372904639, "lat": 51.0718723, "lon": 3.7518404, "tags": {"amenity": "waste_basket", "bench": "no", "bin": "yes", "bus": "yes", "highway": "bus_stop", "name": "Gent La Sapini\u00e8re", "network": "DLOV", "network:wikidata": "Q614819", "operator": "De Lijn", "operator:wikidata": "Q614819", "panoramax": "4ec0bf98-2e40-4ab0-9932-1e9bec68c1db", "public_transport": "platform", "ref:De_Lijn": "212546", "route_ref:De_Lijn": "70;71;737;738;741", "shelter": "no", "tactile_paving": "no", "zone:De_Lijn": "01"}}, {"type": "node", "id": 3090925378, "lat": 51.0940755, "lon": 3.9198392}, {"type": "node", "id": 3090925381, "lat": 51.0941054, "lon": 3.9198079}, {"type": "node", "id": 3090950550, "lat": 51.0892809, "lon": 3.8923066}, {"type": "node", "id": 3090950552, "lat": 51.0893139, "lon": 3.8922912}, {"type": "node", "id": 3090950878, "lat": 51.0906403, "lon": 3.900107}, {"type": "node", "id": 3090950879, "lat": 51.0906728, "lon": 3.9000928}, {"type": "node", "id": 3090950931, "lat": 51.0934458, "lon": 3.9162199, "tags": {"crossing:barrier": "half", "railway": "level_crossing"}}, {"type": "node", "id": 3090950932, "lat": 51.0934757, "lon": 3.9161909, "tags": {"crossing:barrier": "half", "railway": "level_crossing"}}, {"type": "node", "id": 3091058020, "lat": 51.0859428, "lon": 3.8730847}, {"type": "node", "id": 3091058021, "lat": 51.0859792, "lon": 3.87309, "tags": {"railway": "switch"}}, {"type": "node", "id": 3091058022, "lat": 51.0863627, "lon": 3.8753831}, {"type": "node", "id": 3091058023, "lat": 51.0863949, "lon": 3.8753686}, {"type": "node", "id": 3091058030, "lat": 51.0865028, "lon": 3.8761552}, {"type": "node", "id": 3091058032, "lat": 51.0865357, "lon": 3.876142}, {"type": "node", "id": 3091058040, "lat": 51.086639, "lon": 3.876921}, {"type": "node", "id": 3091058041, "lat": 51.0866705, "lon": 3.8769068}, {"type": "node", "id": 3091058043, "lat": 51.0867732, "lon": 3.8776883}, {"type": "node", "id": 3091058044, "lat": 51.0868071, "lon": 3.8776804}, {"type": "node", "id": 3091058051, "lat": 51.0870444, "lon": 3.8792364, "tags": {"local_ref": "1", "name": "Beervelde", "public_transport": "stop_position", "railway": "stop", "train": "yes"}}, {"type": "node", "id": 3091058052, "lat": 51.0870759, "lon": 3.8792194}, {"type": "node", "id": 3091058062, "lat": 51.0873258, "lon": 3.8808543}, {"type": "node", "id": 3091058063, "lat": 51.0873596, "lon": 3.8808488, "tags": {"local_ref": "2", "name": "Beervelde", "public_transport": "stop_position", "railway": "stop", "train": "yes"}}, {"type": "node", "id": 3091058865, "lat": 51.0876121, "lon": 3.8824963}, {"type": "node", "id": 3091058866, "lat": 51.0876454, "lon": 3.8824835}, {"type": "node", "id": 3091058870, "lat": 51.0878992, "lon": 3.8841443}, {"type": "node", "id": 3091058871, "lat": 51.0879321, "lon": 3.8841301}, {"type": "node", "id": 3091058872, "lat": 51.0881959, "lon": 3.8858448}, {"type": "node", "id": 3091058873, "lat": 51.0882292, "lon": 3.8858358}, {"type": "node", "id": 3091058878, "lat": 51.0883302, "lon": 3.8866175}, {"type": "node", "id": 3091058879, "lat": 51.0883631, "lon": 3.886603}, {"type": "node", "id": 3091058886, "lat": 51.0884807, "lon": 3.8874924}, {"type": "node", "id": 3091058887, "lat": 51.0885132, "lon": 3.8874788}, {"type": "node", "id": 3091058892, "lat": 51.0886241, "lon": 3.8883506}, {"type": "node", "id": 3091058893, "lat": 51.0886559, "lon": 3.8883349}, {"type": "node", "id": 3091058898, "lat": 51.0887504, "lon": 3.8891244}, {"type": "node", "id": 3091058899, "lat": 51.0887832, "lon": 3.8891125}, {"type": "node", "id": 3091058906, "lat": 51.0888771, "lon": 3.8899061}, {"type": "node", "id": 3091058907, "lat": 51.0889081, "lon": 3.8898818}, {"type": "node", "id": 3091058912, "lat": 51.0890024, "lon": 3.8906648}, {"type": "node", "id": 3091058913, "lat": 51.0890339, "lon": 3.8906485}, {"type": "node", "id": 3091058920, "lat": 51.0891332, "lon": 3.8914467}, {"type": "node", "id": 3091058921, "lat": 51.089166, "lon": 3.891432}, {"type": "node", "id": 3091116158, "lat": 51.0853808, "lon": 3.8700078}, {"type": "node", "id": 3091116160, "lat": 51.0854132, "lon": 3.8699914}, {"type": "node", "id": 3091116161, "lat": 51.0856647, "lon": 3.8715574, "tags": {"railway": "switch"}}, {"type": "node", "id": 3091116265, "lat": 51.0856983, "lon": 3.8715482}, {"type": "node", "id": 3091116269, "lat": 51.0858372, "lon": 3.8723109, "tags": {"railway": "switch"}}, {"type": "node", "id": 3091116276, "lat": 51.0860828, "lon": 3.8738508, "tags": {"railway": "switch"}}, {"type": "node", "id": 3091182036, "lat": 51.0815597, "lon": 3.8516116}, {"type": "node", "id": 3091182037, "lat": 51.081591, "lon": 3.8515905}, {"type": "node", "id": 3091182040, "lat": 51.0822704, "lon": 3.8548269}, {"type": "node", "id": 3091182041, "lat": 51.0823025, "lon": 3.8548076}, {"type": "node", "id": 3091183268, "lat": 51.0826431, "lon": 3.8565187}, {"type": "node", "id": 3091183270, "lat": 51.0826762, "lon": 3.8565023}, {"type": "node", "id": 3091183275, "lat": 51.0828303, "lon": 3.8573604}, {"type": "node", "id": 3091183276, "lat": 51.0828636, "lon": 3.8573526}, {"type": "node", "id": 3091183284, "lat": 51.0830176, "lon": 3.8582114}, {"type": "node", "id": 3091183285, "lat": 51.0830488, "lon": 3.8581909}, {"type": "node", "id": 3091183294, "lat": 51.0831821, "lon": 3.8589719}, {"type": "node", "id": 3091183295, "lat": 51.0832146, "lon": 3.8589549}, {"type": "node", "id": 3091183302, "lat": 51.0833473, "lon": 3.8597292}, {"type": "node", "id": 3091183303, "lat": 51.0833798, "lon": 3.8597142}, {"type": "node", "id": 3091183312, "lat": 51.0835306, "lon": 3.8605877}, {"type": "node", "id": 3091183314, "lat": 51.0835622, "lon": 3.8605683}, {"type": "node", "id": 3091183323, "lat": 51.0837097, "lon": 3.8614345}, {"type": "node", "id": 3091183324, "lat": 51.0837402, "lon": 3.8614107}, {"type": "node", "id": 3091183331, "lat": 51.0838859, "lon": 3.8622811}, {"type": "node", "id": 3091183332, "lat": 51.0839166, "lon": 3.8622599}, {"type": "node", "id": 3091183342, "lat": 51.0840619, "lon": 3.8631405}, {"type": "node", "id": 3091183344, "lat": 51.0840942, "lon": 3.863122}, {"type": "node", "id": 3091183348, "lat": 51.0841732, "lon": 3.8636903, "tags": {"crossing:barrier": "half", "crossing:bell": "yes", "crossing:light": "yes", "railway": "level_crossing"}}, {"type": "node", "id": 3091183351, "lat": 51.0842092, "lon": 3.8636859, "tags": {"crossing:barrier": "half", "crossing:bell": "yes", "crossing:light": "yes", "railway": "level_crossing"}}, {"type": "node", "id": 3091183353, "lat": 51.0842341, "lon": 3.863992}, {"type": "node", "id": 3091183354, "lat": 51.0842646, "lon": 3.8639673}, {"type": "node", "id": 3091183362, "lat": 51.0844017, "lon": 3.8648355}, {"type": "node", "id": 3091183364, "lat": 51.0844337, "lon": 3.8648167}, {"type": "node", "id": 3091183874, "lat": 51.0845735, "lon": 3.8657109}, {"type": "node", "id": 3091183875, "lat": 51.0846062, "lon": 3.8656965}, {"type": "node", "id": 3091183882, "lat": 51.0847373, "lon": 3.8665536}, {"type": "node", "id": 3091183883, "lat": 51.0847707, "lon": 3.8665437}, {"type": "node", "id": 3091183892, "lat": 51.0849021, "lon": 3.8674209}, {"type": "node", "id": 3091183894, "lat": 51.0849344, "lon": 3.8674068}, {"type": "node", "id": 3091183902, "lat": 51.0850622, "lon": 3.8682728}, {"type": "node", "id": 3091183903, "lat": 51.0850928, "lon": 3.8682502}, {"type": "node", "id": 3091183911, "lat": 51.0852246, "lon": 3.8691544}, {"type": "node", "id": 3091183913, "lat": 51.0852564, "lon": 3.8691316}, {"type": "node", "id": 3091201566, "lat": 51.0797073, "lon": 3.8432222}, {"type": "node", "id": 3091201567, "lat": 51.0797389, "lon": 3.843206}, {"type": "node", "id": 3091235191, "lat": 51.0781708, "lon": 3.8360458}, {"type": "node", "id": 3091235192, "lat": 51.0782028, "lon": 3.8360252}, {"type": "node", "id": 3091235197, "lat": 51.0783522, "lon": 3.8368813}, {"type": "node", "id": 3091235198, "lat": 51.078385, "lon": 3.8368701}, {"type": "node", "id": 3091235204, "lat": 51.0785313, "lon": 3.8377365}, {"type": "node", "id": 3091235205, "lat": 51.0785632, "lon": 3.8377176}, {"type": "node", "id": 3091235212, "lat": 51.0787076, "lon": 3.8385927}, {"type": "node", "id": 3091235213, "lat": 51.0787411, "lon": 3.838578}, {"type": "node", "id": 3091235216, "lat": 51.0788645, "lon": 3.839352}, {"type": "node", "id": 3091235217, "lat": 51.0788971, "lon": 3.8393327}, {"type": "node", "id": 3091235224, "lat": 51.0790452, "lon": 3.8402056}, {"type": "node", "id": 3091235225, "lat": 51.0790774, "lon": 3.840186}, {"type": "node", "id": 3091235230, "lat": 51.0792097, "lon": 3.8409696}, {"type": "node", "id": 3091235231, "lat": 51.0792422, "lon": 3.8409528}, {"type": "node", "id": 3091247461, "lat": 51.0762931, "lon": 3.8277575}, {"type": "node", "id": 3091247463, "lat": 51.0763262, "lon": 3.8277443}, {"type": "node", "id": 3091248566, "lat": 51.0766504, "lon": 3.8293705}, {"type": "node", "id": 3091248567, "lat": 51.0766809, "lon": 3.8293486}, {"type": "node", "id": 3091248572, "lat": 51.0768359, "lon": 3.8302088}, {"type": "node", "id": 3091248573, "lat": 51.076867, "lon": 3.8301888}, {"type": "node", "id": 3091248581, "lat": 51.077027, "lon": 3.8310522}, {"type": "node", "id": 3091248582, "lat": 51.0770595, "lon": 3.8310363}, {"type": "node", "id": 3091248589, "lat": 51.0772245, "lon": 3.8319035}, {"type": "node", "id": 3091248590, "lat": 51.0772577, "lon": 3.8318955}, {"type": "node", "id": 3091248595, "lat": 51.0774248, "lon": 3.8327548}, {"type": "node", "id": 3091248596, "lat": 51.077456, "lon": 3.832731}, {"type": "node", "id": 3091248601, "lat": 51.0776186, "lon": 3.8335879}, {"type": "node", "id": 3091248602, "lat": 51.0776527, "lon": 3.8335795}, {"type": "node", "id": 3091248607, "lat": 51.077791, "lon": 3.8343406}, {"type": "node", "id": 3091248608, "lat": 51.0778232, "lon": 3.8343211}, {"type": "node", "id": 3091248614, "lat": 51.0779511, "lon": 3.8350462, "tags": {"railway": "level_crossing"}}, {"type": "node", "id": 3091248616, "lat": 51.0779848, "lon": 3.835035, "tags": {"railway": "level_crossing"}}, {"type": "node", "id": 3091257962, "lat": 51.0712099, "lon": 3.8047663}, {"type": "node", "id": 3091257964, "lat": 51.071243, "lon": 3.8047502}, {"type": "node", "id": 3091260365, "lat": 51.0714827, "lon": 3.8059986}, {"type": "node", "id": 3091260366, "lat": 51.0715156, "lon": 3.8059818}, {"type": "node", "id": 3091260371, "lat": 51.0720448, "lon": 3.8085417}, {"type": "node", "id": 3091260372, "lat": 51.0720764, "lon": 3.8085179}, {"type": "node", "id": 3091260377, "lat": 51.0726805, "lon": 3.8114122, "tags": {"crossing:barrier": "half", "railway": "level_crossing"}}, {"type": "node", "id": 3091260379, "lat": 51.0727147, "lon": 3.811404, "tags": {"crossing:barrier": "half", "railway": "level_crossing"}}, {"type": "node", "id": 3091260383, "lat": 51.0733744, "lon": 3.8145539}, {"type": "node", "id": 3091260384, "lat": 51.0734079, "lon": 3.8145391}, {"type": "node", "id": 3091260387, "lat": 51.0741066, "lon": 3.817862}, {"type": "node", "id": 3091260388, "lat": 51.0741389, "lon": 3.8178452}, {"type": "node", "id": 3091260391, "lat": 51.0748362, "lon": 3.8211692}, {"type": "node", "id": 3091260392, "lat": 51.0748685, "lon": 3.8211504}, {"type": "node", "id": 3091260394, "lat": 51.0750966, "lon": 3.8223403, "tags": {"crossing:barrier": "half", "railway": "level_crossing"}}, {"type": "node", "id": 3091260395, "lat": 51.0751295, "lon": 3.8223281, "tags": {"crossing:barrier": "half", "railway": "level_crossing"}}, {"type": "node", "id": 3091260398, "lat": 51.0755831, "lon": 3.8245402}, {"type": "node", "id": 3091260399, "lat": 51.075615, "lon": 3.8245237}, {"type": "node", "id": 3091265314, "lat": 51.0698388, "lon": 3.7985631}, {"type": "node", "id": 3091265316, "lat": 51.0698711, "lon": 3.7985478}, {"type": "node", "id": 3091265319, "lat": 51.0699998, "lon": 3.7992899, "tags": {"crossing:barrier": "half", "railway": "level_crossing"}}, {"type": "node", "id": 3091265320, "lat": 51.0700258, "lon": 3.7992465, "tags": {"crossing:barrier": "half", "railway": "level_crossing"}}, {"type": "node", "id": 3091265323, "lat": 51.0702093, "lon": 3.8002342}, {"type": "node", "id": 3091265324, "lat": 51.0702421, "lon": 3.8002206}, {"type": "node", "id": 3091265325, "lat": 51.0705417, "lon": 3.8017463}, {"type": "node", "id": 3091265326, "lat": 51.0705745, "lon": 3.8017234}, {"type": "node", "id": 3091265327, "lat": 51.070877, "lon": 3.8032618}, {"type": "node", "id": 3091265328, "lat": 51.0709093, "lon": 3.8032395}, {"type": "node", "id": 3091271222, "lat": 51.0694831, "lon": 3.7969563}, {"type": "node", "id": 3091271223, "lat": 51.0695153, "lon": 3.7969385}, {"type": "node", "id": 3091345031, "lat": 51.0682701, "lon": 3.7875794}, {"type": "node", "id": 3091345032, "lat": 51.0682706, "lon": 3.7873985}, {"type": "node", "id": 3091345033, "lat": 51.0682706, "lon": 3.7877664}, {"type": "node", "id": 3091345034, "lat": 51.0682717, "lon": 3.7872045}, {"type": "node", "id": 3091345035, "lat": 51.0682728, "lon": 3.7870061}, {"type": "node", "id": 3091345036, "lat": 51.0682734, "lon": 3.7879587}, {"type": "node", "id": 3091345037, "lat": 51.0682761, "lon": 3.7881466}, {"type": "node", "id": 3091345038, "lat": 51.0682767, "lon": 3.7868156}, {"type": "node", "id": 3091345039, "lat": 51.0682794, "lon": 3.7883179}, {"type": "node", "id": 3091345040, "lat": 51.0682811, "lon": 3.7866059}, {"type": "node", "id": 3091345041, "lat": 51.0682838, "lon": 3.7884953}, {"type": "node", "id": 3091345042, "lat": 51.0682871, "lon": 3.7864084}, {"type": "node", "id": 3091345043, "lat": 51.0682887, "lon": 3.7886578}, {"type": "node", "id": 3091345044, "lat": 51.0682937, "lon": 3.7888082}, {"type": "node", "id": 3091345045, "lat": 51.0682948, "lon": 3.7861759}, {"type": "node", "id": 3091345046, "lat": 51.0683003, "lon": 3.788969}, {"type": "node", "id": 3091345047, "lat": 51.0683036, "lon": 3.7859662}, {"type": "node", "id": 3091345048, "lat": 51.0683041, "lon": 3.7873878}, {"type": "node", "id": 3091345049, "lat": 51.0683047, "lon": 3.7875792}, {"type": "node", "id": 3091345050, "lat": 51.0683052, "lon": 3.7872017}, {"type": "node", "id": 3091345051, "lat": 51.0683052, "lon": 3.7877715}, {"type": "node", "id": 3091345052, "lat": 51.0683074, "lon": 3.7870015}, {"type": "node", "id": 3091345053, "lat": 51.0683074, "lon": 3.7879611}, {"type": "node", "id": 3091345054, "lat": 51.0683091, "lon": 3.7891656}, {"type": "node", "id": 3091345055, "lat": 51.0683101, "lon": 3.7881464}, {"type": "node", "id": 3091345056, "lat": 51.0683107, "lon": 3.7868128}, {"type": "node", "id": 3091345057, "lat": 51.0683144, "lon": 3.7857564}, {"type": "node", "id": 3091345058, "lat": 51.0683134, "lon": 3.7883098}, {"type": "node", "id": 3091345059, "lat": 51.0683156, "lon": 3.786603}, {"type": "node", "id": 3091345060, "lat": 51.0683172, "lon": 3.7884868}, {"type": "node", "id": 3091345061, "lat": 51.0683186, "lon": 3.7893626}, {"type": "node", "id": 3091345062, "lat": 51.0683211, "lon": 3.7864047}, {"type": "node", "id": 3091345063, "lat": 51.0683235, "lon": 3.7855666}, {"type": "node", "id": 3091345064, "lat": 51.0683234, "lon": 3.7886524}, {"type": "node", "id": 3091345065, "lat": 51.0683279, "lon": 3.7895409}, {"type": "node", "id": 3091345066, "lat": 51.0683288, "lon": 3.7861704}, {"type": "node", "id": 3091345067, "lat": 51.0683289, "lon": 3.7888032}, {"type": "node", "id": 3091345068, "lat": 51.0683327, "lon": 3.7853798}, {"type": "node", "id": 3091345069, "lat": 51.0683343, "lon": 3.7889627}, {"type": "node", "id": 3091345070, "lat": 51.0683381, "lon": 3.7859703}, {"type": "node", "id": 3091345071, "lat": 51.0683395, "lon": 3.7897244}, {"type": "node", "id": 3091345072, "lat": 51.0683428, "lon": 3.7891592}, {"type": "node", "id": 3091345073, "lat": 51.0683448, "lon": 3.785177}, {"type": "node", "id": 3091345074, "lat": 51.0683484, "lon": 3.785761}, {"type": "node", "id": 3091345075, "lat": 51.0683499, "lon": 3.7898879}, {"type": "node", "id": 3091345076, "lat": 51.0683529, "lon": 3.7893532}, {"type": "node", "id": 3091345077, "lat": 51.0683571, "lon": 3.7855709}, {"type": "node", "id": 3091345078, "lat": 51.0683609, "lon": 3.7900618}, {"type": "node", "id": 3091345079, "lat": 51.0683623, "lon": 3.7895324}, {"type": "node", "id": 3091345080, "lat": 51.0683678, "lon": 3.7853813}, {"type": "node", "id": 3091345081, "lat": 51.0683731, "lon": 3.789719}, {"type": "node", "id": 3091345082, "lat": 51.0683768, "lon": 3.7902593}, {"type": "node", "id": 3091345083, "lat": 51.0683799, "lon": 3.7851847}, {"type": "node", "id": 3091345084, "lat": 51.0683832, "lon": 3.7898809}, {"type": "node", "id": 3091345085, "lat": 51.0683905, "lon": 3.7904498}, {"type": "node", "id": 3091345086, "lat": 51.0683957, "lon": 3.7900503}, {"type": "node", "id": 3091345087, "lat": 51.0684059, "lon": 3.7906324}, {"type": "node", "id": 3091345088, "lat": 51.0684096, "lon": 3.7902443}, {"type": "node", "id": 3091345089, "lat": 51.0684229, "lon": 3.7908116}, {"type": "node", "id": 3091345090, "lat": 51.0684244, "lon": 3.7904396}, {"type": "node", "id": 3091345091, "lat": 51.0684407, "lon": 3.7906225}, {"type": "node", "id": 3091345092, "lat": 51.0684416, "lon": 3.7910135}, {"type": "node", "id": 3091345093, "lat": 51.0684562, "lon": 3.7908066}, {"type": "node", "id": 3091345094, "lat": 51.0684597, "lon": 3.7911952}, {"type": "node", "id": 3091345095, "lat": 51.0684741, "lon": 3.7910007}, {"type": "node", "id": 3091345096, "lat": 51.0684811, "lon": 3.7913936}, {"type": "node", "id": 3091345097, "lat": 51.0684935, "lon": 3.7911824}, {"type": "node", "id": 3091345098, "lat": 51.0685048, "lon": 3.7915999}, {"type": "node", "id": 3091345099, "lat": 51.0685145, "lon": 3.7913813}, {"type": "node", "id": 3091345100, "lat": 51.0685295, "lon": 3.7918114}, {"type": "node", "id": 3091345101, "lat": 51.068537, "lon": 3.7915853}, {"type": "node", "id": 3091345102, "lat": 51.0685558, "lon": 3.7920237}, {"type": "node", "id": 3091345103, "lat": 51.0685626, "lon": 3.7917991}, {"type": "node", "id": 3091345104, "lat": 51.0685822, "lon": 3.7922247}, {"type": "node", "id": 3091345105, "lat": 51.0685883, "lon": 3.7920067}, {"type": "node", "id": 3091345106, "lat": 51.0686107, "lon": 3.7924292}, {"type": "node", "id": 3091345107, "lat": 51.0686139, "lon": 3.7922032}, {"type": "node", "id": 3091345108, "lat": 51.0686409, "lon": 3.7926425}, {"type": "node", "id": 3091345109, "lat": 51.0686418, "lon": 3.7924096}, {"type": "node", "id": 3091345110, "lat": 51.0686701, "lon": 3.792833}, {"type": "node", "id": 3091345111, "lat": 51.0686745, "lon": 3.7926305}, {"type": "node", "id": 3091345112, "lat": 51.0687014, "lon": 3.7930383}, {"type": "node", "id": 3091345113, "lat": 51.068704, "lon": 3.792827}, {"type": "node", "id": 3091345114, "lat": 51.0687338, "lon": 3.7932463}, {"type": "node", "id": 3091345115, "lat": 51.0687358, "lon": 3.7930322}, {"type": "node", "id": 3091345116, "lat": 51.0687684, "lon": 3.7932398}, {"type": "node", "id": 3091345117, "lat": 51.06877, "lon": 3.7934683}, {"type": "node", "id": 3091345118, "lat": 51.0688034, "lon": 3.7934561}, {"type": "node", "id": 3091345119, "lat": 51.0688079, "lon": 3.7936903}, {"type": "node", "id": 3091345120, "lat": 51.0688414, "lon": 3.7936773}, {"type": "node", "id": 3091345121, "lat": 51.068843, "lon": 3.7938869}, {"type": "node", "id": 3091345122, "lat": 51.0688764, "lon": 3.7938751}, {"type": "node", "id": 3091345123, "lat": 51.0688848, "lon": 3.7941203}, {"type": "node", "id": 3091345124, "lat": 51.0689176, "lon": 3.7941025}, {"type": "node", "id": 3091345125, "lat": 51.0689254, "lon": 3.7943379}, {"type": "node", "id": 3091345126, "lat": 51.0689587, "lon": 3.7943237}, {"type": "node", "id": 3091345127, "lat": 51.0689699, "lon": 3.7945686}, {"type": "node", "id": 3091345128, "lat": 51.0690022, "lon": 3.7945536}, {"type": "node", "id": 3091345129, "lat": 51.0690094, "lon": 3.7947687}, {"type": "node", "id": 3091345130, "lat": 51.0690441, "lon": 3.7947612}, {"type": "node", "id": 3091345131, "lat": 51.0690567, "lon": 3.7949977}, {"type": "node", "id": 3091345132, "lat": 51.0690892, "lon": 3.7949824}, {"type": "node", "id": 3091345133, "lat": 51.0691011, "lon": 3.7952109}, {"type": "node", "id": 3091345134, "lat": 51.0691342, "lon": 3.7951975}, {"type": "node", "id": 3091345135, "lat": 51.0691456, "lon": 3.7954198}, {"type": "node", "id": 3091345136, "lat": 51.0691808, "lon": 3.7954138}, {"type": "node", "id": 3091345137, "lat": 51.0691934, "lon": 3.7956426}, {"type": "node", "id": 3091345138, "lat": 51.0692251, "lon": 3.7956239}, {"type": "node", "id": 3091345139, "lat": 51.0692412, "lon": 3.7958637}, {"type": "node", "id": 3091345140, "lat": 51.069274, "lon": 3.7958463}, {"type": "node", "id": 3091345141, "lat": 51.0693171, "lon": 3.7962056}, {"type": "node", "id": 3091345142, "lat": 51.0693493, "lon": 3.796188}, {"type": "node", "id": 3091354784, "lat": 51.068364, "lon": 3.7849177}, {"type": "node", "id": 3091354785, "lat": 51.0683813, "lon": 3.7846894}, {"type": "node", "id": 3091354786, "lat": 51.0683981, "lon": 3.7849299}, {"type": "node", "id": 3091354787, "lat": 51.0683993, "lon": 3.7844755}, {"type": "node", "id": 3091354788, "lat": 51.0684149, "lon": 3.7847065}, {"type": "node", "id": 3091354789, "lat": 51.068416, "lon": 3.7842834}, {"type": "node", "id": 3091354790, "lat": 51.0684309, "lon": 3.784116}, {"type": "node", "id": 3091354791, "lat": 51.0684322, "lon": 3.7844944}, {"type": "node", "id": 3091354792, "lat": 51.0684483, "lon": 3.7843061}, {"type": "node", "id": 3091354793, "lat": 51.0684501, "lon": 3.7839182}, {"type": "node", "id": 3091354794, "lat": 51.0684651, "lon": 3.7841321}, {"type": "node", "id": 3091354795, "lat": 51.0684704, "lon": 3.7837232}, {"type": "node", "id": 3091354796, "lat": 51.068483, "lon": 3.7839381}, {"type": "node", "id": 3091354797, "lat": 51.0684919, "lon": 3.7835283}, {"type": "node", "id": 3091354798, "lat": 51.0685039, "lon": 3.7837403}, {"type": "node", "id": 3091354799, "lat": 51.068514, "lon": 3.7833352}, {"type": "node", "id": 3091354800, "lat": 51.0685242, "lon": 3.7835453}, {"type": "node", "id": 3091354801, "lat": 51.0685379, "lon": 3.7831308}, {"type": "node", "id": 3091354802, "lat": 51.0685457, "lon": 3.783358}, {"type": "node", "id": 3091354803, "lat": 51.0685606, "lon": 3.7829444}, {"type": "node", "id": 3091354804, "lat": 51.0685708, "lon": 3.7831488}, {"type": "node", "id": 3091354805, "lat": 51.0685839, "lon": 3.7827694}, {"type": "node", "id": 3091354806, "lat": 51.0685941, "lon": 3.7829614}, {"type": "node", "id": 3091354807, "lat": 51.0686072, "lon": 3.7825954}, {"type": "node", "id": 3091354808, "lat": 51.0686174, "lon": 3.7827836}, {"type": "node", "id": 3091354809, "lat": 51.0686341, "lon": 3.782408}, {"type": "node", "id": 3091354810, "lat": 51.0686396, "lon": 3.782621}, {"type": "node", "id": 3091354811, "lat": 51.068658, "lon": 3.7822464}, {"type": "node", "id": 3091354812, "lat": 51.0686647, "lon": 3.7824374}, {"type": "node", "id": 3091354813, "lat": 51.0686855, "lon": 3.7820638}, {"type": "node", "id": 3091354814, "lat": 51.0686904, "lon": 3.7822624}, {"type": "node", "id": 3091354815, "lat": 51.0687136, "lon": 3.7818831}, {"type": "node", "id": 3091354816, "lat": 51.0687166, "lon": 3.7820884}, {"type": "node", "id": 3091354817, "lat": 51.0687417, "lon": 3.78171}, {"type": "node", "id": 3091354818, "lat": 51.0687447, "lon": 3.7819096}, {"type": "node", "id": 3091354819, "lat": 51.068771, "lon": 3.781536}, {"type": "node", "id": 3091354820, "lat": 51.0687734, "lon": 3.7817337}, {"type": "node", "id": 3091354821, "lat": 51.0688021, "lon": 3.7815625}, {"type": "node", "id": 3091354822, "lat": 51.0688038, "lon": 3.7813496}, {"type": "node", "id": 3091354823, "lat": 51.068835, "lon": 3.7813704}, {"type": "node", "id": 3091354824, "lat": 51.0688361, "lon": 3.7811661}, {"type": "node", "id": 3091354825, "lat": 51.0688672, "lon": 3.7811907}, {"type": "node", "id": 3091354826, "lat": 51.0688708, "lon": 3.7809759}, {"type": "node", "id": 3091354827, "lat": 51.0689019, "lon": 3.7810015}, {"type": "node", "id": 3091354828, "lat": 51.0689066, "lon": 3.7807942}, {"type": "node", "id": 3091354829, "lat": 51.0689383, "lon": 3.7808122}, {"type": "node", "id": 3091354830, "lat": 51.0689473, "lon": 3.7805822}, {"type": "node", "id": 3091354831, "lat": 51.0689796, "lon": 3.7805992}, {"type": "node", "id": 3091354832, "lat": 51.0689921, "lon": 3.7803625}, {"type": "node", "id": 3091354833, "lat": 51.069022, "lon": 3.7803928}, {"type": "node", "id": 3091354834, "lat": 51.0690351, "lon": 3.780159}, {"type": "node", "id": 3091354835, "lat": 51.0690662, "lon": 3.7801817}, {"type": "node", "id": 3091354836, "lat": 51.0690787, "lon": 3.7799555}, {"type": "node", "id": 3091354837, "lat": 51.0691099, "lon": 3.7799801}, {"type": "node", "id": 3091354838, "lat": 51.0691301, "lon": 3.779731}, {"type": "node", "id": 3091354839, "lat": 51.0691618, "lon": 3.7797547}, {"type": "node", "id": 3091354840, "lat": 51.0691719, "lon": 3.7795494}, {"type": "node", "id": 3091354841, "lat": 51.0692025, "lon": 3.7795816}, {"type": "node", "id": 3091354842, "lat": 51.0692227, "lon": 3.7793364}, {"type": "node", "id": 3091354843, "lat": 51.0692515, "lon": 3.7793705}, {"type": "node", "id": 3091354844, "lat": 51.06927, "lon": 3.7791452}, {"type": "node", "id": 3091354845, "lat": 51.0693005, "lon": 3.7791699}, {"type": "node", "id": 3091354846, "lat": 51.0693321, "lon": 3.7788989}, {"type": "node", "id": 3091354847, "lat": 51.0693608, "lon": 3.7789302}, {"type": "node", "id": 3091354848, "lat": 51.0693829, "lon": 3.7787011}, {"type": "node", "id": 3091354849, "lat": 51.0694128, "lon": 3.7787324}, {"type": "node", "id": 3091354850, "lat": 51.0694343, "lon": 3.7785119}, {"type": "node", "id": 3091354851, "lat": 51.069466, "lon": 3.7785327}, {"type": "node", "id": 3091354852, "lat": 51.0694928, "lon": 3.7782998}, {"type": "node", "id": 3091354853, "lat": 51.0695222, "lon": 3.7783283}, {"type": "node", "id": 3091354854, "lat": 51.0695532, "lon": 3.778082}, {"type": "node", "id": 3091354855, "lat": 51.0695813, "lon": 3.7781152}, {"type": "node", "id": 3091354856, "lat": 51.0696082, "lon": 3.7778928}, {"type": "node", "id": 3091354857, "lat": 51.0696369, "lon": 3.7779222}, {"type": "node", "id": 3091354858, "lat": 51.0696649, "lon": 3.7777007}, {"type": "node", "id": 3091354859, "lat": 51.0696931, "lon": 3.777732}, {"type": "node", "id": 3091354860, "lat": 51.0697265, "lon": 3.7774981}, {"type": "node", "id": 3091354861, "lat": 51.0697552, "lon": 3.7775275}, {"type": "node", "id": 3091354862, "lat": 51.069791, "lon": 3.777287}, {"type": "node", "id": 3091354863, "lat": 51.0698216, "lon": 3.7773145}, {"type": "node", "id": 3091354864, "lat": 51.069849, "lon": 3.7771063}, {"type": "node", "id": 3091355065, "lat": 51.0698777, "lon": 3.7771376}, {"type": "node", "id": 3091355066, "lat": 51.0699088, "lon": 3.7769209}, {"type": "node", "id": 3091355067, "lat": 51.0699393, "lon": 3.7769465}, {"type": "node", "id": 3091355068, "lat": 51.0699574, "lon": 3.7767771}, {"type": "node", "id": 3091355069, "lat": 51.0699895, "lon": 3.7767966}, {"type": "node", "id": 3091355070, "lat": 51.0700188, "lon": 3.7765979}, {"type": "node", "id": 3091355071, "lat": 51.0700544, "lon": 3.776606}, {"type": "node", "id": 3091355074, "lat": 51.070132, "lon": 3.7762743}, {"type": "node", "id": 3091355075, "lat": 51.0701663, "lon": 3.7762868}, {"type": "node", "id": 3091355076, "lat": 51.0701944, "lon": 3.7761012}, {"type": "node", "id": 3091355077, "lat": 51.0702249, "lon": 3.7761238}, {"type": "node", "id": 3091355078, "lat": 51.0702719, "lon": 3.7758909}, {"type": "node", "id": 3091355079, "lat": 51.0702996, "lon": 3.775918}, {"type": "node", "id": 3091355080, "lat": 51.0703392, "lon": 3.7757111}, {"type": "node", "id": 3091355081, "lat": 51.0703624, "lon": 3.775753}, {"type": "node", "id": 3091355082, "lat": 51.0704011, "lon": 3.7755486}, {"type": "node", "id": 3091355083, "lat": 51.0704275, "lon": 3.7755828}, {"type": "node", "id": 3091355084, "lat": 51.0704609, "lon": 3.7753936}, {"type": "node", "id": 3091355086, "lat": 51.0704896, "lon": 3.7754202}, {"type": "node", "id": 3091358476, "lat": 51.0705353, "lon": 3.7752062}, {"type": "node", "id": 3091358477, "lat": 51.0705607, "lon": 3.7752358}, {"type": "node", "id": 3091358478, "lat": 51.0706013, "lon": 3.7750356}, {"type": "node", "id": 3091358479, "lat": 51.0706267, "lon": 3.7750679}, {"type": "node", "id": 3091358480, "lat": 51.070682, "lon": 3.7748283}, {"type": "node", "id": 3091358481, "lat": 51.0707074, "lon": 3.7748642}, {"type": "node", "id": 3091358482, "lat": 51.0707626, "lon": 3.7746236}, {"type": "node", "id": 3091358483, "lat": 51.0707908, "lon": 3.7746524}, {"type": "node", "id": 3091358484, "lat": 51.0713062, "lon": 3.7732419}, {"type": "node", "id": 3091358485, "lat": 51.0713356, "lon": 3.773265}, {"type": "node", "id": 3091370179, "lat": 51.0713764, "lon": 3.7730621}, {"type": "node", "id": 3091370180, "lat": 51.0713969, "lon": 3.7731075}, {"type": "node", "id": 3091370181, "lat": 51.071513, "lon": 3.7727139}, {"type": "node", "id": 3091370182, "lat": 51.0715319, "lon": 3.7727651}, {"type": "node", "id": 3091370183, "lat": 51.0718968, "lon": 3.7717355}, {"type": "node", "id": 3091370184, "lat": 51.0719251, "lon": 3.7717631}, {"type": "node", "id": 3091370185, "lat": 51.0724311, "lon": 3.770373}, {"type": "node", "id": 3091370186, "lat": 51.0724593, "lon": 3.7704024}, {"type": "node", "id": 3091370187, "lat": 51.0729664, "lon": 3.7690104}, {"type": "node", "id": 3091370188, "lat": 51.0729936, "lon": 3.7690444}, {"type": "node", "id": 3091370189, "lat": 51.0732812, "lon": 3.7682066}, {"type": "node", "id": 3091370190, "lat": 51.0733025, "lon": 3.768252}, {"type": "node", "id": 3091370191, "lat": 51.0734198, "lon": 3.7678546}, {"type": "node", "id": 3091370192, "lat": 51.0734416, "lon": 3.7678977}, {"type": "node", "id": 3091370193, "lat": 51.0735232, "lon": 3.7675928}, {"type": "node", "id": 3091370194, "lat": 51.0735526, "lon": 3.7676194}, {"type": "node", "id": 3091636009, "lat": 51.0753485, "lon": 3.7629903, "tags": {"name": "Oostakker", "railway": "crossover", "railway:ref": "FOA"}}, {"type": "node", "id": 3091636010, "lat": 51.0741253, "lon": 3.7660593}, {"type": "node", "id": 3091636011, "lat": 51.0741523, "lon": 3.7660896}, {"type": "node", "id": 3091636012, "lat": 51.0746242, "lon": 3.7647875}, {"type": "node", "id": 3091636013, "lat": 51.0746534, "lon": 3.7648166}, {"type": "node", "id": 3091636014, "lat": 51.074784, "lon": 3.7643815, "tags": {"railway": "switch"}}, {"type": "node", "id": 3091636020, "lat": 51.0751552, "lon": 3.7634332}, {"type": "node", "id": 3091636022, "lat": 51.0752207, "lon": 3.7633667, "tags": {"railway": "switch"}}, {"type": "node", "id": 3091636023, "lat": 51.0753472, "lon": 3.762943}, {"type": "node", "id": 3091636024, "lat": 51.0753665, "lon": 3.7629936}, {"type": "node", "id": 3091636025, "lat": 51.0754492, "lon": 3.7626821}, {"type": "node", "id": 3091636026, "lat": 51.0754687, "lon": 3.7627334}, {"type": "node", "id": 3091636027, "lat": 51.0754949, "lon": 3.7625659}, {"type": "node", "id": 3091636028, "lat": 51.0754859, "lon": 3.7626896, "tags": {"railway": "switch"}}, {"type": "node", "id": 3091636035, "lat": 51.075867, "lon": 3.7616171, "tags": {"railway": "switch"}}, {"type": "node", "id": 3091636036, "lat": 51.0760208, "lon": 3.7612267}, {"type": "node", "id": 3091636038, "lat": 51.07605, "lon": 3.7612522}, {"type": "node", "id": 3091641522, "lat": 51.0760997, "lon": 3.7610234}, {"type": "node", "id": 3091641523, "lat": 51.0761266, "lon": 3.7610556}, {"type": "node", "id": 3091641524, "lat": 51.0761746, "lon": 3.7608269}, {"type": "node", "id": 3091641525, "lat": 51.0762035, "lon": 3.7608559}, {"type": "node", "id": 3091641526, "lat": 51.0762546, "lon": 3.7606198}, {"type": "node", "id": 3091641527, "lat": 51.0762826, "lon": 3.7606454}, {"type": "node", "id": 3091641528, "lat": 51.0763193, "lon": 3.7604471, "tags": {"railway": "signal"}}, {"type": "node", "id": 3091641529, "lat": 51.0763471, "lon": 3.7604749, "tags": {"railway": "signal"}}, {"type": "node", "id": 3091641530, "lat": 51.0763961, "lon": 3.7602383}, {"type": "node", "id": 3091641531, "lat": 51.0764225, "lon": 3.7602714}, {"type": "node", "id": 3091641532, "lat": 51.0764679, "lon": 3.7600361}, {"type": "node", "id": 3091641533, "lat": 51.0764953, "lon": 3.7600659}, {"type": "node", "id": 3091641534, "lat": 51.0765361, "lon": 3.7598314}, {"type": "node", "id": 3091641535, "lat": 51.0765635, "lon": 3.7598612}, {"type": "node", "id": 3091641536, "lat": 51.0765934, "lon": 3.7596522}, {"type": "node", "id": 3091641537, "lat": 51.0766214, "lon": 3.7596795}, {"type": "node", "id": 3091641538, "lat": 51.0766461, "lon": 3.759487}, {"type": "node", "id": 3091641539, "lat": 51.076674, "lon": 3.759511}, {"type": "node", "id": 3091641540, "lat": 51.0767081, "lon": 3.759279}, {"type": "node", "id": 3091641541, "lat": 51.076736, "lon": 3.759303}, {"type": "node", "id": 3091641542, "lat": 51.0767613, "lon": 3.7590875}, {"type": "node", "id": 3091641543, "lat": 51.0767918, "lon": 3.7591041}, {"type": "node", "id": 3091641544, "lat": 51.076816, "lon": 3.7588803}, {"type": "node", "id": 3091641545, "lat": 51.0768455, "lon": 3.7589035}, {"type": "node", "id": 3091641546, "lat": 51.0768661, "lon": 3.7586806}, {"type": "node", "id": 3091641547, "lat": 51.0768966, "lon": 3.758703}, {"type": "node", "id": 3091641548, "lat": 51.0769162, "lon": 3.7584767}, {"type": "node", "id": 3091641549, "lat": 51.0769462, "lon": 3.758495}, {"type": "node", "id": 3091641550, "lat": 51.0769586, "lon": 3.7582901}, {"type": "node", "id": 3091641551, "lat": 51.0769881, "lon": 3.7583084}, {"type": "node", "id": 3091641552, "lat": 51.0770045, "lon": 3.7580698}, {"type": "node", "id": 3091641553, "lat": 51.0770361, "lon": 3.758084}, {"type": "node", "id": 3091641554, "lat": 51.0770459, "lon": 3.7578585}, {"type": "node", "id": 3091641555, "lat": 51.0770774, "lon": 3.7578752}, {"type": "node", "id": 3091641556, "lat": 51.0770815, "lon": 3.7576662}, {"type": "node", "id": 3091641557, "lat": 51.077113, "lon": 3.7576795}, {"type": "node", "id": 3091641558, "lat": 51.0771171, "lon": 3.7574599}, {"type": "node", "id": 3091641559, "lat": 51.0771487, "lon": 3.7574781}, {"type": "node", "id": 3091641560, "lat": 51.0771502, "lon": 3.7572535}, {"type": "node", "id": 3091641561, "lat": 51.0771801, "lon": 3.7570464}, {"type": "node", "id": 3091641562, "lat": 51.0771807, "lon": 3.7572693}, {"type": "node", "id": 3091641563, "lat": 51.0772029, "lon": 3.7568787}, {"type": "node", "id": 3091641564, "lat": 51.0772112, "lon": 3.7570597}, {"type": "node", "id": 3091642565, "lat": 51.077233, "lon": 3.7525357}, {"type": "node", "id": 3091642566, "lat": 51.0772282, "lon": 3.7566666}, {"type": "node", "id": 3091642567, "lat": 51.0772344, "lon": 3.7568879}, {"type": "node", "id": 3091642568, "lat": 51.0772437, "lon": 3.7526468}, {"type": "node", "id": 3091642569, "lat": 51.0772514, "lon": 3.7564619}, {"type": "node", "id": 3091642570, "lat": 51.0772649, "lon": 3.7525321}, {"type": "node", "id": 3091642571, "lat": 51.0772613, "lon": 3.7566783}, {"type": "node", "id": 3091642572, "lat": 51.0772628, "lon": 3.752826}, {"type": "node", "id": 3091642573, "lat": 51.077269, "lon": 3.7562778}, {"type": "node", "id": 3091642574, "lat": 51.0772742, "lon": 3.7526371}, {"type": "node", "id": 3091642575, "lat": 51.0772744, "lon": 3.7529485, "tags": {"railway": "signal"}}, {"type": "node", "id": 3091642576, "lat": 51.077284, "lon": 3.756476}, {"type": "node", "id": 3091642577, "lat": 51.0772876, "lon": 3.7560805}, {"type": "node", "id": 3091642578, "lat": 51.0772887, "lon": 3.7531332}, {"type": "node", "id": 3091642579, "lat": 51.0772928, "lon": 3.752813}, {"type": "node", "id": 3091642580, "lat": 51.0773025, "lon": 3.7558774}, {"type": "node", "id": 3091642581, "lat": 51.0773031, "lon": 3.7533077}, {"type": "node", "id": 3091642582, "lat": 51.0773031, "lon": 3.7562845}, {"type": "node", "id": 3091642583, "lat": 51.0773083, "lon": 3.7529717}, {"type": "node", "id": 3091642584, "lat": 51.0773144, "lon": 3.7556966}, {"type": "node", "id": 3091642585, "lat": 51.077316, "lon": 3.7535042}, {"type": "node", "id": 3091642586, "lat": 51.0773207, "lon": 3.7560954}, {"type": "node", "id": 3091642587, "lat": 51.0773222, "lon": 3.7531361}, {"type": "node", "id": 3091642588, "lat": 51.0773247, "lon": 3.7555198}, {"type": "node", "id": 3091642589, "lat": 51.0773268, "lon": 3.7536785}, {"type": "node", "id": 3091642590, "lat": 51.0773335, "lon": 3.755339}, {"type": "node", "id": 3091642591, "lat": 51.0773341, "lon": 3.7533021}, {"type": "node", "id": 3091642592, "lat": 51.0773356, "lon": 3.7558858}, {"type": "node", "id": 3091642593, "lat": 51.0773366, "lon": 3.7538823}, {"type": "node", "id": 3091642594, "lat": 51.0773408, "lon": 3.7551606}, {"type": "node", "id": 3091642595, "lat": 51.0773439, "lon": 3.7540755}, {"type": "node", "id": 3091642596, "lat": 51.0773454, "lon": 3.754997}, {"type": "node", "id": 3091642597, "lat": 51.0773475, "lon": 3.7557107}, {"type": "node", "id": 3091642598, "lat": 51.077348, "lon": 3.753492}, {"type": "node", "id": 3091642599, "lat": 51.077348, "lon": 3.7548219}, {"type": "node", "id": 3091642600, "lat": 51.0773485, "lon": 3.7542473}, {"type": "node", "id": 3091642601, "lat": 51.0773501, "lon": 3.7546312}, {"type": "node", "id": 3091642602, "lat": 51.0773506, "lon": 3.7544356}, {"type": "node", "id": 3091642603, "lat": 51.0773579, "lon": 3.7555307}, {"type": "node", "id": 3091642604, "lat": 51.0773594, "lon": 3.753677}, {"type": "node", "id": 3091642605, "lat": 51.0773671, "lon": 3.755349}, {"type": "node", "id": 3091642606, "lat": 51.0773687, "lon": 3.7538751}, {"type": "node", "id": 3091642607, "lat": 51.0773739, "lon": 3.7551682}, {"type": "node", "id": 3091642608, "lat": 51.0773759, "lon": 3.7540675}, {"type": "node", "id": 3091642609, "lat": 51.077378, "lon": 3.7550046}, {"type": "node", "id": 3091642610, "lat": 51.0773801, "lon": 3.7542491}, {"type": "node", "id": 3091642611, "lat": 51.0773801, "lon": 3.7548237}, {"type": "node", "id": 3091642612, "lat": 51.0773811, "lon": 3.7546322}, {"type": "node", "id": 3091642613, "lat": 51.0773821, "lon": 3.7544398}, {"type": "node", "id": 3091651011, "lat": 51.0770467, "lon": 3.751235, "tags": {"name": "Y.Bernadettestraat", "railway": "junction", "railway:ref": "YBNDS"}}, {"type": "node", "id": 3091651012, "lat": 51.0768069, "lon": 3.7503285}, {"type": "node", "id": 3091651013, "lat": 51.0768428, "lon": 3.7505033}, {"type": "node", "id": 3091651014, "lat": 51.0768525, "lon": 3.7503154}, {"type": "node", "id": 3091651015, "lat": 51.0768734, "lon": 3.7506651}, {"type": "node", "id": 3091651016, "lat": 51.0768884, "lon": 3.7504926}, {"type": "node", "id": 3091651017, "lat": 51.0769093, "lon": 3.7508518}, {"type": "node", "id": 3091651018, "lat": 51.0769132, "lon": 3.7503057}, {"type": "node", "id": 3091651019, "lat": 51.0769197, "lon": 3.7506544}, {"type": "node", "id": 3091651020, "lat": 51.0769435, "lon": 3.7510385}, {"type": "node", "id": 3091651021, "lat": 51.0769467, "lon": 3.7502927}, {"type": "node", "id": 3091651022, "lat": 51.0769486, "lon": 3.7505016}, {"type": "node", "id": 3091651023, "lat": 51.0769541, "lon": 3.7508268}, {"type": "node", "id": 3091651024, "lat": 51.076973, "lon": 3.7512083}, {"type": "node", "id": 3091651025, "lat": 51.0769781, "lon": 3.7504742}, {"type": "node", "id": 3091651026, "lat": 51.076985, "lon": 3.7507211}, {"type": "node", "id": 3091651027, "lat": 51.0769936, "lon": 3.7510275}, {"type": "node", "id": 3091651028, "lat": 51.077001, "lon": 3.7513757}, {"type": "node", "id": 3091651029, "lat": 51.0770167, "lon": 3.7506987}, {"type": "node", "id": 3091651030, "lat": 51.0770183, "lon": 3.7509339}, {"type": "node", "id": 3091651031, "lat": 51.0770264, "lon": 3.7511932}, {"type": "node", "id": 3091651032, "lat": 51.0770275, "lon": 3.7515354}, {"type": "node", "id": 3091651033, "lat": 51.0770463, "lon": 3.7511214}, {"type": "node", "id": 3091651034, "lat": 51.0770494, "lon": 3.7509132}, {"type": "node", "id": 3091651035, "lat": 51.0770555, "lon": 3.751707}, {"type": "node", "id": 3091651036, "lat": 51.0770576, "lon": 3.7513471}, {"type": "node", "id": 3091651037, "lat": 51.0770769, "lon": 3.7511066}, {"type": "node", "id": 3091651038, "lat": 51.0770822, "lon": 3.7513779}, {"type": "node", "id": 3091651039, "lat": 51.0770818, "lon": 3.7514716}, {"type": "node", "id": 3091651040, "lat": 51.0770993, "lon": 3.7519803, "tags": {"railway": "buffer_stop"}}, {"type": "node", "id": 3091651043, "lat": 51.0771139, "lon": 3.7513748}, {"type": "node", "id": 3091651046, "lat": 51.077147, "lon": 3.7518459, "tags": {"railway": "switch"}}, {"type": "node", "id": 3091651048, "lat": 51.0771593, "lon": 3.7517073}, {"type": "node", "id": 3091654890, "lat": 51.0753274, "lon": 3.7462825}, {"type": "node", "id": 3091654891, "lat": 51.0753663, "lon": 3.7462622}, {"type": "node", "id": 3091654892, "lat": 51.0753862, "lon": 3.7463681}, {"type": "node", "id": 3091654893, "lat": 51.075414, "lon": 3.7463318}, {"type": "node", "id": 3091654894, "lat": 51.0754496, "lon": 3.7464639}, {"type": "node", "id": 3091654895, "lat": 51.0754727, "lon": 3.7464226}, {"type": "node", "id": 3091654896, "lat": 51.0755114, "lon": 3.7465606}, {"type": "node", "id": 3091654897, "lat": 51.0755398, "lon": 3.7465235}, {"type": "node", "id": 3091654898, "lat": 51.0755722, "lon": 3.7466565}, {"type": "node", "id": 3091654899, "lat": 51.0755995, "lon": 3.7466194}, {"type": "node", "id": 3091654900, "lat": 51.075643, "lon": 3.7467751}, {"type": "node", "id": 3091654901, "lat": 51.0756645, "lon": 3.7467304}, {"type": "node", "id": 3091654902, "lat": 51.0757064, "lon": 3.7468835}, {"type": "node", "id": 3091654903, "lat": 51.0757347, "lon": 3.7468481}, {"type": "node", "id": 3091654904, "lat": 51.075774, "lon": 3.7470055}, {"type": "node", "id": 3091654905, "lat": 51.0758034, "lon": 3.74697}, {"type": "node", "id": 3091654906, "lat": 51.0758427, "lon": 3.7471316}, {"type": "node", "id": 3091654907, "lat": 51.0758747, "lon": 3.7471029}, {"type": "node", "id": 3091654908, "lat": 51.0759119, "lon": 3.7472653}, {"type": "node", "id": 3091654909, "lat": 51.0759445, "lon": 3.7472366}, {"type": "node", "id": 3091654910, "lat": 51.0759775, "lon": 3.7473973}, {"type": "node", "id": 3091654911, "lat": 51.0760089, "lon": 3.7473661}, {"type": "node", "id": 3091654912, "lat": 51.0760409, "lon": 3.7475302}, {"type": "node", "id": 3091654913, "lat": 51.0760729, "lon": 3.7475015}, {"type": "node", "id": 3091654914, "lat": 51.0761048, "lon": 3.7476673}, {"type": "node", "id": 3091654915, "lat": 51.0761363, "lon": 3.7476394}, {"type": "node", "id": 3091654916, "lat": 51.0761666, "lon": 3.7478077}, {"type": "node", "id": 3091654917, "lat": 51.0761923, "lon": 3.7477664}, {"type": "node", "id": 3091654918, "lat": 51.0762168, "lon": 3.7479271}, {"type": "node", "id": 3091654919, "lat": 51.0762493, "lon": 3.7478993}, {"type": "node", "id": 3091654920, "lat": 51.0762765, "lon": 3.7480718}, {"type": "node", "id": 3091654921, "lat": 51.076308, "lon": 3.7480439}, {"type": "node", "id": 3091654922, "lat": 51.0763314, "lon": 3.7482114}, {"type": "node", "id": 3091654923, "lat": 51.0763603, "lon": 3.7481785}, {"type": "node", "id": 3091654924, "lat": 51.0763822, "lon": 3.7483459}, {"type": "node", "id": 3091654925, "lat": 51.0764142, "lon": 3.7483206}, {"type": "node", "id": 3091654926, "lat": 51.0764339, "lon": 3.7484922}, {"type": "node", "id": 3091654927, "lat": 51.076466, "lon": 3.748466}, {"type": "node", "id": 3091654928, "lat": 51.0764799, "lon": 3.7486259}, {"type": "node", "id": 3091654929, "lat": 51.0765119, "lon": 3.7486048}, {"type": "node", "id": 3091654930, "lat": 51.0765269, "lon": 3.7487681}, {"type": "node", "id": 3091654931, "lat": 51.0765568, "lon": 3.7487393}, {"type": "node", "id": 3091654932, "lat": 51.0765782, "lon": 3.7489295}, {"type": "node", "id": 3091654933, "lat": 51.0766086, "lon": 3.7488991}, {"type": "node", "id": 3091654934, "lat": 51.0766215, "lon": 3.7490758}, {"type": "node", "id": 3091654935, "lat": 51.0766519, "lon": 3.7490429}, {"type": "node", "id": 3091654936, "lat": 51.0766664, "lon": 3.7492314}, {"type": "node", "id": 3091654937, "lat": 51.0766995, "lon": 3.7492119}, {"type": "node", "id": 3091654938, "lat": 51.0767113, "lon": 3.7493971}, {"type": "node", "id": 3091654939, "lat": 51.0767455, "lon": 3.7493835}, {"type": "node", "id": 3091654940, "lat": 51.0767541, "lon": 3.7495652}, {"type": "node", "id": 3091654941, "lat": 51.0767867, "lon": 3.7495475}, {"type": "node", "id": 3091654942, "lat": 51.0767958, "lon": 3.7497452}, {"type": "node", "id": 3091654943, "lat": 51.0768289, "lon": 3.7497249}, {"type": "node", "id": 3091654944, "lat": 51.076836, "lon": 3.7499176}, {"type": "node", "id": 3091654945, "lat": 51.0768696, "lon": 3.7499057}, {"type": "node", "id": 3091654946, "lat": 51.0768766, "lon": 3.7501111}, {"type": "node", "id": 3091654947, "lat": 51.0769045, "lon": 3.7500692}, {"type": "node", "id": 3091660411, "lat": 51.0751445, "lon": 3.7463658}, {"type": "node", "id": 3091660412, "lat": 51.0751785, "lon": 3.7463507}, {"type": "node", "id": 3091660413, "lat": 51.0752262, "lon": 3.7465005},