{"version": 0.6, "generator": "Overpass API 0.7.62.8 e802775f", "osm3s": {"timestamp_osm_base": "2026-01-13T06:34:49Z", "copyright": "The data included in this document is from www.openstreetmap.org. The data is made available under ODbL."}, "elements": [{"type": "node", "id": 2600832597, "lat": 17.417897, "lon": 78.3400705}, {"type": "node", "id": 2600832598, "lat": 17.4185739, "lon": 78.3389456}, {"type": "node", "id": 2600832599, "lat": 17.4174322, "lon": 78.3381909}, {"type": "node", "id": 2600832600, "lat": 17.4167552, "lon": 78.3393157}, {"type": "node", "id": 4132325566, "lat": 17.4182315, "lon": 78.3395147}, {"type": "node", "id": 6560368876, "lat": 17.3528306, "lon": 78.3345068}, {"type": "node", "id": 6560368877, "lat": 17.3514532, "lon": 78.3345256}, {"type": "node", "id": 6560368878, "lat": 17.3514474, "lon": 78.3340564}, {"type": "node", "id": 6560368879, "lat": 17.3528247, "lon": 78.3340377}, {"type": "node", "id": 6811748994, "lat": 17.4279239, "lon": 78.3240814, "tags": {"addr:district": "Ranga Reddy", "addr:full": "H. No. 5-1/99/A/B, Near Padmasree Gardens, Gowli Doddi, Hyderabad", "addr:postcode": "500032", "addr:state": "Telangana", "amenity": "hospital", "contact:mobile": "7337456268", "email": "info@srijahospitals.com", "name": "Srija Hospital", "source": "OpenGovernmentData", "website": "https://srijahospitals.com/"}}, {"type": "node", "id": 8739430485, "lat": 17.3988443, "lon": 78.3652937, "tags": {"addr:city": "Hyderabad", "addr:housenumber": "Hallmark Empyrean Commercial Complex", "addr:postcode": "500089", "addr:street": "Puppalaguda - Narsingi Road", "amenity": "hospital", "description": "Gynecologist, Fertility specialist, Laparoscopy surgeon, Cosmetic Gynecologist", "healthcare": "hospital", "healthcare:speciality": "gynaecology;maternity;cosmetic;fertility;surgery", "name": "AMVI Hospital", "phone": "+91 9100009669", "website": "https://www.amvihospitals.com/"}}, {"type": "node", "id": 8739449727, "lat": 17.3987165, "lon": 78.3653, "tags": {"addr:city": "Hyderabad", "addr:housenumber": "AMVI Hospital", "addr:postcode": "500089", "addr:street": "Puppalaguda - Narsingi Road", "amenity": "hospital", "description": "Gynecologist, Fertility Specialist, Laparoscopy surgeon, Cosmetic Gynecologist", "email": "amvihospitals@gmail.com", "healthcare": "hospital", "healthcare:speciality": "gynaecology;fertility;surgery;cosmetic", "name": "Dr Shaivalini - Gynecologist", "operator": "Dr Shaivalini", "operator:type": "private", "phone": "9100009669", "website": "https://www.amvihospitals.com/", "wheelchair": "yes"}}, {"type": "node", "id": 9366828721, "lat": 17.3521805, "lon": 78.3340464}, {"type": "node", "id": 10250377758, "lat": 17.4168548, "lon": 78.3391502}, {"type": "node", "id": 12047779405, "lat": 17.4018633, "lon": 78.349914}, {"type": "node", "id": 12047779406, "lat": 17.4019457, "lon": 78.3495358}, {"type": "node", "id": 12047779407, "lat": 17.4015068, "lon": 78.3495054}, {"type": "node", "id": 12047779408, "lat": 17.4015113, "lon": 78.3492836}, {"type": "node", "id": 12047779409, "lat": 17.4013664, "lon": 78.3492929}, {"type": "node", "id": 12047779413, "lat": 17.4011316, "lon": 78.3506388}, {"type": "node", "id": 12047779414, "lat": 17.401321, "lon": 78.3506645}, {"type": "node", "id": 12047779415, "lat": 17.4014748, "lon": 78.3504684}, {"type": "node", "id": 12047779416, "lat": 17.401795, "lon": 78.3502865}, {"type": "node", "id": 12945249862, "lat": 17.4012321, "lon": 78.3501071}, {"type": "node", "id": 12945249863, "lat": 17.4013291, "lon": 78.3495778}, {"type": "way", "id": 254295845, "nodes": [2600832597, 4132325566, 2600832598, 2600832599, 10250377758, 2600832600, 2600832597], "tags": {"addr:district": "Hyderabad", "addr:full": "Plot Number 3, Road Number 2, I.T and Financial District, Nanakramguda, Gachibowli", "addr:postcode": "500032", "addr:state": "Telangana", "amenity": "hospital", "contact:tollfree": "1800 108 1007", "emergency": "yes", "emergency_telephone_code": "040 67000111", "health_facility:type": "Surgical Specialities and Operation Theatres; ICU; ATM; WIFI; Business Centre", "healthcare": "hospital", "healthcare:speciality": "multi specialty", "medical_system": "Allopathic", "name": "Continental Hospitals", "operator:type": "private", "phone": "040-67000000; 040-67000071", "source": "OpenGovernmentData", "website": "https://www.continentalhospitals.com/"}}, {"type": "way", "id": 698602581, "nodes": [6560368879, 6560368876, 6560368877, 6560368878, 9366828721, 6560368879], "tags": {"amenity": "hospital", "building": "yes", "name": "Dr VRK Hospital"}}, {"type": "way", "id": 1300732264, "nodes": [12047779409, 12945249863, 12945249862, 12047779413, 12047779414, 12047779415, 12047779416, 12047779405, 12047779406, 12047779407, 12047779408, 12047779409], "tags": {"amenity": "hospital", "healthcare": "hospital", "name": "Sankaraya Eye Hospital"}}]}