{"version": 0.6, "generator": "Overpass API 0.7.62.8 e802775f", "osm3s": {"timestamp_osm_base": "2026-01-12T19:51:42Z", "copyright": "The data included in this document is from www.openstreetmap.org. The data is made available under ODbL."}, "elements": [{"type": "node", "id": 1118656365, "lat": 12.8351469, "lon": 77.6799019}, {"type": "node", "id": 1989482327, "lat": 12.8095409, "lon": 77.695939}, {"type": "node", "id": 1989482331, "lat": 12.8100044, "lon": 77.6954216}, {"type": "node", "id": 1989482335, "lat": 12.8083422, "lon": 77.6947408}, {"type": "node", "id": 1989482344, "lat": 12.8084665, "lon": 77.6939196}, {"type": "node", "id": 2550433504, "lat": 12.8346225, "lon": 77.6800993}, {"type": "node", "id": 5765893232, "lat": 12.8071411, "lon": 77.6954936}, {"type": "node", "id": 5765893233, "lat": 12.8070092, "lon": 77.6960784}, {"type": "node", "id": 5765893234, "lat": 12.8066784, "lon": 77.6960084}, {"type": "node", "id": 5765893235, "lat": 12.8068574, "lon": 77.6954264}, {"type": "node", "id": 5765893244, "lat": 12.8068049, "lon": 77.6944023}, {"type": "node", "id": 5765893245, "lat": 12.8067629, "lon": 77.6945893}, {"type": "node", "id": 5765893246, "lat": 12.8072585, "lon": 77.6947065}, {"type": "node", "id": 5765893247, "lat": 12.8071657, "lon": 77.695119}, {"type": "node", "id": 5765893248, "lat": 12.8060889, "lon": 77.6948644}, {"type": "node", "id": 5765893249, "lat": 12.8062237, "lon": 77.6942649}, {"type": "node", "id": 5765894557, "lat": 12.8058564, "lon": 77.6935074}, {"type": "node", "id": 5765894570, "lat": 12.8056184, "lon": 77.6940706}, {"type": "node", "id": 5765894572, "lat": 12.8057491, "lon": 77.6940867}, {"type": "node", "id": 5881183541, "lat": 12.8070668, "lon": 77.6946612}, {"type": "node", "id": 7572669019, "lat": 12.79603, "lon": 77.706405, "tags": {"addr:district": "Bengaluru Urban", "addr:full": "Venkateshappa Layout, Chandapura, Bengaluru", "addr:postcode": "562107", "addr:state": "Karnataka", "amenity": "hospital", "name": "Sri Swaranaamrutha Hospital", "source": "Local Knowledge"}}, {"type": "node", "id": 7572669029, "lat": 12.808615, "lon": 77.699385, "tags": {"addr:district": "Bengaluru Urban", "addr:full": "Bommasandra Road, Bangaluru", "addr:postcode": "560099", "addr:state": "Karnataka", "amenity": "hospital", "name": "Global Speciality Hospital", "source": "Local Knowledge"}}, {"type": "node", "id": 7572669037, "lat": 12.8350141, "lon": 77.6953077, "tags": {"addr:district": "Bengaluru Urban", "addr:full": "Kammasandra, Electronic City, Bengaluru", "addr:postcode": "560100", "addr:state": "Karnataka", "amenity": "hospital", "name": "JJ Hospitals", "source": "Local Knowledge"}}, {"type": "node", "id": 7572669047, "lat": 12.826249, "lon": 77.678792, "tags": {"addr:district": "Bengaluru Urban", "addr:full": "Hebbagodi, Bengaluru", "addr:postcode": "560099", "addr:state": "Karnataka", "amenity": "hospital", "name": "Bhumika Hospital", "source": "Local Knowledge"}}, {"type": "node", "id": 7572669050, "lat": 12.796888, "lon": 77.706122, "tags": {"addr:district": "Bengaluru Urban", "addr:full": "Suryanagar, Bengaluru", "addr:postcode": "562107", "addr:state": "Karnataka", "amenity": "hospital", "name": "Naryana Hrudalya", "source": "Local Knowledge"}}, {"type": "node", "id": 8188036050, "lat": 12.8812376, "lon": 77.7516894, "tags": {"addr:full": "Bowring Hospital Rd, Dommasandra, Bengaluru, Karnataka", "addr:state": "Karnataka", "amenity": "hospital", "healthcare": "hospital", "name": "Sri Lakshmi Multi Speciality Hospital"}}, {"type": "node", "id": 10702329252, "lat": 12.8083071, "lon": 77.6952481}, {"type": "node", "id": 11342710964, "lat": 12.8350455, "lon": 77.693987, "tags": {"amenity": "hospital", "name": "JJ Hospital"}}, {"type": "node", "id": 11395887644, "lat": 12.8349735, "lon": 77.6799672, "tags": {"access": "private", "barrier": "gate"}}, {"type": "node", "id": 11402351508, "lat": 12.8347322, "lon": 77.680058, "tags": {"access": "private", "barrier": "gate"}}, {"type": "node", "id": 12525412332, "lat": 12.8076427, "lon": 77.6937246}, {"type": "node", "id": 12525412333, "lat": 12.8068816, "lon": 77.6935852}, {"type": "node", "id": 12536338712, "lat": 12.8015345, "lon": 77.7079091, "tags": {"amenity": "hospital", "check_date": "2025-01-27", "healthcare": "hospital", "name": "Best Hospital", "source": "survey"}}, {"type": "node", "id": 13046364776, "lat": 12.8345774, "lon": 77.6815341}, {"type": "node", "id": 13046402621, "lat": 12.8345742, "lon": 77.6816342}, {"type": "node", "id": 13046402622, "lat": 12.8351024, "lon": 77.6815313}, {"type": "node", "id": 13046404885, "lat": 12.805485, "lon": 77.6946884}, {"type": "node", "id": 13046404888, "lat": 12.8059924, "lon": 77.6947251}, {"type": "node", "id": 13105185520, "lat": 12.8077369, "lon": 77.6939312}, {"type": "node", "id": 13105185521, "lat": 12.8077212, "lon": 77.693738}, {"type": "node", "id": 13105185522, "lat": 12.8059694, "lon": 77.6949286}, {"type": "node", "id": 13105185523, "lat": 12.8066033, "lon": 77.6952465}, {"type": "node", "id": 13105185524, "lat": 12.8065959, "lon": 77.6953717}, {"type": "node", "id": 13105185525, "lat": 12.8068178, "lon": 77.6954172}, {"type": "node", "id": 13105185526, "lat": 12.8066292, "lon": 77.696062}, {"type": "node", "id": 13105185527, "lat": 12.8068807, "lon": 77.6962062}, {"type": "node", "id": 13105185528, "lat": 12.8067845, "lon": 77.6964831}, {"type": "node", "id": 13105185529, "lat": 12.8073183, "lon": 77.6966096}, {"type": "way", "id": 188320000, "nodes": [1989482344, 13105185520, 13105185521, 12525412332, 12525412333, 5765894557, 5765894572, 5765894570, 13046404885, 13046404888, 13105185522, 13105185523, 13105185524, 13105185525, 13105185526, 13105185527, 13105185528, 13105185529, 10702329252, 1989482335, 1989482327, 1989482331, 1989482344], "tags": {"addr:district": "Bengaluru Urban", "addr:full": "258/A Bommasandra Industrial Area Taluk Bommasandra", "addr:postcode": "560099", "addr:state": "Karnataka", "amenity": "hospital", "name": "Narayana Hrudayalaya", "name:kn": "\u0ca8\u0cbe\u0cb0\u0cbe\u0caf\u0ca3 \u0cb9\u0cc3\u0ca6\u0caf\u0cbe\u0cb2\u0caf \u0c86\u0cb8\u0ccd\u0caa\u0ca4\u0ccd\u0cb0\u0cc6", "source": "OpenGovernmentData", "wheelchair": "yes"}}, {"type": "way", "id": 608640663, "nodes": [5765893235, 5765893234, 5765893233, 5765893232, 5765893235], "tags": {"addr:district": "Bengaluru Urban", "addr:full": "29/P2, The Health City Bommanasandra Industrial Area, Hosur Road Bommasandra", "addr:postcode": "560099", "addr:state": "Karnataka", "amenity": "hospital", "building": "yes", "name": "Sparsh Hospital, Bengaluru Urban", "source": "OpenGovernmentData"}}, {"type": "way", "id": 608640669, "nodes": [5765893249, 5765893248, 5765893247, 5765893246, 5881183541, 5765893245, 5765893244, 5765893249], "tags": {"addr:district": "Bengaluru Urban", "addr:full": "258/A, Bommasandra Industrial Area, Anekal Taluk", "addr:postcode": "560099", "addr:state": "Karnataka", "amenity": "hospital", "building": "yes", "name": "Mazumdar Shaw Medical Center", "source": "OpenGovernmentData"}}, {"type": "way", "id": 1419688646, "nodes": [2550433504, 11402351508, 11395887644, 1118656365, 13046402622, 13046402621, 13046364776, 2550433504], "tags": {"addr:full": "Huskur Gate, Electronic City, Bengaluru", "addr:postcode": "560100", "addr:street": "Hosur Road", "amenity": "hospital", "check_date": "2025-07-04", "healthcare": "hospital", "name": "Vimalaya Hospital", "name:kn": "\u0cb5\u0cbf\u0cae\u0cb2\u0caf \u0c86\u0cb8\u0ccd\u0caa\u0ca4\u0ccd\u0cb0\u0cc6"}}]}