{"version": 0.6, "generator": "Overpass API 0.7.62.8 e802775f", "osm3s": {"timestamp_osm_base": "2026-01-16T05:24:00Z", "copyright": "The data included in this document is from www.openstreetmap.org. The data is made available under ODbL."}, "elements": [{"type": "node", "id": 1404527230, "lat": 55.617735, "lon": 13.0543672}, {"type": "node", "id": 1404527232, "lat": 55.6177914, "lon": 13.0523828}, {"type": "node", "id": 1404527235, "lat": 55.6177748, "lon": 13.0534395}, {"type": "node", "id": 1404527237, "lat": 55.6182473, "lon": 13.0522567}, {"type": "node", "id": 1404527239, "lat": 55.6187472, "lon": 13.0545232}, {"type": "node", "id": 1404527242, "lat": 55.6176415, "lon": 13.0544454}, {"type": "node", "id": 1404527245, "lat": 55.6177127, "lon": 13.054212}, {"type": "node", "id": 1404527247, "lat": 55.6178005, "lon": 13.0552018}, {"type": "node", "id": 1984157843, "lat": 55.6185365, "lon": 13.0568037}, {"type": "node", "id": 1984157949, "lat": 55.6189605, "lon": 13.0563533}, {"type": "node", "id": 2829522425, "lat": 55.617292, "lon": 13.0359345, "tags": {"addr:city": "Malm\u00f6", "addr:country": "SE", "addr:housenumber": "2", "addr:postcode": "21124", "addr:street": "Br\u00e4nn\u00f6gatan", "amenity": "school", "name": "TAU hantverksskola", "operator": "TAU Learning AB"}}, {"type": "node", "id": 9682712873, "lat": 55.6131563, "lon": 13.0013913, "tags": {"amenity": "school", "name": "Medborgarskolan"}}, {"type": "way", "id": 126783175, "nodes": [1404527237, 1404527239, 1984157949, 1984157843, 1404527247, 1404527242, 1404527230, 1404527245, 1404527235, 1404527232, 1404527237], "tags": {"amenity": "school", "name": "Segev\u00e5ngsskolan"}}]}