{"version": 0.6, "generator": "Overpass API 0.7.62.8 e802775f", "osm3s": {"timestamp_osm_base": "2026-01-13T07:28:53Z", "copyright": "The data included in this document is from www.openstreetmap.org. The data is made available under ODbL."}, "elements": [{"type": "node", "id": 347168743, "lat": 19.0560779, "lon": 72.8267648}, {"type": "node", "id": 347168744, "lat": 19.0554778, "lon": 72.8267854}, {"type": "node", "id": 347168745, "lat": 19.0554818, "lon": 72.8271174}, {"type": "node", "id": 347168746, "lat": 19.0549057, "lon": 72.8271253}, {"type": "node", "id": 347168747, "lat": 19.0549122, "lon": 72.8275145}, {"type": "node", "id": 347168748, "lat": 19.0560954, "lon": 72.8274859}, {"type": "node", "id": 2449734759, "lat": 19.0549066, "lon": 72.827198, "tags": {"access": "private", "barrier": "gate", "name": "Gate 2"}}, {"type": "node", "id": 2449734760, "lat": 19.0549103, "lon": 72.8274255, "tags": {"access": "private", "barrier": "gate", "name": "Gate 1"}}, {"type": "node", "id": 2449734777, "lat": 19.055701, "lon": 72.8267823, "tags": {"access": "private", "barrier": "gate", "name": "Gate 3"}}, {"type": "node", "id": 5090930970, "lat": 19.0066529, "lon": 72.8179411, "tags": {"amenity": "hospital", "name": "Peoples Mobile Hospitals"}}, {"type": "node", "id": 7051070010, "lat": 19.0050283, "lon": 72.8225555, "tags": {"addr:district": "Mumbai", "addr:full": "3Road Floor, Sadhana House Behind Mahindra Towers, Pandurang Budhkar Marg, Worli Mumbai", "addr:postcode": "400018", "addr:state": "Maharashtra", "amenity": "hospital", "name": "Reliance Life Sciences Pvt. Ltd", "source": "OpenGovernmentData"}}, {"type": "node", "id": 7064364272, "lat": 19.0128124, "lon": 72.8225863, "tags": {"addr:district": "Mumbai", "addr:full": "Pupala Sadan", "addr:postcode": "400030", "addr:state": "Maharashtra", "amenity": "hospital", "name": "Worli Hospital For Women", "source": "OpenGovernmentData"}}, {"type": "node", "id": 7066374709, "lat": 19.053611, "lon": 72.8246194, "tags": {"addr:district": "Mumbai", "addr:full": "13, Hill Road, Bandra (W)", "addr:postcode": "400050", "addr:state": "Maharashtra", "amenity": "hospital", "name": "Sushama Patkar Maternity ( and Surgical) Home - Bandra", "source": "OpenGovernmentData"}}, {"type": "node", "id": 7081965757, "lat": 19.0520436, "lon": 72.8238114, "tags": {"addr:district": "Mumbai", "addr:full": "Opp Mehboob Sutdio, Hill Road , Bandra West", "addr:postcode": "400050", "addr:state": "Maharashtra", "amenity": "hospital", "name": "Vision Laser Surgery Centre", "source": "OpenGovernmentData"}}, {"type": "node", "id": 7225067153, "lat": 19.0017314, "lon": 72.816903, "tags": {"addr:district": "Mumbai", "addr:full": "BDD Chawls Worli, behind Poddar Hospital", "addr:postcode": "400018", "addr:state": "Maharashtra", "amenity": "hospital", "name": "ESIS Hospital WORLI", "source": "OpenGovernmentData"}}, {"type": "node", "id": 7225067192, "lat": 19.0022803, "lon": 72.8162624, "tags": {"addr:district": "Mumbai", "addr:full": "Dr Annie Besant Road, B Wing, BDD Chawls Worli", "addr:postcode": "400018", "addr:state": "Maharashtra", "amenity": "hospital", "name": "Poddar Hospital", "source": "OpenGovernmentData"}}, {"type": "node", "id": 7664032219, "lat": 19.015443, "lon": 72.8261774, "tags": {"addr:district": "Mumbai City", "addr:full": "Old Prabhadevi Road, G-South Ward, Dadar West, Prabhadevi, Mumbai", "addr:postcode": "400025", "addr:state": "Maharastra", "amenity": "hospital", "healthcare": "hospital", "healthcare:speciality": "general", "name": "BMC Hospital", "source": "Local Knowledge"}}, {"type": "node", "id": 9441680530, "lat": 19.0554479, "lon": 72.8271482, "tags": {"amenity": "hospital", "healthcare": "hospital"}}, {"type": "node", "id": 10242737058, "lat": 19.0559475, "lon": 72.8267709, "tags": {"barrier": "gate", "name": "Gate 4"}}, {"type": "way", "id": 31213763, "nodes": [347168743, 10242737058, 2449734777, 347168744, 347168745, 347168746, 2449734759, 2449734760, 347168747, 347168748, 347168743], "tags": {"addr:district": "Mumbai", "addr:full": "St.Andrew's Road,Bandra West,Bandra", "addr:postcode": "400050", "addr:state": "Maharashtra", "addr:street": "St. Andrew Road", "amenity": "hospital", "healthcare": "hospital", "name": "Holy Family Hospital, Mumbai", "opening_hours": "Mo-Fr 08:00-17:00", "phone": "(022 30610555 )", "source": "OpenGovernmentData", "wikidata": "Q5885495", "wikipedia": "en:Holy Family Hospital, Mumbai"}}]}