{"version": 0.6, "generator": "Overpass API 0.7.62.8 e802775f", "osm3s": {"timestamp_osm_base": "2026-01-15T00:07:05Z", "copyright": "The data included in this document is from www.openstreetmap.org. The data is made available under ODbL."}, "elements": [{"type": "node", "id": 12169739, "lat": 43.2851519, "lon": 5.3842236, "tags": {"alt_name": "Prado Castellane; M\u00e9tro Castellane", "bus": "yes", "name": "Castellane", "name:oc": "Castelana", "public_transport": "stop_position", "source:name:oc": "ieo-bdtopoc"}}, {"type": "node", "id": 12170201, "lat": 43.2802162, "lon": 5.378386, "tags": {"bus": "yes", "name": "Montebello", "name:oc": "Montebello", "public_transport": "stop_position", "source:name:oc": "ieo-bdtopoc"}}, {"type": "node", "id": 21313836, "lat": 43.2899249, "lon": 5.3713052, "tags": {"bus": "yes", "name": "Puget Moulet", "name:oc": "Puget - Molet", "public_transport": "stop_position", "source:name:oc": "ieo-bdtopoc"}}, {"type": "node", "id": 26491408, "lat": 43.2651467, "lon": 5.3908217, "tags": {"bus": "yes", "name": "Grand Saint-Giniez", "name:oc": "Sant Gini\u00e8is Villatge", "public_transport": "stop_position", "source:name:oc": "ieo-bdtopoc"}}, {"type": "node", "id": 26750609, "lat": 43.2997136, "lon": 5.4046532}, {"type": "node", "id": 26750610, "lat": 43.2986749, "lon": 5.4049606}, {"type": "node", "id": 26750611, "lat": 43.2978075, "lon": 5.4054854}, {"type": "node", "id": 26750612, "lat": 43.296902, "lon": 5.4063956}, {"type": "node", "id": 26750613, "lat": 43.2967261, "lon": 5.4066266}, {"type": "node", "id": 26750614, "lat": 43.2956086, "lon": 5.4091532}, {"type": "node", "id": 26750616, "lat": 43.2933357, "lon": 5.4164572}, {"type": "node", "id": 27782664, "lat": 43.2791296, "lon": 5.4127534, "tags": {"bus": "yes", "name": "Fifi Turin", "name:oc": "Fifi-Turin", "public_transport": "stop_position", "source:name:oc": "ieo-bdtopoc"}}, {"type": "node", "id": 33780885, "lat": 43.279267, "lon": 5.3875063, "tags": {"bus": "yes", "name": "Prado P\u00e9rier", "name:oc": "Prad\u00f2t - Perier", "public_transport": "stop_position", "source:name:oc": "ieo-bdtopoc"}}, {"type": "node", "id": 33781123, "lat": 43.2925353, "lon": 5.3840502, "tags": {"bus": "yes", "name": "M\u00e9tro Notre-Dame du Mont", "name:oc": "M\u00e8tro N\u00f2stra D\u00f2na dau Mont", "public_transport": "stop_position", "source:name:oc": "ieo-bdtopoc"}}, {"type": "node", "id": 33781148, "lat": 43.2952496, "lon": 5.3907994}, {"type": "node", "id": 33781149, "lat": 43.2954428, "lon": 5.3939673}, {"type": "node", "id": 33781150, "lat": 43.2954238, "lon": 5.3936519}, {"type": "node", "id": 33781154, "lat": 43.2955909, "lon": 5.3965175}, {"type": "node", "id": 33781155, "lat": 43.2956713, "lon": 5.3978684}, {"type": "node", "id": 33781593, "lat": 43.2931474, "lon": 5.4014763, "tags": {"bus": "yes", "name": "Sakakini Jeanne d'Arc", "name:oc": "Sakakini - Joana d\u2019Arc", "public_transport": "stop_position", "source:name:oc": "ieo-bdtopoc"}}, {"type": "node", "id": 33781594, "lat": 43.2930395, "lon": 5.4014354, "tags": {"bus": "yes", "name": "Sakakini Jeanne d'Arc", "name:oc": "Sakakini - Joana d\u2019Arc", "public_transport": "stop_position", "source:name:oc": "ieo-bdtopoc"}}, {"type": "node", "id": 246674113, "lat": 43.2687636, "lon": 5.3951634}, {"type": "node", "id": 246674114, "lat": 43.2686826, "lon": 5.3954696}, {"type": "node", "id": 246674115, "lat": 43.2686436, "lon": 5.3956909}, {"type": "node", "id": 246674116, "lat": 43.2686199, "lon": 5.3959254}, {"type": "node", "id": 246674117, "lat": 43.2686207, "lon": 5.3961978}, {"type": "node", "id": 246674118, "lat": 43.2686627, "lon": 5.3965022}, {"type": "node", "id": 246674119, "lat": 43.2687707, "lon": 5.3968837}, {"type": "node", "id": 246674120, "lat": 43.2688431, "lon": 5.3970624}, {"type": "node", "id": 246674122, "lat": 43.2691009, "lon": 5.3974881}, {"type": "node", "id": 246674123, "lat": 43.2696301, "lon": 5.3984458}, {"type": "node", "id": 246674124, "lat": 43.2697147, "lon": 5.398815}, {"type": "node", "id": 246674125, "lat": 43.2697501, "lon": 5.3992186}, {"type": "node", "id": 246674126, "lat": 43.2697684, "lon": 5.3997123}, {"type": "node", "id": 246674127, "lat": 43.2697882, "lon": 5.4000408}, {"type": "node", "id": 246674128, "lat": 43.2698563, "lon": 5.4004814}, {"type": "node", "id": 246674129, "lat": 43.2699676, "lon": 5.4008345}, {"type": "node", "id": 246674130, "lat": 43.2701965, "lon": 5.4013651}, {"type": "node", "id": 246674131, "lat": 43.2712786, "lon": 5.4037472}, {"type": "node", "id": 246674132, "lat": 43.2713882, "lon": 5.4040511}, {"type": "node", "id": 246674133, "lat": 43.2714144, "lon": 5.4041443, "tags": {"level": "1", "railway": "buffer_stop"}}, {"type": "node", "id": 246675589, "lat": 43.2689892, "lon": 5.394696}, {"type": "node", "id": 246675590, "lat": 43.2694203, "lon": 5.3940595}, {"type": "node", "id": 246675591, "lat": 43.2699205, "lon": 5.3935548}, {"type": "node", "id": 246675592, "lat": 43.2708681, "lon": 5.3929415}, {"type": "node", "id": 250931985, "lat": 43.2974698, "lon": 5.4057777, "tags": {"railway": "switch", "source": "BDOrtho IGN"}}, {"type": "node", "id": 250932021, "lat": 43.2787713, "lon": 5.3996266, "tags": {"railway": "buffer_stop"}}, {"type": "node", "id": 250932022, "lat": 43.2788324, "lon": 5.4002673}, {"type": "node", "id": 250932023, "lat": 43.2789372, "lon": 5.4007818}, {"type": "node", "id": 250932024, "lat": 43.2791093, "lon": 5.401352}, {"type": "node", "id": 250932025, "lat": 43.2792441, "lon": 5.4016652}, {"type": "node", "id": 250932026, "lat": 43.2795856, "lon": 5.4023108}, {"type": "node", "id": 250932027, "lat": 43.2801294, "lon": 5.4033352}, {"type": "node", "id": 250932029, "lat": 43.2807177, "lon": 5.4041482}, {"type": "node", "id": 250932030, "lat": 43.2809095, "lon": 5.4043539}, {"type": "node", "id": 250932032, "lat": 43.2833092, "lon": 5.4062666}, {"type": "node", "id": 250932033, "lat": 43.2841799, "lon": 5.4068656}, {"type": "node", "id": 250932034, "lat": 43.2844965, "lon": 5.4070167}, {"type": "node", "id": 250932035, "lat": 43.2848149, "lon": 5.407135}, {"type": "node", "id": 250932036, "lat": 43.2854713, "lon": 5.407274}, {"type": "node", "id": 250932037, "lat": 43.2861341, "lon": 5.4072716}, {"type": "node", "id": 250932038, "lat": 43.2867978, "lon": 5.4071624}, {"type": "node", "id": 250932040, "lat": 43.2904193, "lon": 5.4065793}, {"type": "node", "id": 250932041, "lat": 43.2917339, "lon": 5.4063685}, {"type": "node", "id": 250932042, "lat": 43.2924025, "lon": 5.4063087}, {"type": "node", "id": 250932043, "lat": 43.2929277, "lon": 5.406357}, {"type": "node", "id": 250932044, "lat": 43.2936488, "lon": 5.4065561}, {"type": "node", "id": 250932045, "lat": 43.2947112, "lon": 5.4068883}, {"type": "node", "id": 250932046, "lat": 43.2953319, "lon": 5.4069502}, {"type": "node", "id": 250932047, "lat": 43.2958648, "lon": 5.4068622}, {"type": "node", "id": 250932048, "lat": 43.2962093, "lon": 5.4067394, "tags": {"crossing:barrier": "no", "level": "0", "railway": "crossing"}}, {"type": "node", "id": 250932375, "lat": 43.2925589, "lon": 5.4209105}, {"type": "node", "id": 250932376, "lat": 43.2927193, "lon": 5.4198743}, {"type": "node", "id": 250932377, "lat": 43.2930215, "lon": 5.4178715}, {"type": "node", "id": 250932378, "lat": 43.2931664, "lon": 5.4171695}, {"type": "node", "id": 262628140, "lat": 43.2855792, "lon": 5.3721744, "tags": {"bus": "yes", "name": "Ascenseur", "name:oc": "Ascensor", "public_transport": "stop_position", "source:name:oc": "ieo-bdtopoc"}}, {"type": "node", "id": 267217209, "lat": 43.2998896, "lon": 5.4007542, "tags": {"railway": "tram_crossing"}}, {"type": "node", "id": 269351315, "lat": 43.2959335, "lon": 5.4022058}, {"type": "node", "id": 269351946, "lat": 43.2958768, "lon": 5.4012461}, {"type": "node", "id": 269351950, "lat": 43.2961685, "lon": 5.4059565}, {"type": "node", "id": 269570227, "lat": 43.2937994, "lon": 5.4096309}, {"type": "node", "id": 270075865, "lat": 43.2909993, "lon": 5.4001161, "tags": {"bench": "yes", "bin": "yes", "bus": "yes", "highway": "bus_stop", "name": "M\u00e9tro La Timone", "name:oc": "M\u00e8tro La Timona", "public_transport": "platform", "route_ref": "54;91;72;540", "shelter": "yes", "source:name:oc": "ieo-bdtopoc", "wheelchair": "yes"}}, {"type": "node", "id": 270682207, "lat": 43.2917468, "lon": 5.4086695, "tags": {"bus": "yes", "name": "Saint-Pierre Sainte-Th\u00e9r\u00e8se", "name:oc": "Sant P\u00e8ire - Santa Ter\u00e8sa", "public_transport": "stop_position", "source:name:oc": "ieo-bdtopoc"}}, {"type": "node", "id": 270683599, "lat": 43.2859606, "lon": 5.4128924, "tags": {"bus": "yes", "name": "Cabassud Timone", "name:oc": "Cabassud - Timona", "public_transport": "stop_position", "source:name:oc": "ieo-bdtopoc"}}, {"type": "node", "id": 288467282, "lat": 43.2987114, "lon": 5.402428}, {"type": "node", "id": 288467666, "lat": 43.2966075, "lon": 5.4054783, "tags": {"level": "0", "name": "La Blancarde", "name:oc": "La Blancarda", "network": "RTM", "operator": "R\u00e9gie des Transports Marseillais", "public_transport": "stop_position", "railway": "tram_stop", "tram": "yes", "wheelchair": "yes"}}, {"type": "node", "id": 288467671, "lat": 43.3032649, "lon": 5.3923612, "tags": {"name": "Palais Longchamp", "name:oc": "Longchamp", "network": "RTM", "operator": "R\u00e9gie des Transports Marseillais", "public_transport": "stop_position", "railway": "tram_stop", "tram": "yes", "wheelchair": "yes"}}, {"type": "node", "id": 288467679, "lat": 43.2989117, "lon": 5.3763887}, {"type": "node", "id": 288467681, "lat": 43.2998792, "lon": 5.371182, "tags": {"name": "Sadi Carnot", "name:oc": "Sadi Carn\u00f2t", "public_transport": "stop_position", "railway": "tram_stop", "tram": "yes"}}, {"type": "node", "id": 288467683, "lat": 43.3021684, "lon": 5.3693102, "tags": {"name": "R\u00e9publique Dames", "name:oc": "Republica - N\u00f2blei D\u00f2nas", "network": "RTM", "operator": "R\u00e9gie des Transports M\u00e9tropolitains", "public_transport": "stop_position", "railway": "tram_stop", "tram": "yes"}}, {"type": "node", "id": 288467722, "lat": 43.2995027, "lon": 5.4012679}, {"type": "node", "id": 288467724, "lat": 43.2994316, "lon": 5.3852203}, {"type": "node", "id": 288467727, "lat": 43.2969135, "lon": 5.3793345}, {"type": "node", "id": 288467728, "lat": 43.2965822, "lon": 5.3783935}, {"type": "node", "id": 288467729, "lat": 43.296669, "lon": 5.3776495}, {"type": "node", "id": 288467730, "lat": 43.2990616, "lon": 5.3760702, "tags": {"railway": "tram_crossing"}}, {"type": "node", "id": 304962861, "lat": 43.2979661, "lon": 5.4138908, "tags": {"bus": "yes", "name": "Coll\u00e8ge Darius Milhaud", "name:oc": "Coll\u00e8gi D\u00e0rius Milhaud", "public_transport": "stop_position", "source:name:oc": "ieo-bdtopoc"}}, {"type": "node", "id": 308849443, "lat": 43.299867, "lon": 5.3851809}, {"type": "node", "id": 308849444, "lat": 43.2998106, "lon": 5.3851084}, {"type": "node", "id": 308849467, "lat": 43.3000564, "lon": 5.3852884, "tags": {"bus": "yes", "highway": "bus_stop", "level": "0", "name": "R\u00e9form\u00e9s - Canebi\u00e8re", "name:oc": "Reformats - Canebiera", "network": "RTM", "network:wikidata": "Q3454986", "operator": "R\u00e9gie des Transports Marseillais", "public_transport": "stop_position", "source:name:oc": "ieo-bdtopoc"}}, {"type": "node", "id": 340047969, "lat": 43.3049435, "lon": 5.3670739}, {"type": "node", "id": 343594871, "lat": 43.2862329, "lon": 5.3846563, "tags": {"level": "-3", "name": "Castellane", "name:oc": "Castelana", "network": "RTM", "operator": "R\u00e9gie des Transports Marseillais", "public_transport": "stop_position", "railway": "stop", "subway": "yes", "wikidata": "Q16662245", "wikipedia": "fr:Castellane (m\u00e9tro de Marseille)"}}, {"type": "node", "id": 343594872, "lat": 43.2713258, "lon": 5.3926491, "tags": {"layer": "-2", "level": "-2", "name": "Rond-Point du Prado", "name:oc": "Rotonda dau Prad\u00f2t", "network": "RTM", "operator": "R\u00e9gie des Transports Marseillais", "public_transport": "stop_position", "railway": "stop", "station": "subway", "subway": "yes", "wikidata": "Q3441679", "wikipedia": "fr:Rond-point du Prado (m\u00e9tro de Marseille)"}}, {"type": "node", "id": 343594935, "lat": 43.2794522, "lon": 5.3876325, "tags": {"layer": "-3", "level": "-3", "name": "P\u00e9rier", "name:oc": "Perier", "network": "RTM", "operator": "R\u00e9gie des Transports Marseillais", "public_transport": "stop_position", "railway": "stop", "subway": "yes", "wikidata": "Q3411914", "wikipedia": "fr:P\u00e9rier (m\u00e9tro de Marseille)"}}, {"type": "node", "id": 344142654, "lat": 43.2958683, "lon": 5.3704267}, {"type": "node", "id": 344142655, "lat": 43.2958966, "lon": 5.3704209}, {"type": "node", "id": 364620139, "lat": 43.2710978, "lon": 5.392394, "tags": {"bus": "yes", "description": "Ligne 44", "name": "M\u00e9tro Rond-Point du Prado", "name:oc": "M\u00e8tro Rotonda dau Prad\u00f2t", "public_transport": "stop_position", "source:name:oc": "ieo-bdtopoc"}}, {"type": "node", "id": 364622599, "lat": 43.2974322, "lon": 5.3811854}, {"type": "node", "id": 364622758, "lat": 43.2679227, "lon": 5.3939047, "tags": {"bus": "yes", "name": "Michelet Huveaune", "name:oc": "Michelet - V\u00e8una", "public_transport": "stop_position", "source:name:oc": "ieo-bdtopoc"}}, {"type": "node", "id": 364622818, "lat": 43.2659667, "lon": 5.3950102, "tags": {"bus": "yes", "name": "Michelet Ramon", "name:oc": "Michelet - Ramon", "public_transport": "stop_position", "source:name:oc": "ieo-bdtopoc"}}, {"type": "node", "id": 364881009, "lat": 43.2673765, "lon": 5.3894276, "tags": {"bus": "yes", "name": "Mazargues Etienne Milan", "name:oc": "Marsangues - Est\u00e8ve Millan", "public_transport": "stop_position", "source:name:oc": "ieo-bdtopoc"}}, {"type": "node", "id": 364881010, "lat": 43.2688862, "lon": 5.3886436, "tags": {"bench": "no", "bin": "no", "bus": "yes", "highway": "bus_stop", "lit": "yes", "name": "Mazargues N\u00e9gresko", "name:oc": "Marsangues - Negresko", "public_transport": "platform", "shelter": "no", "source:name:oc": "ieo-bdtopoc", "tactile_paving": "no"}}, {"type": "node", "id": 364881011, "lat": 43.2695558, "lon": 5.3898222, "tags": {"bench": "yes", "bin": "yes", "bus": "yes", "check_date:shelter": "2023-04-15", "highway": "bus_stop", "lit": "yes", "name": "N\u00e9gresko Paulet", "name:oc": "Negresko - Paulet", "public_transport": "platform", "shelter": "yes", "source:name:oc": "ieo-bdtopoc", "tactile_paving": "yes"}}, {"type": "node", "id": 391323474, "lat": 43.298491, "lon": 5.3766236, "tags": {"name": "Belsunce Alcazar", "name:oc": "Belsunce - Alcazar", "public_transport": "stop_position", "railway": "tram_stop", "tram": "yes"}}, {"type": "node", "id": 391497869, "lat": 43.2708075, "lon": 5.3864607, "tags": {"bench": "yes", "bin": "yes", "bus": "yes", "check_date:shelter": "2025-04-01", "highway": "bus_stop", "lit": "no", "name": "Saint-Giniez", "name:oc": "Sant Gini\u00e8is", "public_transport": "platform", "shelter": "yes", "source:name:oc": "ieo-bdtopoc", "tactile_paving": "no"}}, {"type": "node", "id": 393138363, "lat": 43.2721435, "lon": 5.3917429, "tags": {"amenity": "bicycle_rental", "bicycle_rental": "docking_station", "capacity": "40", "name": "Prado - Michelet", "name:oc": "Prad\u00f2t - Michelet", "network": "lev\u00e9lo", "operator": "Inurba Mobility", "ref": "ce4bhhp2rcd13ifvqfm0", "website": "https://levelo.ampmetropole.fr/"}}, {"type": "node", "id": 401867688, "lat": 43.2653479, "lon": 5.4088407, "tags": {"bus": "yes", "name": "Antide Boyer", "name:oc": "Antida Boier", "public_transport": "stop_position", "survey:date": "2023-06-08"}}, {"type": "node", "id": 405211766, "lat": 43.2728793, "lon": 5.3855605, "tags": {"bench": "yes", "bin": "no", "bus": "yes", "highway": "bus_stop", "lit": "no", "name": "Paradis Mistral", "name:oc": "Parad\u00eds - Mistral", "public_transport": "platform", "shelter": "yes", "source:name:oc": "ieo-bdtopoc", "tactile_paving": "no"}}, {"type": "node", "id": 409931926, "lat": 43.2924994, "lon": 5.383698, "tags": {"level": "-3", "name": "Notre-Dame-du-Mont - Cours Julien", "name:oc": "N\u00f2stra D\u00f2na dau Mont - Cors Julian", "network": "RTM", "operator": "R\u00e9gie des Transports Marseillais", "public_transport": "stop_position", "railway": "stop", "subway": "yes"}}, {"type": "node", "id": 409931942, "lat": 43.2968361, "lon": 5.3811767, "tags": {"layer": "-3", "level": "-3", "name": "Noailles", "name:oc": "Noalhas", "public_transport": "stop_position", "railway": "stop", "station": "subway", "subway": "yes", "wheelchair": "no"}}, {"type": "node", "id": 409933782, "lat": 43.2731342, "lon": 5.3990658, "tags": {"bus": "yes", "name": "Teisseire Montfuron", "name:oc": "Teisseire - Montfuron", "operator": "RTM", "public_transport": "stop_position", "source:name:oc": "ieo-bdtopoc"}}, {"type": "node", "id": 410294865, "lat": 43.3030838, "lon": 5.3952305}, {"type": "node", "id": 410314224, "lat": 43.302318, "lon": 5.3970663, "tags": {"name": "Cinq Avenues", "name:oc": "Cinc Avengudas", "network": "RTM", "operator": "R\u00e9gie des Transports Marseillais", "public_transport": "stop_position", "railway": "tram_stop", "tram": "yes", "wheelchair": "yes"}}, {"type": "node", "id": 410314354, "lat": 43.3003121, "lon": 5.4000754, "tags": {"name": "Foch Sakakini", "name:oc": "Foch - Sakakini", "network": "RTM", "operator": "R\u00e9gie des Transports Marseillais", "public_transport": "stop_position", "railway": "tram_stop", "tram": "yes", "wheelchair": "yes"}}, {"type": "node", "id": 410314977, "lat": 43.298135, "lon": 5.4032764, "tags": {"name": "Foch Boisson", "name:oc": "Foch - Boisson", "network": "RTM", "operator": "R\u00e9gie des Transports Marseillais", "public_transport": "stop_position", "railway": "tram_stop", "tram": "yes", "wheelchair": "yes"}}, {"type": "node", "id": 410315746, "lat": 43.2960045, "lon": 5.4060799, "tags": {"railway": "tram_crossing"}}, {"type": "node", "id": 410318111, "lat": 43.300026, "lon": 5.3855097, "tags": {"level": "0", "name": "R\u00e9form\u00e9s Canebi\u00e8re", "name:oc": "Reformats - Canebiera", "network": "RTM", "operator": "R\u00e9gie des Transports Marseillais", "public_transport": "stop_position", "railway": "tram_stop", "tram": "yes", "wheelchair": "yes"}}, {"type": "node", "id": 410318187, "lat": 43.2977469, "lon": 5.3816519, "tags": {"name": "Noailles", "name:oc": "Noailles", "network": "RTM", "operator": "R\u00e9gie des transprts m\u00e9tropolitains", "public_transport": "stop_position", "railway": "tram_stop", "tram": "yes"}}, {"type": "node", "id": 410329103, "lat": 43.2950372, "lon": 5.3872102}, {"type": "node", "id": 410330384, "lat": 43.2951803, "lon": 5.3896054, "tags": {"bus": "yes", "name": "Eug\u00e8ne Pierre", "name:oc": "Eugeni P\u00e8ire", "public_transport": "stop_position", "source:name:oc": "ieo-bdtopoc"}}, {"type": "node", "id": 410333251, "lat": 43.2967576, "lon": 5.3812268, "tags": {"layer": "-1", "level": "-1", "name": "Noailles", "name:oc": "Noalhas", "network": "RTM", "operator": "R\u00e9gie des Transports Marseillais", "public_transport": "stop_position", "railway": "tram_stop", "tram": "yes", "wheelchair": "yes"}}, {"type": "node", "id": 410333252, "lat": 43.2968831, "lon": 5.3811872, "tags": {"layer": "-1", "level": "-1", "railway": "buffer_stop"}}, {"type": "node", "id": 410334260, "lat": 43.2951654, "lon": 5.3892548}, {"type": "node", "id": 410334473, "lat": 43.2956296, "lon": 5.3971378, "tags": {"name": "George", "name:oc": "J\u00f2rgi", "network": "RTM", "operator": "R\u00e9gie des Transports Marseillais", "public_transport": "stop_position", "railway": "tram_stop", "tram": "yes", "wheelchair": "yes"}}, {"type": "node", "id": 410334785, "lat": 43.2959021, "lon": 5.4017061, "tags": {"name": "Jean Martin", "name:oc": "Joan Martin", "network": "RTM", "operator": "R\u00e9gie des Transports Marseillais", "public_transport": "stop_position", "railway": "tram_stop", "tram": "yes", "wheelchair": "yes"}}, {"type": "node", "id": 410335407, "lat": 43.2961187, "lon": 5.4058512}, {"type": "node", "id": 410335408, "lat": 43.2960537, "lon": 5.4060124}, {"type": "node", "id": 410338306, "lat": 43.2950977, "lon": 5.38829}, {"type": "node", "id": 410340135, "lat": 43.2947118, "lon": 5.4333078}, {"type": "node", "id": 410340137, "lat": 43.2946285, "lon": 5.4323021, "tags": {"name": "La Grognarde", "name:oc": "La Gronharda", "public_transport": "stop_position", "railway": "tram_stop", "tram": "yes"}}, {"type": "node", "id": 410340140, "lat": 43.2944024, "lon": 5.4317636, "tags": {"railway": "tram_crossing"}}, {"type": "node", "id": 410340143, "lat": 43.2942013, "lon": 5.4303722}, {"type": "node", "id": 410340145, "lat": 43.2942643, "lon": 5.4293519}, {"type": "node", "id": 410340147, "lat": 43.2943117, "lon": 5.4290416, "tags": {"name": "Air-Bel", "name:oc": "Aireb\u00e8u", "network": "RTM", "operator": "R\u00e9gie des Transports Marseillais", "public_transport": "stop_position", "railway": "tram_stop", "tram": "yes", "wheelchair": "yes"}}, {"type": "node", "id": 410340150, "lat": 43.2944992, "lon": 5.4281851}, {"type": "node", "id": 410340153, "lat": 43.29493, "lon": 5.4273134}, {"type": "node", "id": 410340155, "lat": 43.2953238, "lon": 5.42615}, {"type": "node", "id": 410340158, "lat": 43.2954034, "lon": 5.4250373}, {"type": "node", "id": 410340159, "lat": 43.2953509, "lon": 5.4241338}, {"type": "node", "id": 410340162, "lat": 43.2949586, "lon": 5.4224915, "tags": {"name": "La Boiseraie", "name:oc": "La Boscareda", "network": "RTM", "operator": "R\u00e9gie des Transports Marseillais", "public_transport": "stop_position", "railway": "tram_stop", "train": "yes", "tram": "yes", "wheelchair": "yes"}}, {"type": "node", "id": 410340169, "lat": 43.2948852, "lon": 5.42174}, {"type": "node", "id": 410340172, "lat": 43.2948877, "lon": 5.4215071}, {"type": "node", "id": 410340174, "lat": 43.2948985, "lon": 5.4213595}, {"type": "node", "id": 410340177, "lat": 43.2949897, "lon": 5.4198395}, {"type": "node", "id": 410340179, "lat": 43.2950161, "lon": 5.4192399, "tags": {"name": "La Parette", "name:oc": "La Pareta", "network": "RTM", "operator": "R\u00e9gie des Transports Marseillais", "public_transport": "stop_position", "railway": "tram_stop", "tram": "yes", "wheelchair": "yes"}}, {"type": "node", "id": 410340182, "lat": 43.2949153, "lon": 5.4184516}, {"type": "node", "id": 410340185, "lat": 43.2947852, "lon": 5.4183758}, {"type": "node", "id": 410340187, "lat": 43.2915337, "lon": 5.4168512}, {"type": "node", "id": 410340190, "lat": 43.2915428, "lon": 5.4166464}, {"type": "node", "id": 410340195, "lat": 43.2918636, "lon": 5.4146507}, {"type": "node", "id": 410340201, "lat": 43.2918376, "lon": 5.4139656, "tags": {"name": "Saint-Pierre", "name:oc": "Sant P\u00e8ire", "network": "RTM", "operator": "R\u00e9gie des Transports Marseillais", "public_transport": "stop_position", "railway": "tram_stop", "tram": "yes", "wheelchair": "yes"}}, {"type": "node", "id": 410340204, "lat": 43.2929159, "lon": 5.4114385}, {"type": "node", "id": 410340206, "lat": 43.2929137, "lon": 5.411392}, {"type": "node", "id": 410340209, "lat": 43.2928119, "lon": 5.4101501}, {"type": "node", "id": 410340212, "lat": 43.2928392, "lon": 5.4099725}, {"type": "node", "id": 410340214, "lat": 43.2929802, "lon": 5.4098151}, {"type": "node", "id": 410340217, "lat": 43.2933526, "lon": 5.4097422}, {"type": "node", "id": 410340220, "lat": 43.2934503, "lon": 5.4097267}, {"type": "node", "id": 410340222, "lat": 43.2940334, "lon": 5.4096197, "tags": {"name": "Sainte-Th\u00e9r\u00e8se", "name:oc": "Santa Ter\u00e8sa", "network": "RTM", "operator": "R\u00e9gie des Transports Marseillais", "public_transport": "stop_position", "railway": "tram_stop", "tram": "yes", "wheelchair": "yes"}}, {"type": "node", "id": 410340235, "lat": 43.2943705, "lon": 5.4095272}, {"type": "node", "id": 410340238, "lat": 43.2945943, "lon": 5.4089017}, {"type": "node", "id": 410340240, "lat": 43.2953104, "lon": 5.4073088}, {"type": "node", "id": 410340243, "lat": 43.2954151, "lon": 5.4069078}, {"type": "node", "id": 410340245, "lat": 43.2954408, "lon": 5.4067735}, {"type": "node", "id": 410340247, "lat": 43.2955217, "lon": 5.4064853}, {"type": "node", "id": 412850530, "lat": 43.2701527, "lon": 5.3933919, "tags": {"source": "cadastre-dgi-fr source : Direction G\u00e9n\u00e9rale des Imp\u00f4ts - Cadastre ; mise \u00e0 jour : 2009"}}, {"type": "node", "id": 423373233, "lat": 43.2990423, "lon": 5.3859962, "tags": {"bus": "yes", "name": "Roosevelt R\u00e9form\u00e9s", "name:oc": "Roosevelt - Reformats", "public_transport": "stop_position", "source:name:oc": "ieo-bdtopoc"}}, {"type": "node", "id": 428239944, "lat": 43.2682445, "lon": 5.3846928, "tags": {"bus": "yes", "name": "Prado Saint-Exup\u00e9ry", "name:oc": "Prad\u00f2t - Sant-Esup\u00e8ri", "public_transport": "stop_position", "source:name:oc": "ieo-bdtopoc"}}, {"type": "node", "id": 442589620, "lat": 43.3129738, "lon": 5.4032841}, {"type": "node", "id": 442589622, "lat": 43.3103291, "lon": 5.4019721}, {"type": "node", "id": 442589623, "lat": 43.3091365, "lon": 5.4014558, "tags": {"layer": "-3", "level": "-3", "name": "Chartreux", "name:oc": "Chartr\u00f3s", "network": "RTM", "operator": "R\u00e9gie des Transports Marseillais", "public_transport": "stop_position", "railway": "stop", "station": "subway", "subway": "yes", "tunnel": "yes", "wikidata": "Q2961299", "wikipedia": "fr:Chartreux (m\u00e9tro de Marseille)"}}, {"type": "node", "id": 442589624, "lat": 43.3041592, "lon": 5.3963067, "tags": {"layer": "-3", "level": "-3", "name": "Cinq Avenues Longchamp", "name:oc": "Cinc Avengudas - Longchamp", "network": "RTM", "operator": "R\u00e9gie des Transports Marseillais", "public_transport": "stop_position", "railway": "stop", "station": "subway", "subway": "yes", "tunnel": "yes", "wikidata": "Q2972843", "wikipedia": "fr:Cinq Avenues - Longchamp (m\u00e9tro de Marseille)"}}, {"type": "node", "id": 442589626, "lat": 43.3002995, "lon": 5.3742947, "tags": {"layer": "-3", "level": "-3", "name": "Colbert", "name:oc": "Colb\u00e8rt", "public_transport": "stop_position", "railway": "stop", "subway": "yes"}}, {"type": "node", "id": 442589627, "lat": 43.2955687, "lon": 5.3741962, "tags": {"layer": "-3", "level": "-3", "name": "Vieux Port", "name:oc": "P\u00f2rt Vi\u00e8lh", "network": "RTM", "operator": "R\u00e9gie des Transports Marseillais", "public_transport": "stop_position", "railway": "stop", "source:name:oc": "ieo-bdtopoc", "subway": "yes", "tunnel": "yes", "wheelchair": "no", "wikidata": "Q3558063", "wikipedia": "fr:Vieux-Port - H\u00f4tel de Ville (m\u00e9tro de Marseille)"}}, {"type": "node", "id": 442589630, "lat": 43.2881097, "lon": 5.3919764, "tags": {"layer": "-3", "level": "-3", "name": "Baille", "name:oc": "Baile", "network": "RTM", "operator": "R\u00e9gie des Transports Marseillais", "public_transport": "stop_position", "railway": "stop", "station": "subway", "subway": "yes", "tunnel": "yes", "wheelchair": "no", "wikidata": "Q2879865", "wikipedia": "fr:Baille (m\u00e9tro de Marseille)"}}, {"type": "node", "id": 442589631, "lat": 43.2911325, "lon": 5.4004203, "tags": {"layer": "-3", "level": "-3", "name": "La Timone", "name:oc": "La Timona", "network": "RTM", "operator": "R\u00e9gie des Transports Marseillais", "public_transport": "stop_position", "railway": "stop", "station": "subway", "subway": "yes", "tunnel": "yes", "wheelchair": "no", "wikidata": "Q3213154", "wikipedia": "fr:La Timone (m\u00e9tro de Marseille)"}}, {"type": "node", "id": 452659380, "lat": 43.2857488, "lon": 5.3827874, "tags": {"source": "cadastre-dgi-fr source : Direction G\u00e9n\u00e9rale des Imp\u00f4ts - Cadastre ; mise \u00e0 jour : 2009"}}, {"type": "node", "id": 452659381, "lat": 43.2871389, "lon": 5.3793844, "tags": {"source": "cadastre-dgi-fr source : Direction G\u00e9n\u00e9rale des Imp\u00f4ts - Cadastre ; mise \u00e0 jour : 2009"}}, {"type": "node", "id": 452659382, "lat": 43.2860378, "lon": 5.380647, "tags": {"source": "cadastre-dgi-fr source : Direction G\u00e9n\u00e9rale des Imp\u00f4ts - Cadastre ; mise \u00e0 jour : 2009"}}, {"type": "node", "id": 452659383, "lat": 43.2884667, "lon": 5.3788329, "tags": {"source": "cadastre-dgi-fr source : Direction G\u00e9n\u00e9rale des Imp\u00f4ts - Cadastre ; mise \u00e0 jour : 2009"}}, {"type": "node", "id": 452659384, "lat": 43.2857828, "lon": 5.3818185, "tags": {"source": "cadastre-dgi-fr source : Direction G\u00e9n\u00e9rale des Imp\u00f4ts - Cadastre ; mise \u00e0 jour : 2009"}}, {"type": "node", "id": 452659385, "lat": 43.286699, "lon": 5.3796327, "tags": {"source": "cadastre-dgi-fr source : Direction G\u00e9n\u00e9rale des Imp\u00f4ts - Cadastre ; mise \u00e0 jour : 2009"}}, {"type": "node", "id": 452659387, "lat": 43.291062, "lon": 5.377471, "tags": {"source": "cadastre-dgi-fr source : Direction G\u00e9n\u00e9rale des Imp\u00f4ts - Cadastre ; mise \u00e0 jour : 2009"}}, {"type": "node", "id": 452659388, "lat": 43.2929712, "lon": 5.3745722, "tags": {"source": "cadastre-dgi-fr source : Direction G\u00e9n\u00e9rale des Imp\u00f4ts - Cadastre ; mise \u00e0 jour : 2009"}}, {"type": "node", "id": 452659389, "lat": 43.2913647, "lon": 5.3771641, "tags": {"source": "cadastre-dgi-fr source : Direction G\u00e9n\u00e9rale des Imp\u00f4ts - Cadastre ; mise \u00e0 jour : 2009"}}, {"type": "node", "id": 452659390, "lat": 43.2924527, "lon": 5.3753277, "tags": {"source": "cadastre-dgi-fr source : Direction G\u00e9n\u00e9rale des Imp\u00f4ts - Cadastre ; mise \u00e0 jour : 2009"}}, {"type": "node", "id": 452659391, "lat": 43.297595, "lon": 5.3740043, "tags": {"source": "cadastre-dgi-fr source : Direction G\u00e9n\u00e9rale des Imp\u00f4ts - Cadastre ; mise \u00e0 jour : 2009"}}, {"type": "node", "id": 452659393, "lat": 43.3007035, "lon": 5.3820581, "tags": {"source": "cadastre-dgi-fr source : Direction G\u00e9n\u00e9rale des Imp\u00f4ts - Cadastre ; mise \u00e0 jour : 2009"}}, {"type": "node", "id": 452659414, "lat": 43.286528, "lon": 5.3837199, "tags": {"source": "cadastre-dgi-fr source : Direction G\u00e9n\u00e9rale des Imp\u00f4ts - Cadastre ; mise \u00e0 jour : 2009"}}, {"type": "node", "id": 452659415, "lat": 43.2885449, "lon": 5.383919, "tags": {"source": "cadastre-dgi-fr source : Direction G\u00e9n\u00e9rale des Imp\u00f4ts - Cadastre ; mise \u00e0 jour : 2009"}}, {"type": "node", "id": 452659416, "lat": 43.291843, "lon": 5.3839145, "tags": {"source": "cadastre-dgi-fr source : Direction G\u00e9n\u00e9rale des Imp\u00f4ts - Cadastre ; mise \u00e0 jour : 2009"}}, {"type": "node", "id": 452659417, "lat": 43.2908105, "lon": 5.3840696, "tags": {"source": "cadastre-dgi-fr source : Direction G\u00e9n\u00e9rale des Imp\u00f4ts - Cadastre ; mise \u00e0 jour : 2009"}}, {"type": "node", "id": 452659418, "lat": 43.2984664, "lon": 5.3810564, "tags": {"source": "cadastre-dgi-fr source : Direction G\u00e9n\u00e9rale des Imp\u00f4ts - Cadastre ; mise \u00e0 jour : 2009"}}, {"type": "node", "id": 452659419, "lat": 43.2996151, "lon": 5.3812573, "tags": {"source": "cadastre-dgi-fr source : Direction G\u00e9n\u00e9rale des Imp\u00f4ts - Cadastre ; mise \u00e0 jour : 2009"}}, {"type": "node", "id": 452659420, "lat": 43.3003367, "lon": 5.3813212, "tags": {"source": "cadastre-dgi-fr source : Direction G\u00e9n\u00e9rale des Imp\u00f4ts - Cadastre ; mise \u00e0 jour : 2009"}}, {"type": "node", "id": 452659421, "lat": 43.3006405, "lon": 5.3744083, "tags": {"source": "cadastre-dgi-fr source : Direction G\u00e9n\u00e9rale des Imp\u00f4ts - Cadastre ; mise \u00e0 jour : 2009"}}, {"type": "node", "id": 452659425, "lat": 43.2998534, "lon": 5.3845631, "tags": {"source": "cadastre-dgi-fr source : Direction G\u00e9n\u00e9rale des Imp\u00f4ts - Cadastre ; mise \u00e0 jour : 2009"}}, {"type": "node", "id": 452659426, "lat": 43.3001768, "lon": 5.3830315, "tags": {"source": "cadastre-dgi-fr source : Direction G\u00e9n\u00e9rale des Imp\u00f4ts - Cadastre ; mise \u00e0 jour : 2009"}}, {"type": "node", "id": 452659428, "lat": 43.2999714, "lon": 5.3836073, "tags": {"source": "cadastre-dgi-fr source : Direction G\u00e9n\u00e9rale des Imp\u00f4ts - Cadastre ; mise \u00e0 jour : 2009"}}, {"type": "node", "id": 452659429, "lat": 43.3006352, "lon": 5.3866349, "tags": {"source": "cadastre-dgi-fr source : Direction G\u00e9n\u00e9rale des Imp\u00f4ts - Cadastre ; mise \u00e0 jour : 2009"}}, {"type": "node", "id": 452659431, "lat": 43.3041141, "lon": 5.395978, "tags": {"source": "cadastre-dgi-fr source : Direction G\u00e9n\u00e9rale des Imp\u00f4ts - Cadastre ; mise \u00e0 jour : 2009"}}, {"type": "node", "id": 452659432, "lat": 43.3037444, "lon": 5.3935981, "tags": {"source": "cadastre-dgi-fr source : Direction G\u00e9n\u00e9rale des Imp\u00f4ts - Cadastre ; mise \u00e0 jour : 2009"}}, {"type": "node", "id": 452659434, "lat": 43.3045542, "lon": 5.3981833, "tags": {"source": "cadastre-dgi-fr source : Direction G\u00e9n\u00e9rale des Imp\u00f4ts - Cadastre ; mise \u00e0 jour : 2009"}}, {"type": "node", "id": 452659443, "lat": 43.3139237, "lon": 5.4039588, "tags": {"source": "cadastre-dgi-fr source : Direction G\u00e9n\u00e9rale des Imp\u00f4ts - Cadastre ; mise \u00e0 jour : 2009"}}, {"type": "node", "id": 452659445, "lat": 43.2947232, "lon": 5.3742963, "tags": {"source": "cadastre-dgi-fr source : Direction G\u00e9n\u00e9rale des Imp\u00f4ts - Cadastre ; mise \u00e0 jour : 2009"}}, {"type": "node", "id": 452659446, "lat": 43.2858721, "lon": 5.3834334, "tags": {"source": "cadastre-dgi-fr source : Direction G\u00e9n\u00e9rale des Imp\u00f4ts - Cadastre ; mise \u00e0 jour : 2009"}}, {"type": "node", "id": 452659447, "lat": 43.2857444, "lon": 5.3822988, "tags": {"source": "cadastre-dgi-fr source : Direction G\u00e9n\u00e9rale des Imp\u00f4ts - Cadastre ; mise \u00e0 jour : 2009"}}, {"type": "node", "id": 452659448, "lat": 43.2858557, "lon": 5.3812442, "tags": {"source": "cadastre-dgi-fr source : Direction G\u00e9n\u00e9rale des Imp\u00f4ts - Cadastre ; mise \u00e0 jour : 2009"}}, {"type": "node", "id": 452659449, "lat": 43.2862134, "lon": 5.3802351, "tags": {"source": "cadastre-dgi-fr source : Direction G\u00e9n\u00e9rale des Imp\u00f4ts - Cadastre ; mise \u00e0 jour : 2009"}}, {"type": "node", "id": 452662575, "lat": 43.2990164, "lon": 5.3762589, "tags": {"source": "cadastre-dgi-fr source : Direction G\u00e9n\u00e9rale des Imp\u00f4ts - Cadastre ; mise \u00e0 jour : 2009"}}, {"type": "node", "id": 452662576, "lat": 43.2989741, "lon": 5.3763275, "tags": {"source": "cadastre-dgi-fr source : Direction G\u00e9n\u00e9rale des Imp\u00f4ts - Cadastre ; mise \u00e0 jour : 2009"}}, {"type": "node", "id": 452662577, "lat": 43.2989975, "lon": 5.3762947, "tags": {"source": "cadastre-dgi-fr source : Direction G\u00e9n\u00e9rale des Imp\u00f4ts - Cadastre ; mise \u00e0 jour : 2009"}}, {"type": "node", "id": 452662578, "lat": 43.2994129, "lon": 5.3715947}, {"type": "node", "id": 452662579, "lat": 43.2993804, "lon": 5.3716635}, {"type": "node", "id": 452662583, "lat": 43.2994423, "lon": 5.3715514}, {"type": "node", "id": 452662584, "lat": 43.2965251, "lon": 5.3778336, "tags": {"source": "cadastre-dgi-fr source : Direction G\u00e9n\u00e9rale des Imp\u00f4ts - Cadastre ; mise \u00e0 jour : 2009"}}, {"type": "node", "id": 452662585, "lat": 43.296506, "lon": 5.3779161, "tags": {"source": "cadastre-dgi-fr source : Direction G\u00e9n\u00e9rale des Imp\u00f4ts - Cadastre ; mise \u00e0 jour : 2009"}}, {"type": "node", "id": 452662586, "lat": 43.2965628, "lon": 5.3777599, "tags": {"source": "cadastre-dgi-fr source : Direction G\u00e9n\u00e9rale des Imp\u00f4ts - Cadastre ; mise \u00e0 jour : 2009"}}, {"type": "node", "id": 452662849, "lat": 43.2983952, "lon": 5.3741152, "tags": {"bench": "yes", "bin": "yes", "bus": "yes", "highway": "bus_stop", "lit": "yes", "name": "Barbusse Colbert", "name:oc": "Barbusse - Colbert", "public_transport": "platform", "shelter": "yes", "source:name:oc": "ieo-bdtopoc", "tactile_paving": "yes", "wheelchair": "no"}}, {"type": "node", "id": 452664123, "lat": 43.2695167, "lon": 5.3865294, "tags": {"amenity": "shelter", "name": "Prado Saint-Giniez", "name:oc": "Prad\u00f2t - Sant Gini\u00e8is", "shelter_type": "public_transport"}}, {"type": "node", "id": 452664126, "lat": 43.2706266, "lon": 5.3885805, "tags": {"amenity": "shelter", "name": "Prado Saint-Giniez", "name:oc": "Prad\u00f2t - Sant Gini\u00e8is", "network": "RTM", "operator": "R\u00e9gie des Transports Marseillais", "shelter_type": "public_transport"}}, {"type": "node", "id": 498630869, "lat": 43.2768552, "lon": 5.372529, "tags": {"bus": "yes", "name": "Estrangin Colonies", "name:oc": "Estrangin - Colonias", "public_transport": "stop_position", "source:name:oc": "ieo-bdtopoc"}}, {"type": "node", "id": 507035213, "lat": 43.268298, "lon": 5.4139413, "tags": {"bus": "yes", "name": "Claudel Mairie 9-10", "name:oc": "Claudel - Comuna 9-10", "public_transport": "stop_position"}}, {"type": "node", "id": 507035223, "lat": 43.2708259, "lon": 5.4080633, "tags": {"bus": "yes", "name": "Romain Rolland Belle Ombre", "name:oc": "Roman Rolland - B\u00e8la Ombra", "public_transport": "stop_position"}}, {"type": "node", "id": 507035227, "lat": 43.273896, "lon": 5.4141552, "tags": {"bus": "yes", "name": "La Sauvag\u00e8re", "name:oc": "La Sauvatgiera", "public_transport": "stop_position"}}, {"type": "node", "id": 519063832, "lat": 43.3035382, "lon": 5.3932952, "tags": {"source": "cadastre-dgi-fr source : Direction G\u00e9n\u00e9rale des Imp\u00f4ts - Cadastre ; mise \u00e0 jour : 2009"}}, {"type": "node", "id": 519063838, "lat": 43.3028612, "lon": 5.3961615, "tags": {"source": "cadastre-dgi-fr source : Direction G\u00e9n\u00e9rale des Imp\u00f4ts - Cadastre ; mise \u00e0 jour : 2009"}}, {"type": "node", "id": 519063839, "lat": 43.3035184, "lon": 5.3929188, "tags": {"barrier": "bus_trap", "source": "cadastre-dgi-fr source : Direction G\u00e9n\u00e9rale des Imp\u00f4ts - Cadastre ; mise \u00e0 jour : 2009"}}, {"type": "node", "id": 521681641, "lat": 43.3015219, "lon": 5.388612, "tags": {"name": "Longchamp National", "name:oc": "Nacionau", "network": "RTM", "operator": "R\u00e9gie des Transports Marseillais", "public_transport": "stop_position", "railway": "tram_stop", "source": "cadastre-dgi-fr source : Direction G\u00e9n\u00e9rale des Imp\u00f4ts - Cadastre;mise \u00e0 jour : 2009", "tram": "yes", "wheelchair": "yes"}}, {"type": "node", "id": 521681647, "lat": 43.2997283, "lon": 5.3850619, "tags": {"source": "cadastre-dgi-fr source : Direction G\u00e9n\u00e9rale des Imp\u00f4ts - Cadastre ; mise \u00e0 jour : 2009"}}, {"type": "node", "id": 521681651, "lat": 43.2996367, "lon": 5.3850643, "tags": {"source": "cadastre-dgi-fr source : Direction G\u00e9n\u00e9rale des Imp\u00f4ts - Cadastre ; mise \u00e0 jour : 2009"}}, {"type": "node", "id": 521681655, "lat": 43.2995491, "lon": 5.3851146, "tags": {"source": "cadastre-dgi-fr source : Direction G\u00e9n\u00e9rale des Imp\u00f4ts - Cadastre ; mise \u00e0 jour : 2009"}}, {"type": "node", "id": 521681657, "lat": 43.2993734, "lon": 5.3852725, "tags": {"source": "cadastre-dgi-fr source : Direction G\u00e9n\u00e9rale des Imp\u00f4ts - Cadastre ; mise \u00e0 jour : 2009"}}, {"type": "node", "id": 521681661, "lat": 43.2992944, "lon": 5.3853432, "tags": {"source": "cadastre-dgi-fr source : Direction G\u00e9n\u00e9rale des Imp\u00f4ts - Cadastre ; mise \u00e0 jour : 2009"}}, {"type": "node", "id": 521681663, "lat": 43.2992357, "lon": 5.3853807, "tags": {"source": "cadastre-dgi-fr source : Direction G\u00e9n\u00e9rale des Imp\u00f4ts - Cadastre ; mise \u00e0 jour : 2009"}}, {"type": "node", "id": 521681664, "lat": 43.299061, "lon": 5.3853635, "tags": {"source": "cadastre-dgi-fr source : Direction G\u00e9n\u00e9rale des Imp\u00f4ts - Cadastre ; mise \u00e0 jour : 2009"}}, {"type": "node", "id": 521681667, "lat": 43.2991528, "lon": 5.3853968, "tags": {"source": "cadastre-dgi-fr source : Direction G\u00e9n\u00e9rale des Imp\u00f4ts - Cadastre ; mise \u00e0 jour : 2009"}}, {"type": "node", "id": 528588249, "lat": 43.3027938, "lon": 5.3963495, "tags": {"source": "cadastre-dgi-fr source : Direction G\u00e9n\u00e9rale des Imp\u00f4ts - Cadastre ; mise \u00e0 jour : 2009"}}, {"type": "node", "id": 528588251, "lat": 43.3017926, "lon": 5.3978729}, {"type": "node", "id": 531427839, "lat": 43.2991189, "lon": 5.384626, "tags": {"bench": "no", "bin": "no", "bus": "yes", "highway": "bus_stop", "lit": "no", "name": "Gambetta R\u00e9form\u00e9s", "name:oc": "Gambetta - Reformats", "public_transport": "platform", "shelter": "no", "source:name:oc": "ieo-bdtopoc", "tactile_paving": "no"}}, {"type": "node", "id": 536418424, "lat": 43.2997192, "lon": 5.3848647, "tags": {"amenity": "bicycle_rental", "bicycle_rental": "docking_station", "capacity": "30", "name": "R\u00e9form\u00e9s - Canebi\u00e8re", "name:oc": "Reformats - Canebiera", "network": "lev\u00e9lo", "operator": "Inurba Mobility", "ref": "ce4bgj92rcd13ifvqbd0", "website": "https://levelo.ampmetropole.fr/"}}, {"type": "node", "id": 536418426, "lat": 43.2996123, "lon": 5.3849586, "tags": {"amenity": "taxi", "level": "0"}}, {"type": "node", "id": 558576288, "lat": 43.2855601, "lon": 5.3841403, "tags": {"entrance": "yes", "level": "-1", "railway": "subway_entrance", "wheelchair": "no"}}, {"type": "node", "id": 623622228, "lat": 43.2929054, "lon": 5.4098095}, {"type": "node", "id": 651309995, "lat": 43.2991594, "lon": 5.4047816}, {"type": "node", "id": 651309997, "lat": 43.2992321, "lon": 5.4047623}, {"type": "node", "id": 651350516, "lat": 43.2931787, "lon": 5.417643}, {"type": "node", "id": 651350517, "lat": 43.292936, "lon": 5.4175516}, {"type": "node", "id": 651566099, "lat": 43.2928139, "lon": 5.4105695}, {"type": "node", "id": 653215487, "lat": 43.2965078, "lon": 5.4065819}, {"type": "node", "id": 653215491, "lat": 43.296125, "lon": 5.4077125}, {"type": "node", "id": 653215493, "lat": 43.2962613, "lon": 5.4074139}, {"type": "node", "id": 653215501, "lat": 43.2963933, "lon": 5.4071484, "tags": {"level": "0", "name": "Marseille-Blancarde", "name:oc": "Marselha-Blancarda", "public_transport": "stop_position", "railway": "stop", "ref": "4", "train": "yes", "uic_ref": "8775108", "wikidata": "Q1835221", "wikipedia": "fr:Gare de Marseille-Blancarde"}}, {"type": "node", "id": 653215523, "lat": 43.2956724, "lon": 5.4098253}, {"type": "node", "id": 653215526, "lat": 43.2959536, "lon": 5.4081652, "tags": {"railway": "switch", "source": "BDOrtho IGN"}}, {"type": "node", "id": 653215542, "lat": 43.2958778, "lon": 5.4101951, "tags": {"railway": "switch", "source": "BDOrtho IGN"}}, {"type": "node", "id": 653215548, "lat": 43.2956331, "lon": 5.4127293, "tags": {"railway": "switch", "source": "BDOrtho IGN"}}, {"type": "node", "id": 653215550, "lat": 43.2956121, "lon": 5.4114712, "tags": {"railway": "switch", "railway:switch": "double_slip", "source": "BDOrtho IGN"}}, {"type": "node", "id": 653215552, "lat": 43.2950895, "lon": 5.4116338}, {"type": "node", "id": 653215554, "lat": 43.2960347, "lon": 5.4109773}, {"type": "node", "id": 653215555, "lat": 43.2961522, "lon": 5.4115185}, {"type": "node", "id": 653215556, "lat": 43.2962378, "lon": 5.4120013}, {"type": "node", "id": 653215558, "lat": 43.2958225, "lon": 5.4113121}, {"type": "node", "id": 653215559, "lat": 43.2961444, "lon": 5.4133679, "tags": {"railway": "crossing", "source": "BDOrtho IGN"}}, {"type": "node", "id": 653215561, "lat": 43.2954894, "lon": 5.4142579}, {"type": "node", "id": 653215563, "lat": 43.2956236, "lon": 5.4134855}, {"type": "node", "id": 653215565, "lat": 43.2945308, "lon": 5.415747, "tags": {"railway": "buffer_stop", "source": "BDOrtho IGN"}}, {"type": "node", "id": 653215566, "lat": 43.2944917, "lon": 5.4154024}, {"type": "node", "id": 653215567, "lat": 43.2944708, "lon": 5.414884}, {"type": "node", "id": 653215568, "lat": 43.2944806, "lon": 5.4145814}, {"type": "node", "id": 653215569, "lat": 43.2945753, "lon": 5.4140413, "tags": {"railway": "switch", "source": "BDOrtho IGN"}}, {"type": "node", "id": 653215572, "lat": 43.2964417, "lon": 5.4148117}, {"type": "node", "id": 653215573, "lat": 43.296148, "lon": 5.4144585, "tags": {"railway": "switch", "source": "BDOrtho IGN"}}, {"type": "node", "id": 653215574, "lat": 43.2961313, "lon": 5.4150155}, {"type": "node", "id": 653215575, "lat": 43.2962596, "lon": 5.4161098}, {"type": "node", "id": 653229074, "lat": 43.2983639, "lon": 5.4051174}, {"type": "node", "id": 653229076, "lat": 43.2975887, "lon": 5.4056681}, {"type": "node", "id": 653229078, "lat": 43.2980601, "lon": 5.405303}, {"type": "node", "id": 666267281, "lat": 43.2951286, "lon": 5.3837201}, {"type": "node", "id": 672577490, "lat": 43.2645989, "lon": 5.3917, "tags": {"bus": "yes", "name": "Grand Saint-Giniez", "name:oc": "Sant Gini\u00e8is Villatge", "public_transport": "stop_position", "source:name:oc": "ieo-bdtopoc"}}, {"type": "node", "id": 673434521, "lat": 43.2770168, "lon": 5.3777935, "tags": {"bus": "yes", "name": "Eden Roc", "name:oc": "Eden Roc", "public_transport": "stop_position", "source": "survey", "source:name:oc": "ieo-bdtopoc"}}, {"type": "node", "id": 674534299, "lat": 43.2792065, "lon": 5.4171597, "tags": {"bus": "yes", "name": "Pont de Vivaux", "name:oc": "P\u00f2nt dei Vivauts", "public_transport": "stop_position", "source:name:oc": "ieo-bdtopoc"}}, {"type": "node", "id": 739616052, "lat": 43.2925015, "lon": 5.3840759, "tags": {"bench": "no", "bin": "no", "bus": "yes", "highway": "bus_stop", "lit": "yes", "name": "M\u00e9tro Notre-Dame du Mont", "name:oc": "M\u00e8tro N\u00f2stra D\u00f2na dau Mont", "public_transport": "platform", "shelter": "no", "source:name:oc": "ieo-bdtopoc", "tactile_paving": "yes", "wheelchair": "yes"}}, {"type": "node", "id": 739616055, "lat": 43.2914808, "lon": 5.3807288}, {"type": "node", "id": 739616056, "lat": 43.2926052, "lon": 5.3841069, "tags": {"bench": "no", "bin": "no", "bus": "yes", "highway": "bus_stop", "lit": "yes", "name": "M\u00e9tro Notre-Dame du Mont", "name:oc": "M\u00e8tro N\u00f2stra D\u00f2na dau Mont", "public_transport": "platform", "shelter": "no", "source:name:oc": "ieo-bdtopoc", "tactile_paving": "yes", "wheelchair": "yes"}}, {"type": "node", "id": 739616064, "lat": 43.2915149, "lon": 5.3807107}, {"type": "node", "id": 747035379, "lat": 43.29601, "lon": 5.3817163}, {"type": "node", "id": 748782290, "lat": 43.2999653, "lon": 5.4135707, "tags": {"layer": "-2", "level": "-3", "name": "Louis Armand", "name:oc": "Lo\u00eds Armand", "network": "RTM", "operator": "R\u00e9gie des Transports Marseillais", "public_transport": "stop_position", "railway": "stop", "station": "subway", "subway": "yes", "tunnel": "yes", "wikidata": "Q3261097", "wikipedia": "fr:Louis Armand (m\u00e9tro de Marseille)"}}, {"type": "node", "id": 748782291, "lat": 43.295546, "lon": 5.4062095, "tags": {"layer": "-3", "level": "-3", "name": "La Blancarde", "name:oc": "La Blancarda", "network": "RTM", "operator": "R\u00e9gie des Transports Marseillais", "public_transport": "stop_position", "railway": "stop", "station": "subway", "subway": "yes", "wheelchair": "yes", "wikidata": "Q3206689", "wikipedia": "fr:La Blancarde (m\u00e9tro de Marseille)"}}, {"type": "node", "id": 748782292, "lat": 43.303309, "lon": 5.4187943, "tags": {"name": "Saint-Barnab\u00e9", "name:oc": "Sant Barnab\u00e8u", "network": "RTM", "operator": "R\u00e9gie des Transports Marseillais", "public_transport": "stop_position", "railway": "stop", "station": "subway", "subway": "yes", "wheelchair": "yes", "wikidata": "Q3461844", "wikipedia": "fr:Saint-Barnab\u00e9 (m\u00e9tro de Marseille)"}}, {"type": "node", "id": 751077211, "lat": 43.2970224, "lon": 5.4048959}, {"type": "node", "id": 751152698, "lat": 43.2973959, "lon": 5.4043558}, {"type": "node", "id": 751404347, "lat": 43.2958974, "lon": 5.4022008}, {"type": "node", "id": 755794851, "lat": 43.2962975, "lon": 5.4059655, "tags": {"amenity": "bicycle_rental", "bicycle_rental": "docking_station", "capacity": "20", "name": "Blancarde - Gare SNCF", "name:oc": "Blancarda - Estacion SNCF", "network": "lev\u00e9lo", "operator": "Inurba Mobility", "ref": "ce4bh0h2rcd13ifvqd60", "website": "https://levelo.ampmetropole.fr/"}}, {"type": "node", "id": 757343229, "lat": 43.2954066, "lon": 5.393973}, {"type": "node", "id": 757343242, "lat": 43.2955621, "lon": 5.3965514}, {"type": "node", "id": 757343253, "lat": 43.2956431, "lon": 5.3978707}, {"type": "node", "id": 800141376, "lat": 43.2947499, "lon": 5.4331715, "tags": {"railway": "tram_level_crossing"}}, {"type": "node", "id": 807695960, "lat": 43.3113582, "lon": 5.3689392}, {"type": "node", "id": 807695963, "lat": 43.3111985, "lon": 5.3689146}, {"type": "node", "id": 807695964, "lat": 43.3108348, "lon": 5.3688173}, {"type": "node", "id": 807695968, "lat": 43.313316, "lon": 5.3680981, "tags": {"level": "0", "name": "Arenc Eurom\u00e9diterran\u00e9e", "name:oc": "Arenh Euromediterran\u00e8a", "network": "RTM", "operator": "R\u00e9gie des Transports M\u00e9tropolitains", "public_transport": "stop_position", "railway": "tram_stop", "source:name:oc": "ieo-bdtopoc", "tram": "yes", "wheelchair": "yes"}}, {"type": "node", "id": 807695970, "lat": 43.311937, "lon": 5.3688637}, {"type": "node", "id": 807695971, "lat": 43.3115243, "lon": 5.3689428}, {"type": "node", "id": 817560500, "lat": 43.2935088, "lon": 5.3795397}, {"type": "node", "id": 817598057, "lat": 43.2935911, "lon": 5.3794932}, {"type": "node", "id": 817598382, "lat": 43.2968315, "lon": 5.3741988}, {"type": "node", "id": 817623014, "lat": 43.2934528, "lon": 5.3795713}, {"type": "node", "id": 817627677, "lat": 43.2936648, "lon": 5.3794516}, {"type": "node", "id": 827779098, "lat": 43.2966353, "lon": 5.4069882}, {"type": "node", "id": 827782309, "lat": 43.2962565, "lon": 5.4064888}, {"type": "node", "id": 827792580, "lat": 43.296414, "lon": 5.4064529}, {"type": "node", "id": 827795101, "lat": 43.2962692, "lon": 5.4065846}, {"type": "node", "id": 827805170, "lat": 43.2961132, "lon": 5.4066509}, {"type": "node", "id": 827847909, "lat": 43.2962767, "lon": 5.4065814}, {"type": "node", "id": 827864337, "lat": 43.2960856, "lon": 5.4065615}, {"type": "node", "id": 827953809, "lat": 43.2960874, "lon": 5.4065697}, {"type": "node", "id": 828006145, "lat": 43.2961058, "lon": 5.4066541}, {"type": "node", "id": 829172014, "lat": 43.291522, "lon": 5.3805062}, {"type": "node", "id": 829185816, "lat": 43.2915621, "lon": 5.3806388}, {"type": "node", "id": 849081545, "lat": 43.2979865, "lon": 5.3769109}, {"type": "node", "id": 849081547, "lat": 43.2983041, "lon": 5.3767325}, {"type": "node", "id": 849081550, "lat": 43.2969048, "lon": 5.3775182}, {"type": "node", "id": 849081553, "lat": 43.297131, "lon": 5.37739}, {"type": "node", "id": 849081555, "lat": 43.2974427, "lon": 5.3772148}, {"type": "node", "id": 876965267, "lat": 43.2841073, "lon": 5.3984852, "tags": {"bus": "yes", "name": "Place de Pologne", "name:oc": "Pla\u00e7a de Polonha", "public_transport": "stop_position", "source:name:oc": "ieo-bdtopoc"}}, {"type": "node", "id": 895870780, "lat": 43.2844593, "lon": 5.3717242, "tags": {"bus": "yes", "name": "Notre-Dame de la Garde", "name:oc": "N\u00f2stra D\u00f2na de la G\u00e0rdia", "public_transport": "stop_position", "source:name:oc": "ieo-bdtopoc"}}, {"type": "node", "id": 895870802, "lat": 43.2844291, "lon": 5.3717028, "tags": {"bench": "yes", "bin": "no", "bus": "yes", "highway": "bus_stop", "lit": "yes", "name": "Notre-Dame de la Garde", "name:oc": "N\u00f2stra D\u00f2na de la G\u00e0rdia", "public_transport": "platform", "shelter": "yes", "source:name:oc": "ieo-bdtopoc", "tactile_paving": "no"}}, {"type": "node", "id": 996203525, "lat": 43.2931351, "lon": 5.3858408, "tags": {"bench": "no", "bus": "yes", "highway": "bus_stop", "name": "Trois Fr\u00e8res Bath\u00e9l\u00e9my", "name:oc": "Tres Fraires Bartomieu", "public_transport": "platform", "shelter": "no", "source:name:oc": "ieo-bdtopoc"}}, {"type": "node", "id": 996411079, "lat": 43.2980199, "lon": 5.3810927, "tags": {"amenity": "bicycle_rental", "bicycle_rental": "docking_station", "capacity": "20", "name": "Canebi\u00e8re - Dugommier", "name:oc": "Canebiera-Dugommier", "network": "lev\u00e9lo", "operator": "Inurba Mobility", "ref": "ce4bgip2rcd13ifvqbb0", "website": "https://levelo.ampmetropole.fr/"}}, {"type": "node", "id": 1037207625, "lat": 43.2949483, "lon": 5.4207143}, {"type": "node", "id": 1037207633, "lat": 43.2948325, "lon": 5.4329422}, {"type": "node", "id": 1037207638, "lat": 43.2950331, "lon": 5.4187097}, {"type": "node", "id": 1037207677, "lat": 43.2949932, "lon": 5.4185562}, {"type": "node", "id": 1037207713, "lat": 43.2952629, "lon": 5.4238012}, {"type": "node", "id": 1037221888, "lat": 43.2953414, "lon": 5.4240715}, {"type": "node", "id": 1037221890, "lat": 43.295057, "lon": 5.4232645}, {"type": "node", "id": 1037221892, "lat": 43.2942049, "lon": 5.4298007}, {"type": "node", "id": 1037221893, "lat": 43.2917225, "lon": 5.4171017}, {"type": "node", "id": 1037221898, "lat": 43.2946572, "lon": 5.4333714}, {"type": "node", "id": 1037221900, "lat": 43.2918452, "lon": 5.4137432}, {"type": "node", "id": 1037221901, "lat": 43.2942429, "lon": 5.4311072}, {"type": "node", "id": 1037221904, "lat": 43.291625, "lon": 5.4170381}, {"type": "node", "id": 1037221906, "lat": 43.2947784, "lon": 5.4326509}, {"type": "node", "id": 1037221919, "lat": 43.2950253, "lon": 5.4230908}, {"type": "node", "id": 1037221933, "lat": 43.2947985, "lon": 5.433141, "tags": {"railway": "tram_crossing"}}, {"type": "node", "id": 1037221935, "lat": 43.2944545, "lon": 5.4283021}, {"type": "node", "id": 1037221940, "lat": 43.2918349, "lon": 5.4138949, "tags": {"railway": "signal", "railway:signal:direction": "forward"}}, {"type": "node", "id": 1037221944, "lat": 43.2915287, "lon": 5.4167554}, {"type": "node", "id": 1037221948, "lat": 43.291856, "lon": 5.4148025}, {"type": "node", "id": 1037221950, "lat": 43.2920632, "lon": 5.413282, "tags": {"railway": "switch"}}, {"type": "node", "id": 1038624360, "lat": 43.2945831, "lon": 5.385882, "tags": {"bench": "yes", "bin": "no", "bus": "yes", "highway": "bus_stop", "lit": "yes", "name": "Place Jean Jaur\u00e8s", "name:oc": "Pla\u00e7a Joan Jaur\u00e8s", "public_transport": "platform", "shelter": "yes", "source:name:oc": "ieo-bdtopoc", "tactile_paving": "yes"}}, {"type": "node", "id": 1126745133, "lat": 43.2883775, "lon": 5.3880469, "tags": {"bench": "yes", "bin": "no", "bus": "yes", "highway": "bus_stop", "lit": "yes", "name": "Lodi Village", "name:oc": "L\u00f2di - Vilatge", "public_transport": "platform", "shelter": "yes", "source:name:oc": "ieo-bdtopoc", "tactile_paving": "no"}}, {"type": "node", "id": 1145699422, "lat": 43.2986287, "lon": 5.3852457, "tags": {"bench": "no", "bin": "no", "bus": "yes", "highway": "bus_stop", "lit": "no", "name": "R\u00e9form\u00e9s Canebi\u00e8re", "name:oc": "Reformats - Canebiera", "public_transport": "platform", "shelter": "no", "source:name:oc": "ieo-bdtopoc", "tactile_paving": "no"}}, {"type": "node", "id": 1148119871, "lat": 43.294687, "lon": 5.3860639, "tags": {"bench": "yes", "bin": "no", "bus": "yes", "highway": "bus_stop", "lit": "yes", "name": "Place Jean Jaur\u00e8s", "name:oc": "Pla\u00e7a Joan Jaur\u00e8s", "public_transport": "platform", "shelter": "yes", "source:name:oc": "ieo-bdtopoc", "tactile_paving": "yes"}}, {"type": "node", "id": 1148147311, "lat": 43.2980174, "lon": 5.387746, "tags": {"bench": "no", "bin": "no", "bus": "yes", "highway": "bus_stop", "lit": "no", "name": "Saint-Savournin Barbaroux", "name:oc": "Sant Savornin - Barbar\u00f3s", "public_transport": "platform", "shelter": "no", "source:name:oc": "ieo-bdtopoc", "tactile_paving": "yes"}}, {"type": "node", "id": 1148173682, "lat": 43.2989868, "lon": 5.3860804, "tags": {"bench": "no", "bin": "no", "bus": "yes", "highway": "bus_stop", "name": "Roosevelt R\u00e9form\u00e9s", "name:oc": "Roosevelt - Reformats", "public_transport": "platform", "shelter": "no", "source:name:oc": "ieo-bdtopoc"}}, {"type": "node", "id": 1148173685, "lat": 43.2990836, "lon": 5.3864239, "tags": {"bench": "yes", "bin": "yes", "bus": "yes", "highway": "bus_stop", "lit": "yes", "name": "Roosevelt R\u00e9form\u00e9s", "name:oc": "Roosevelt - Reformats", "public_transport": "platform", "shelter": "yes", "source:name:oc": "ieo-bdtopoc", "tactile_paving": "no"}}, {"type": "node", "id": 1148195770, "lat": 43.2962223, "lon": 5.3710229, "tags": {"bench": "no", "bin": "yes", "bus": "yes", "check_date:shelter": "2023-11-06", "highway": "bus_stop", "lit": "yes", "name": "H\u00f4tel de Ville", "name:oc": "L\u00f2tja", "public_transport": "platform", "shelter": "no", "source:name:oc": "ieo-bdtopoc", "tactile_paving": "yes", "wheelchair": "yes"}}, {"type": "node", "id": 1148195772, "lat": 43.2961496, "lon": 5.3712427, "tags": {"bench": "no", "bin": "yes", "bus": "yes", "highway": "bus_stop", "lit": "yes", "name": "H\u00f4tel de Ville", "name:oc": "L\u00f2tja", "public_transport": "platform", "shelter": "no", "source:name:oc": "ieo-bdtopoc", "tactile_paving": "yes", "wheelchair": "yes"}}, {"type": "node", "id": 1148195773, "lat": 43.2961809, "lon": 5.3715361, "tags": {"amenity": "bicycle_rental", "bicycle_rental": "docking_station", "capacity": "30", "name": "H\u00f4tel de Ville", "name:oc": "L\u00f2tja", "network": "lev\u00e9lo", "operator": "Cyclocity", "ref": "ce4bgnh2rcd13ifvqc0g", "source:name:oc": "ieo-bdtopoc", "website": "https://levelo.ampmetropole.fr/"}}, {"type": "node", "id": 1148227109, "lat": 43.2829906, "lon": 5.391059, "tags": {"bus": "yes", "name": "Parc du 26e Centenaire", "name:oc": "Pargue dau Centenari 26n", "public_transport": "stop_position", "source:name:oc": "ieo-bdtopoc"}}, {"type": "node", "id": 1149268205, "lat": 43.2851551, "lon": 5.384318, "tags": {"alt_name": "Prado Castellane; M\u00e9tro Castellane", "bench": "yes", "bin": "no", "bus": "yes", "highway": "bus_stop", "name": "Castellane", "name:oc": "Castelana", "public_transport": "platform", "shelter": "yes", "source:name:oc": "ieo-bdtopoc", "tactile_paving": "no", "wheelchair": "yes"}}, {"type": "node", "id": 1149268214, "lat": 43.2846741, "lon": 5.3843209, "tags": {"bench": "yes", "bin": "yes", "bus": "yes", "highway": "bus_stop", "lit": "yes", "name": "Castellane", "name:oc": "Castelana", "public_transport": "platform", "shelter": "yes", "source": "survey", "source:name:oc": "ieo-bdtopoc", "tactile_paving": "yes", "wheelchair": "yes"}}, {"type": "node", "id": 1156295039, "lat": 43.2990447, "lon": 5.3761768}, {"type": "node", "id": 1163699233, "lat": 43.2797618, "lon": 5.3874806, "tags": {"amenity": "bicycle_rental", "bicycle_rental": "docking_station", "capacity": "30", "name": "Prado - P\u00e9rier", "name:oc": "Prad\u00f2t - Perier", "network": "lev\u00e9lo", "operator": "Inurba Mobility", "ref": "ce4bhg12rcd13ifvqf80", "website": "https://levelo.ampmetropole.fr/"}}, {"type": "node", "id": 1177352578, "lat": 43.2943684, "lon": 5.3739203}, {"type": "node", "id": 1177352617, "lat": 43.2944679, "lon": 5.3736644}, {"type": "node", "id": 1177352636, "lat": 43.2945056, "lon": 5.3738836}, {"type": "node", "id": 1177352671, "lat": 43.2943274, "lon": 5.3738704}, {"type": "node", "id": 1177352683, "lat": 43.2946361, "lon": 5.3739117, "tags": {"barrier": "gate", "entrance": "yes", "name": "Navette L'Estaque"}}, {"type": "node", "id": 1177773938, "lat": 43.2942098, "lon": 5.3738129}, {"type": "node", "id": 1177773971, "lat": 43.2943581, "lon": 5.3735904}, {"type": "node", "id": 1199146010, "lat": 43.284042, "lon": 5.3727252, "tags": {"bus": "yes", "name": "Fort du Sanctuaire Notre-Dame", "name:oc": "F\u00f2rt dau Sanctuari de N\u00f2stra-D\u00f2na", "public_transport": "stop_position", "source:name:oc": "ieo-bdtopoc"}}, {"type": "node", "id": 1223734418, "lat": 43.284838, "lon": 5.3841014, "tags": {"amenity": "bicycle_rental", "bicycle_rental": "docking_station", "capacity": "30", "name": "Castellane", "name:oc": "Castelana", "network": "lev\u00e9lo", "operator": "Inurba Mobility", "ref": "ce4bh512rcd13ifvqe3g", "website": "https://levelo.ampmetropole.fr/"}}, {"type": "node", "id": 1247239257, "lat": 43.296648, "lon": 5.4063303}, {"type": "node", "id": 1247239275, "lat": 43.2982757, "lon": 5.405167}, {"type": "node", "id": 1247239278, "lat": 43.2970478, "lon": 5.4061099}, {"type": "node", "id": 1247239279, "lat": 43.2788793, "lon": 5.4005289}, {"type": "node", "id": 1247239284, "lat": 43.29672, "lon": 5.4064343}, {"type": "node", "id": 1247239289, "lat": 43.2788668, "lon": 5.3993259}, {"type": "node", "id": 1247239292, "lat": 43.2788364, "lon": 5.3993277}, {"type": "node", "id": 1247239297, "lat": 43.2790147, "lon": 5.4010763}, {"type": "node", "id": 1247239299, "lat": 43.2791394, "lon": 5.3993639}, {"type": "node", "id": 1247239300, "lat": 43.2789475, "lon": 5.3991752}, {"type": "node", "id": 1247239316, "lat": 43.2788655, "lon": 5.3991734}, {"type": "node", "id": 1247239320, "lat": 43.2787932, "lon": 5.3999454}, {"type": "node", "id": 1247239322, "lat": 43.2789019, "lon": 5.399177}, {"type": "node", "id": 1247239324, "lat": 43.2787657, "lon": 5.3993205}, {"type": "node", "id": 1247239326, "lat": 43.2788001, "lon": 5.3991679}, {"type": "node", "id": 1247239327, "lat": 43.2967567, "lon": 5.406269}, {"type": "node", "id": 1247239329, "lat": 43.2786989, "lon": 5.3993187}, {"type": "node", "id": 1247239330, "lat": 43.27873, "lon": 5.3991652}, {"type": "node", "id": 1247239332, "lat": 43.2960249, "lon": 5.4067733}, {"type": "node", "id": 1247239333, "lat": 43.2963386, "lon": 5.4066788}, {"type": "node", "id": 1247239336, "lat": 43.296331, "lon": 5.4066372}, {"type": "node", "id": 1247239338, "lat": 43.2972463, "lon": 5.4059678, "tags": {"railway": "switch", "source": "BDOrtho IGN"}}, {"type": "node", "id": 1247239354, "lat": 43.2789726, "lon": 5.3993395}, {"type": "node", "id": 1247239356, "lat": 43.2788331, "lon": 5.399167}, {"type": "node", "id": 1247239358, "lat": 43.2787988, "lon": 5.3993196}, {"type": "node", "id": 1247239359, "lat": 43.2964573, "lon": 5.4064486, "tags": {"railway": "buffer_stop"}}, {"type": "node", "id": 1247239361, "lat": 43.278732, "lon": 5.3993168}, {"type": "node", "id": 1247239362, "lat": 43.2967212, "lon": 5.4063971}, {"type": "node", "id": 1247239363, "lat": 43.2970159, "lon": 5.4061671, "tags": {"railway": "switch", "source": "BDOrtho IGN"}}, {"type": "node", "id": 1247239369, "lat": 43.2787624, "lon": 5.3991616}, {"type": "node", "id": 1247239371, "lat": 43.2969171, "lon": 5.4061809}, {"type": "node", "id": 1247239374, "lat": 43.2786989, "lon": 5.3991598}, {"type": "node", "id": 1247239376, "lat": 43.2962004, "lon": 5.4066987, "tags": {"crossing:barrier": "no", "level": "0", "railway": "crossing"}}, {"type": "node", "id": 1247239388, "lat": 43.2791679, "lon": 5.3991969}, {"type": "node", "id": 1247239389, "lat": 43.2799134, "lon": 5.4029565, "tags": {"railway": "level_crossing"}}, {"type": "node", "id": 1247239390, "lat": 43.2965061, "lon": 5.4065377}, {"type": "node", "id": 1247239391, "lat": 43.2789012, "lon": 5.3993286}, {"type": "node", "id": 1247242876, "lat": 43.277576, "lon": 5.4022882}, {"type": "node", "id": 1247242881, "lat": 43.2776238, "lon": 5.4021836}, {"type": "node", "id": 1247242894, "lat": 43.2776974, "lon": 5.4019424}, {"type": "node", "id": 1247242897, "lat": 43.2776767, "lon": 5.4020222}, {"type": "node", "id": 1249796431, "lat": 43.2824832, "lon": 5.4056243}, {"type": "node", "id": 1249796447, "lat": 43.2810275, "lon": 5.4044743}, {"type": "node", "id": 1251022345, "lat": 43.273126, "lon": 5.3907723, "tags": {"amenity": "bicycle_rental", "bicycle_rental": "docking_station", "capacity": "20", "name": "Rond-point du Prado", "name:oc": "Rotonda dau Prad\u00f2t", "network": "lev\u00e9lo", "operator": "Inurba Mobility", "ref": "ce4bhgp2rcd13ifvqfe0", "website": "https://levelo.ampmetropole.fr/"}}, {"type": "node", "id": 1274867031, "lat": 43.3007059, "lon": 5.386856, "tags": {"railway": "tram_crossing"}}, {"type": "node", "id": 1274867043, "lat": 43.3004421, "lon": 5.3863937}, {"type": "node", "id": 1279611917, "lat": 43.2928085, "lon": 5.3837679}, {"type": "node", "id": 1280728858, "lat": 43.2919467, "lon": 5.4135124, "tags": {"railway": "tram_level_crossing"}}, {"type": "node", "id": 1280764301, "lat": 43.295186, "lon": 5.4266851}, {"type": "node", "id": 1280764461, "lat": 43.2953997, "lon": 5.4255653}, {"type": "node", "id": 1280771822, "lat": 43.3048, "lon": 5.3671608}, {"type": "node", "id": 1280779798, "lat": 43.2955763, "lon": 5.4064148}, {"type": "node", "id": 1281070499, "lat": 43.294479, "lon": 5.4093227}, {"type": "node", "id": 1281070612, "lat": 43.2929083, "lon": 5.4098642}, {"type": "node", "id": 1281696781, "lat": 43.3060552, "lon": 5.3673611, "tags": {"railway": "tram_level_crossing"}}, {"type": "node", "id": 1281696806, "lat": 43.3084414, "lon": 5.3680773}, {"type": "node", "id": 1281696832, "lat": 43.3056714, "lon": 5.3672461, "tags": {"railway": "tram_crossing"}}, {"type": "node", "id": 1281696907, "lat": 43.3048314, "lon": 5.3671357}, {"type": "node", "id": 1281696908, "lat": 43.309263, "lon": 5.368326, "tags": {"railway": "tram_level_crossing"}}, {"type": "node", "id": 1281696911, "lat": 43.300752, "lon": 5.3704678}, {"type": "node", "id": 1281696931, "lat": 43.3096958, "lon": 5.3684548}, {"type": "node", "id": 1281696947, "lat": 43.3050417, "lon": 5.3670646}, {"type": "node", "id": 1281696959, "lat": 43.2993848, "lon": 5.3717981, "tags": {"railway": "tram_level_crossing"}}, {"type": "node", "id": 1281696978, "lat": 43.3046548, "lon": 5.3672795}, {"type": "node", "id": 1281696980, "lat": 43.3125512, "lon": 5.3685405}, {"type": "node", "id": 1281697002, "lat": 43.3051312, "lon": 5.3670844}, {"type": "node", "id": 1281697032, "lat": 43.3059079, "lon": 5.3673177, "tags": {"railway": "tram_crossing"}}, {"type": "node", "id": 1281893691, "lat": 43.2989694, "lon": 5.3852508}, {"type": "node", "id": 1282168880, "lat": 43.300638, "lon": 5.3995984}, {"type": "node", "id": 1282168893, "lat": 43.3035569, "lon": 5.3931477}, {"type": "node", "id": 1282168904, "lat": 43.3035101, "lon": 5.3929}, {"type": "node", "id": 1282168932, "lat": 43.2976445, "lon": 5.4039907}, {"type": "node", "id": 1282168945, "lat": 43.3027286, "lon": 5.396462}, {"type": "node", "id": 1282215619, "lat": 43.2934583, "lon": 5.3825305}, {"type": "node", "id": 1290717783, "lat": 43.2989635, "lon": 5.3915994, "tags": {"bench": "no", "bin": "no", "bus": "yes", "highway": "bus_stop", "lit": "yes", "name": "Monte Cristo Camas", "name:oc": "Monte Cristo - Camp Mars", "public_transport": "platform", "shelter": "no", "source:name:oc": "ieo-bdtopoc", "tactile_paving": "yes", "wheelchair": "yes"}}, {"type": "node", "id": 1290717788, "lat": 43.2995169, "lon": 5.3957389, "tags": {"bench": "no", "bin": "yes", "bus": "yes", "highway": "bus_stop", "lit": "yes", "name": "Monte Cristo Faria", "name:oc": "Monte-Cristo - Faria", "public_transport": "platform", "shelter": "no", "source:name:oc": "ieo-bdtopoc", "tactile_paving": "yes", "wheelchair": "yes"}}, {"type": "node", "id": 1290717791, "lat": 43.2994337, "lon": 5.3957644, "tags": {"bench": "no", "bin": "no", "bus": "yes", "highway": "bus_stop", "lit": "yes", "name": "Monte Cristo Faria", "name:oc": "Monte-Cristo - Faria", "public_transport": "platform", "shelter": "no", "source:name:oc": "ieo-bdtopoc", "tactile_paving": "yes", "wheelchair": "yes"}}, {"type": "node", "id": 1290717804, "lat": 43.2989294, "lon": 5.3918619, "tags": {"bench": "no", "bin": "yes", "bus": "yes", "highway": "bus_stop", "lit": "yes", "name": "Monte Cristo Camas", "name:oc": "Monte Cristo - Camp Mars", "public_transport": "platform", "shelter": "no", "source:name:oc": "ieo-bdtopoc", "tactile_paving": "yes", "wheelchair": "yes"}}, {"type": "node", "id": 1290772046, "lat": 43.2989509, "lon": 5.3918114, "tags": {"bus": "yes", "name": "Monte Cristo Camas", "name:oc": "Monte Cristo - Camp Mars", "public_transport": "stop_position", "source:name:oc": "ieo-bdtopoc"}}, {"type": "node", "id": 1290808027, "lat": 43.296444, "lon": 5.3977317, "tags": {"bench": "no", "bin": "no", "bus": "yes", "check_date:shelter": "2023-04-06", "highway": "bus_stop", "lit": "no", "name": "George Verdun", "name:oc": "J\u00f2rgi - Verdun", "public_transport": "platform", "shelter": "no", "source:name:oc": "ieo-bdtopoc", "tactile_paving": "yes", "wheelchair": "yes"}}, {"type": "node", "id": 1290808028, "lat": 43.296807, "lon": 5.3977967, "tags": {"bench": "no", "bin": "no", "bus": "yes", "check_date:shelter": "2023-04-06", "highway": "bus_stop", "lit": "no", "name": "George Verdun", "name:oc": "J\u00f2rgi - Verdun", "public_transport": "platform", "shelter": "no", "source:name:oc": "ieo-bdtopoc", "tactile_paving": "yes", "wheelchair": "yes"}}, {"type": "node", "id": 1291919429, "lat": 43.2907173, "lon": 5.3756091, "tags": {"bench": "no", "bin": "no", "bus": "yes", "check_date:shelter": "2022-11-03", "highway": "bus_stop", "lit": "yes", "name": "Breteuil Puget", "name:oc": "Bretuelh - Puget", "public_transport": "platform", "shelter": "no", "source:name:oc": "ieo-bdtopoc", "tactile_paving": "no"}}, {"type": "node", "id": 1295745717, "lat": 43.2988435, "lon": 5.3892497, "tags": {"bench": "no", "bin": "no", "bus": "yes", "highway": "bus_stop", "lit": "yes", "name": "Roosevelt Devilliers", "name:oc": "Roosevelt - Devilliers", "public_transport": "platform", "shelter": "no", "source:name:oc": "ieo-bdtopoc", "tactile_paving": "yes"}}, {"type": "node", "id": 1295745718, "lat": 43.2989084, "lon": 5.3894754, "tags": {"bench": "no", "bin": "no", "bus": "yes", "highway": "bus_stop", "lit": "yes", "name": "Roosevelt Devilliers", "name:oc": "Roosevelt - Devilliers", "public_transport": "platform", "shelter": "no", "source:name:oc": "ieo-bdtopoc", "tactile_paving": "yes", "wheelchair": "yes"}}, {"type": "node", "id": 1295752913, "lat": 43.2899972, "lon": 5.3734534, "tags": {"bench": "no", "bin": "yes", "bus": "yes", "highway": "bus_stop", "lit": "no", "name": "Puget Roux de Brignoles", "name:oc": "Puget - Ros de Brinh\u00f2las", "public_transport": "platform", "route_ref": "54", "shelter": "no", "source:name:oc": "ieo-bdtopoc", "tactile_paving": "no"}}, {"type": "node", "id": 1295752914, "lat": 43.2903479, "lon": 5.3771304, "tags": {"bench": "no", "bin": "no", "bus": "yes", "highway": "bus_stop", "lit": "no", "name": "Estrangin Puget", "name:oc": "Estrangin - Puget", "public_transport": "platform", "route_ref": "42;54;518;521;540", "shelter": "no", "source:name:oc": "ieo-bdtopoc", "tactile_paving": "no"}}, {"type": "node", "id": 1295752915, "lat": 43.2902673, "lon": 5.3738511, "tags": {"bench": "no", "bin": "no", "bus": "yes", "departures_board": "yes", "highway": "bus_stop", "lit": "yes", "name": "Puget Fortia", "name:oc": "Puget - Fortia", "public_transport": "platform", "ref": "41;54;60;61;80;81", "route_ref": "54;60;61;80;81", "shelter": "no", "source:name:oc": "ieo-bdtopoc", "tactile_paving": "no"}}, {"type": "node", "id": 1295752920, "lat": 43.2899065, "lon": 5.3712673, "tags": {"bench": "no", "bin": "no", "bus": "yes", "check_date:shelter": "2023-06-14", "highway": "bus_stop", "lit": "no", "name": "Puget Moulet", "name:oc": "Puget - Molet", "public_transport": "platform", "route_ref": "54", "shelter": "no", "source:name:oc": "ieo-bdtopoc", "tactile_paving": "no"}}, {"type": "node", "id": 1295752924, "lat": 43.2903506, "lon": 5.3724961, "tags": {"bench": "yes", "bin": "yes", "bus": "yes", "highway": "bus_stop", "lit": "yes", "name": "Place de la Corderie", "name:oc": "Pla\u00e7a de la Cordelari\u00e1", "public_transport": "platform", "route_ref": "54;56;61;80;81", "shelter": "yes", "source:name:oc": "ieo-bdtopoc", "tactile_paving": "no"}}, {"type": "node", "id": 1297455066, "lat": 43.2884579, "lon": 5.3881367, "tags": {"bench": "no", "bin": "no", "bus": "yes", "check_date:shelter": "2023-12-02", "highway": "bus_stop", "lit": "yes", "name": "Lodi Village", "name:oc": "L\u00f2di - Vilatge", "public_transport": "platform", "shelter": "no", "source:name:oc": "ieo-bdtopoc", "tactile_paving": "no"}}, {"type": "node", "id": 1297460519, "lat": 43.2833477, "lon": 5.3977281, "tags": {"bench": "no", "bus": "yes", "check_date:shelter": "2023-11-07", "highway": "bus_stop", "name": "Toulon Galinat", "name:oc": "Tolon - Galinat", "public_transport": "platform", "shelter": "no", "source:name:oc": "ieo-bdtopoc"}}, {"type": "node", "id": 1297460527, "lat": 43.2834947, "lon": 5.3970486, "tags": {"bench": "yes", "bin": "yes", "bus": "yes", "check_date:shelter": "2023-11-07", "highway": "bus_stop", "lit": "yes", "name": "Toulon Galinat", "name:oc": "Tolon - Galinat", "public_transport": "platform", "shelter": "yes", "source:name:oc": "ieo-bdtopoc", "tactile_paving": "no"}}, {"type": "node", "id": 1297460530, "lat": 43.284389, "lon": 5.3955264, "tags": {"bench": "yes", "bin": "yes", "bus": "yes", "check_date:shelter": "2023-11-07", "highway": "bus_stop", "lit": "yes", "name": "Toulon H\u00e9bert", "name:oc": "Tolon - Hebert", "public_transport": "platform", "shelter": "yes", "source:name:oc": "ieo-bdtopoc", "tactile_paving": "yes"}}, {"type": "node", "id": 1297460539, "lat": 43.2845607, "lon": 5.3954987, "tags": {"bench": "yes", "bin": "yes", "bus": "yes", "check_date:shelter": "2023-11-07", "highway": "bus_stop", "lit": "yes", "name": "Toulon H\u00e9bert", "name:oc": "Tolon - Hebert", "public_transport": "platform", "shelter": "yes", "source:name:oc": "ieo-bdtopoc", "tactile_paving": "yes"}}, {"type": "node", "id": 1300803639, "lat": 43.2812555, "lon": 5.378478, "tags": {"bus": "yes", "name": "Vallon Montebello", "name:oc": "Valon Montebello", "public_transport": "stop_position", "source:name:oc": "ieo-bdtopoc"}}, {"type": "node", "id": 1300803642, "lat": 43.281273, "lon": 5.3771626, "tags": {"bus": "yes", "name": "Lac\u00e9d\u00e9mone Villas Paradis", "name:oc": "Lacedemon - Bastidas Parad\u00eds", "public_transport": "stop_position", "source:name:oc": "ieo-bdtopoc"}}, {"type": "node", "id": 1319283601, "lat": 43.2825373, "lon": 5.4027935, "tags": {"bench": "no", "bin": "yes", "bus": "yes", "highway": "bus_stop", "lit": "no", "name": "Lyc\u00e9e Brochier", "name:oc": "Lic\u00e8u Brochier", "public_transport": "platform", "shelter": "no", "source:name:oc": "ieo-bdtopoc", "tactile_paving": "yes", "wheelchair": "yes"}}, {"type": "node", "id": 1327850419, "lat": 43.2854613, "lon": 5.3838027, "tags": {"entrance": "yes"}}, {"type": "node", "id": 1327850425, "lat": 43.2864699, "lon": 5.3860746, "tags": {"bench": "no", "bin": "yes", "bus": "yes", "highway": "bus_stop", "lit": "yes", "name": "Baille Lieutaud", "name:oc": "Baile - Lieutaud", "public_transport": "platform", "route_ref": "54;74;540", "shelter": "no", "source:name:oc": "ieo-bdtopoc", "tactile_paving": "no"}}, {"type": "node", "id": 1327850434, "lat": 43.2862712, "lon": 5.3837944, "tags": {"entrance": "yes", "level": "-1", "railway": "subway_entrance", "wheelchair": "no"}}, {"type": "node", "id": 1327850436, "lat": 43.2858098, "lon": 5.3842298, "tags": {"entrance": "yes", "level": "-1", "railway": "subway_entrance", "wheelchair": "no"}}, {"type": "node", "id": 1327850437, "lat": 43.2854381, "lon": 5.3842116}, {"type": "node", "id": 1327914522, "lat": 43.2975057, "lon": 5.3811704, "tags": {"network": "RTM", "operator": "R\u00e9gie des Transports Marseillais", "railway": "subway_entrance", "wheelchair": "no"}}, {"type": "node", "id": 1327914523, "lat": 43.2972806, "lon": 5.3812084, "tags": {"network": "RTM", "operator": "R\u00e9gie des Transports Marseillais", "railway": "subway_entrance", "wheelchair": "no"}}, {"type": "node", "id": 1327914524, "lat": 43.2973597, "lon": 5.3811956}, {"type": "node", "id": 1340345810, "lat": 43.2679876, "lon": 5.3844676, "tags": {"bench": "yes", "bin": "yes", "bus": "yes", "highway": "bus_stop", "lit": "no", "name": "Prado Saint-Exup\u00e9ry", "name:oc": "Prad\u00f2t - Sant-Esup\u00e8ri", "public_transport": "platform", "shelter": "yes", "source:name:oc": "ieo-bdtopoc", "tactile_paving": "yes", "wheelchair": "yes"}}, {"type": "node", "id": 1340345816, "lat": 43.2669317, "lon": 5.3725946, "tags": {"bench": "yes", "bin": "yes", "bus": "yes", "highway": "bus_stop", "lit": "no", "name": "Plage Roucas Blanc", "name:oc": "Plaja - Roc\u00e0s Blanc", "public_transport": "platform", "shelter": "yes", "source:name:oc": "ieo-bdtopoc", "tactile_paving": "yes", "wheelchair": "yes"}}, {"type": "node", "id": 1340345822, "lat": 43.26413, "lon": 5.3735653, "tags": {"bench": "yes", "bin": "yes", "bus": "yes", "check_date:shelter": "2023-05-18", "highway": "bus_stop", "lit": "no", "name": "Place Amiral Muselier", "name:oc": "Pla\u00e7a Amirau Muselier", "public_transport": "platform", "shelter": "yes", "source:name:oc": "ieo-bdtopoc", "tactile_paving": "yes", "wheelchair": "yes"}}, {"type": "node", "id": 1340345856, "lat": 43.2644942, "lon": 5.3736346, "tags": {"bench": "yes", "bin": "yes", "bus": "yes", "check_date:shelter": "2023-05-18", "highway": "bus_stop", "lit": "no", "name": "Place Amiral Muselier", "name:oc": "Pla\u00e7a Amirau Muselier", "public_transport": "platform", "shelter": "yes", "source:name:oc": "ieo-bdtopoc", "tactile_paving": "yes", "wheelchair": "yes"}}, {"type": "node", "id": 1340345880, "lat": 43.2654448, "lon": 5.3730294, "tags": {"bench": "yes", "bin": "yes", "bus": "yes", "highway": "bus_stop", "lit": "no", "name": "Plage Roucas Blanc", "name:oc": "Plaja - Roc\u00e0s Blanc", "public_transport": "platform", "shelter": "yes", "source:name:oc": "ieo-bdtopoc", "tactile_paving": "yes", "wheelchair": "yes"}}, {"type": "node", "id": 1340345895, "lat": 43.2661877, "lon": 5.3812995, "tags": {"bench": "yes", "bin": "yes", "bus": "yes", "highway": "bus_stop", "lit": "no", "name": "Prado Tunis", "name:oc": "Prad\u00f2t - T\u00fanis", "public_transport": "platform", "shelter": "yes", "source:name:oc": "ieo-bdtopoc", "tactile_paving": "no", "wheelchair": "no"}}, {"type": "node", "id": 1340345903, "lat": 43.2663126, "lon": 5.3818724, "tags": {"bench": "yes", "bin": "yes", "bus": "yes", "highway": "bus_stop", "lit": "no", "name": "Prado Tunis", "name:oc": "Prad\u00f2t - T\u00fanis", "public_transport": "platform", "shelter": "yes", "source:name:oc": "ieo-bdtopoc", "tactile_paving": "yes", "wheelchair": "yes"}}, {"type": "node", "id": 1340345914, "lat": 43.2682752, "lon": 5.3845442, "tags": {"bench": "yes", "bin": "yes", "bus": "yes", "highway": "bus_stop", "lit": "no", "name": "Prado Saint-Exup\u00e9ry", "name:oc": "Prad\u00f2t - Sant-Esup\u00e8ri", "public_transport": "platform", "shelter": "yes", "source:name:oc": "ieo-bdtopoc", "tactile_paving": "yes", "wheelchair": "yes"}}, {"type": "node", "id": 1341527389, "lat": 43.2905157, "lon": 5.3764276, "tags": {"bench": "no", "bin": "yes", "bus": "yes", "highway": "bus_stop", "lit": "no", "name": "Estrangin Puget", "name:oc": "Estrangin - Puget", "public_transport": "platform", "route_ref": "54", "shelter": "no", "source:name:oc": "ieo-bdtopoc", "tactile_paving": "no"}}, {"type": "node", "id": 1341588434, "lat": 43.2932466, "lon": 5.3744732, "tags": {"bench": "yes", "bin": "yes", "bus": "yes", "highway": "bus_stop", "lit": "yes", "name": "Vieux Port Ballard", "name:oc": "P\u00f2rt Vi\u00e8lh - Cors Joan Ballard", "public_transport": "platform", "shelter": "yes", "source:name:oc": "ieo-bdtopoc", "tactile_paving": "no"}}, {"type": "node", "id": 1341588489, "lat": 43.2934242, "lon": 5.3715427, "tags": {"bench": "no", "bin": "yes", "bus": "yes", "highway": "bus_stop", "lit": "yes", "name": "Place aux Huiles", "name:oc": "Pla\u00e7a deis \u00d2lis", "public_transport": "platform", "shelter": "no", "source:name:oc": "ieo-bdtopoc", "tactile_paving": "yes", "wheelchair": "yes"}}, {"type": "node", "id": 1342501581, "lat": 43.2890865, "lon": 5.3719471, "tags": {"bench": "no", "bin": "no", "bus": "yes", "check_date:shelter": "2023-06-14", "highway": "bus_stop", "lit": "no", "name": "Jules Moulet Aune", "name:oc": "Juli Molet - Auna", "public_transport": "platform", "shelter": "no", "source:name:oc": "ieo-bdtopoc", "tactile_paving": "no"}}, {"type": "node", "id": 1342501582, "lat": 43.2900351, "lon": 5.3788346, "tags": {"bench": "yes", "bin": "no", "bus": "yes", "highway": "bus_stop", "lit": "no", "name": "Pr\u00e9fecture", "name:oc": "Prefectura", "public_transport": "platform", "route_ref": "54;518;521;540", "shelter": "yes", "source:name:oc": "ieo-bdtopoc", "tactile_paving": "no"}}, {"type": "node", "id": 1342706121, "lat": 43.266375, "lon": 5.3817732, "tags": {"bus": "yes", "name": "Prado Tunis", "name:oc": "Prad\u00f2t - T\u00fanis", "public_transport": "stop_position", "source:name:oc": "ieo-bdtopoc"}}, {"type": "node", "id": 1342706135, "lat": 43.2661446, "lon": 5.3814123, "tags": {"bus": "yes", "name": "Prado Tunis", "name:oc": "Prad\u00f2t - T\u00fanis", "public_transport": "stop_position", "source:name:oc": "ieo-bdtopoc"}}, {"type": "node", "id": 1342706144, "lat": 43.2848463, "lon": 5.3842315, "tags": {"bench": "yes", "bin": "yes", "bus": "yes", "highway": "bus_stop", "lit": "yes", "name": "Castellane", "name:oc": "Castelana", "passenger_information_display": "no", "public_transport": "platform", "shelter": "no", "source:name:oc": "ieo-bdtopoc", "tactile_paving": "no", "wheelchair": "yes"}}, {"type": "node", "id": 1342706146, "lat": 43.2680329, "lon": 5.3843687, "tags": {"bus": "yes", "name": "Prado Saint-Exup\u00e9ry", "name:oc": "Prad\u00f2t - Sant-Esup\u00e8ri", "public_transport": "stop_position", "source:name:oc": "ieo-bdtopoc"}}, {"type": "node", "id": 1345363093, "lat": 43.3002088, "lon": 5.3710497, "tags": {"bench": "no", "bin": "yes", "bus": "yes", "highway": "bus_stop", "lit": "yes", "name": "Sadi Carnot", "name:oc": "Sadi Carn\u00f2t", "public_transport": "platform", "shelter": "no", "source:name:oc": "ieo-bdtopoc", "tactile_paving": "no"}}, {"type": "node", "id": 1345363125, "lat": 43.2999685, "lon": 5.3710254, "tags": {"bus": "yes", "name": "Sadi Carnot", "name:oc": "Sadi Carn\u00f2t", "public_transport": "stop_position", "source:name:oc": "ieo-bdtopoc"}}, {"type": "node", "id": 1345363132, "lat": 43.2955456, "lon": 5.3741879, "tags": {"bench": "no", "bin": "yes", "bus": "yes", "check_date:shelter": "2024-08-20", "highway": "bus_stop", "lit": "yes", "name": "M\u00e9tro Vieux Port", "name:oc": "M\u00e8tro P\u00f2rt Vi\u00e8lh", "public_transport": "platform", "shelter": "no", "source:name:oc": "ieo-bdtopoc", "tactile_paving": "yes", "wheelchair": "yes"}}, {"type": "node", "id": 1345363166, "lat": 43.2984026, "lon": 5.3740637, "tags": {"bus": "yes", "name": "Barbusse Colbert", "name:oc": "Barbusse - Colbert", "public_transport": "stop_position", "source:name:oc": "ieo-bdtopoc"}}, {"type": "node", "id": 1345363174, "lat": 43.2982132, "lon": 5.3740611, "tags": {"bus": "yes", "name": "Barbusse Colbert", "name:oc": "Barbusse - Colbert", "public_transport": "stop_position", "source:name:oc": "ieo-bdtopoc"}}, {"type": "node", "id": 1345363198, "lat": 43.2981656, "lon": 5.3739976, "tags": {"bench": "no", "bin": "no", "bus": "yes", "highway": "bus_stop", "lit": "yes", "name": "Barbusse Colbert", "name:oc": "Barbusse - Colbert", "public_transport": "platform", "shelter": "no", "source:name:oc": "ieo-bdtopoc", "survey:date": "2018-02-26", "tactile_paving": "yes", "wheelchair": "no"}}, {"type": "node", "id": 1345363212, "lat": 43.2961869, "lon": 5.3711475, "tags": {"bus": "yes", "name": "H\u00f4tel de Ville", "name:oc": "L\u00f2tja", "public_transport": "stop_position", "source:name:oc": "ieo-bdtopoc"}}, {"type": "node", "id": 1345363268, "lat": 43.3001701, "lon": 5.3710539, "tags": {"bus": "yes", "name": "Sadi Carnot", "name:oc": "Sadi Carn\u00f2t", "public_transport": "stop_position", "source:name:oc": "ieo-bdtopoc"}}, {"type": "node", "id": 1345363270, "lat": 43.2999485, "lon": 5.3709985, "tags": {"bench": "no", "bin": "yes", "bus": "yes", "highway": "bus_stop", "lit": "yes", "name": "Sadi Carnot", "name:oc": "Sadi Carn\u00f2t", "public_transport": "platform", "shelter": "no", "source:name:oc": "ieo-bdtopoc", "tactile_paving": "no"}}, {"type": "node", "id": 1346361123, "lat": 43.2917499, "lon": 5.3843837, "tags": {"bench": "yes", "bin": "yes", "bus": "yes", "highway": "bus_stop", "lit": "yes", "name": "Lodi Fontange", "name:oc": "L\u00f2di - Fontanja", "public_transport": "platform", "shelter": "yes", "source:name:oc": "ieo-bdtopoc", "tactile_paving": "no", "wheelchair": "no"}}, {"type": "node", "id": 1346361130, "lat": 43.2969556, "lon": 5.3767383, "tags": {"bus": "yes", "name": "Canebi\u00e8re Bourse", "name:oc": "Canebiera - Borsa", "public_transport": "stop_position", "source:name:oc": "ieo-bdtopoc"}}, {"type": "node", "id": 1346361132, "lat": 43.2913753, "lon": 5.385146, "tags": {"bus": "yes", "name": "Lodi Fontange", "name:oc": "L\u00f2di - Fontanja", "public_transport": "stop_position", "source:name:oc": "ieo-bdtopoc"}}, {"type": "node", "id": 1346361137, "lat": 43.2968259, "lon": 5.3763109, "tags": {"bus": "yes", "name": "Canebi\u00e8re Bourse", "name:oc": "Canebiera - Borsa", "public_transport": "stop_position", "source:name:oc": "ieo-bdtopoc"}}, {"type": "node", "id": 1346361138, "lat": 43.296689, "lon": 5.3767833, "tags": {"bus": "yes", "name": "Canebi\u00e8re Bourse", "name:oc": "Canebiera - Borsa", "public_transport": "stop_position", "source:name:oc": "ieo-bdtopoc"}}, {"type": "node", "id": 1346361150, "lat": 43.2917898, "lon": 5.3844211, "tags": {"bus": "yes", "name": "Lodi Fontange", "name:oc": "L\u00f2di - Fontanja", "public_transport": "stop_position", "source:name:oc": "ieo-bdtopoc"}}, {"type": "node", "id": 1346361163, "lat": 43.2914072, "lon": 5.3851885, "tags": {"bench": "yes", "bin": "yes", "bus": "yes", "highway": "bus_stop", "lit": "yes", "name": "Lodi Fontange", "name:oc": "L\u00f2di - Fontanja", "public_transport": "platform", "shelter": "no", "source:name:oc": "ieo-bdtopoc", "tactile_paving": "no", "wheelchair": "no"}}, {"type": "node", "id": 1346361184, "lat": 43.2964826, "lon": 5.3760978, "tags": {"bus": "yes", "name": "Canebi\u00e8re Bourse", "name:oc": "Canebiera - Borsa", "public_transport": "stop_position", "source:name:oc": "ieo-bdtopoc"}}, {"type": "node", "id": 1347031628, "lat": 43.2749454, "lon": 5.3964914, "tags": {"bench": "no", "bus": "yes", "highway": "bus_stop", "name": "Teisseire Rabatau", "name:oc": "Teisseire - Rabatau", "public_transport": "platform", "shelter": "no", "source:name:oc": "ieo-bdtopoc"}}, {"type": "node", "id": 1347031703, "lat": 43.2730955, "lon": 5.3989808, "tags": {"bench": "yes", "bin": "no", "bus": "yes", "highway": "bus_stop", "lit": "yes", "name": "Teisseire Montfuron", "name:oc": "Teisseire - Montfuron", "public_transport": "platform", "shelter": "yes", "source:name:oc": "ieo-bdtopoc", "tactile_paving": "no"}}, {"type": "node", "id": 1347031711, "lat": 43.265994, "lon": 5.3951262, "tags": {"bench": "yes", "bin": "no", "bus": "yes", "highway": "bus_stop", "lit": "yes", "name": "Michelet Ramon", "name:oc": "Michelet - Ramon", "public_transport": "platform", "shelter": "yes", "source:name:oc": "ieo-bdtopoc", "tactile_paving": "no", "wheelchair": "no"}}, {"type": "node", "id": 1347031750, "lat": 43.2875198, "lon": 5.3897132, "tags": {"bus": "yes", "name": "Baille Lodi", "name:oc": "Baile - L\u00f2di", "public_transport": "stop_position", "source:name:oc": "ieo-bdtopoc"}}, {"type": "node", "id": 1347031783, "lat": 43.2750406, "lon": 5.3965164, "tags": {"bus": "yes", "name": "Teisseire Rabatau", "name:oc": "Teisseire - Rabatau", "public_transport": "stop_position", "source:name:oc": "ieo-bdtopoc"}}, {"type": "node", "id": 1347031793, "lat": 43.2751196, "lon": 5.3952799, "tags": {"bench": "yes", "bus": "yes", "highway": "bus_stop", "name": "H\u00f4pital Saint-Joseph", "name:oc": "Espitau de Sant Jous\u00e8p", "public_transport": "platform", "shelter": "yes", "source:name:oc": "ieo-bdtopoc", "wheelchair": "yes"}}, {"type": "node", "id": 1347031801, "lat": 43.2875724, "lon": 5.3896347, "tags": {"bench": "yes", "bin": "no", "bus": "yes", "check_date:shelter": "2023-11-08", "highway": "bus_stop", "name": "Baille Lodi", "name:oc": "Baile - L\u00f2di", "public_transport": "platform", "route_ref": "54;540", "shelter": "yes", "source:name:oc": "ieo-bdtopoc"}}, {"type": "node", "id": 1347031815, "lat": 43.2756892, "lon": 5.3964608, "tags": {"bench": "yes", "bus": "yes", "highway": "bus_stop", "name": "Rabatau Rouet", "name:oc": "Rabatau - Rosilh", "public_transport": "platform", "shelter": "yes", "source:name:oc": "ieo-bdtopoc", "wheelchair": "no"}}, {"type": "node", "id": 1347031841, "lat": 43.2659543, "lon": 5.3948937, "tags": {"bench": "yes", "bin": "yes", "bus": "yes", "highway": "bus_stop", "lit": "yes", "name": "Michelet Ramon", "name:oc": "Michelet - Ramon", "public_transport": "platform", "shelter": "yes", "source:name:oc": "ieo-bdtopoc", "tactile_paving": "no", "wheelchair": "no"}}, {"type": "node", "id": 1347031844, "lat": 43.2874522, "lon": 5.3897756, "tags": {"bench": "yes", "bin": "no", "bus": "yes", "check_date:shelter": "2023-11-08", "highway": "bus_stop", "name": "Baille Lodi", "name:oc": "Baile - L\u00f2di", "public_transport": "platform", "route_ref": "54;540", "shelter": "yes", "source:name:oc": "ieo-bdtopoc"}}, {"type": "node", "id": 1348194521, "lat": 43.2916091, "lon": 5.3713492, "tags": {"bus": "yes", "name": "Sainte Fort N. Dame", "name:oc": "Santa - F\u00f2rt de N\u00f2stra D\u00f2na", "public_transport": "stop_position", "source:name:oc": "ieo-bdtopoc"}}, {"type": "node", "id": 1348194522, "lat": 43.2906906, "lon": 5.3713575, "tags": {"bus": "yes", "name": "Place de la Corderie", "name:oc": "Pla\u00e7a de la Cordari\u00e1", "public_transport": "stop_position", "source:name:oc": "ieo-bdtopoc"}}, {"type": "node", "id": 1348194523, "lat": 43.2922423, "lon": 5.3741688, "tags": {"bus": "yes", "name": "Sainte Fortia", "name:oc": "Santa - Fortia", "public_transport": "stop_position", "source:name:oc": "ieo-bdtopoc"}}, {"type": "node", "id": 1348194526, "lat": 43.2916194, "lon": 5.3712662, "tags": {"bench": "no", "bin": "yes", "bus": "yes", "check_date:shelter": "2022-10-15", "highway": "bus_stop", "lit": "yes", "name": "Sainte-Fort Notre-Dame", "name:oc": "Santa - F\u00f2rt de N\u00f2stra D\u00f2na", "public_transport": "platform", "shelter": "no", "source:name:oc": "ieo-bdtopoc", "tactile_paving": "yes"}}, {"type": "node", "id": 1348194527, "lat": 43.2906132, "lon": 5.3713847, "tags": {"bench": "yes", "bin": "no", "bus": "yes", "highway": "bus_stop", "lit": "yes", "name": "Place de la Corderie", "name:oc": "Pla\u00e7a de la Cordelari\u00e1", "public_transport": "platform", "route_ref": "54;56;61;80;81", "shelter": "yes", "source:name:oc": "ieo-bdtopoc", "tactile_paving": "yes"}}, {"type": "node", "id": 1348194528, "lat": 43.2922657, "lon": 5.3741039, "tags": {"bench": "no", "bin": "yes", "bus": "yes", "check_date:shelter": "2022-10-15", "highway": "bus_stop", "lit": "yes", "name": "Sainte Fortia", "name:oc": "Santa - Fortia", "public_transport": "platform", "shelter": "no", "source:name:oc": "ieo-bdtopoc", "tactile_paving": "yes", "wheelchair": "yes"}}, {"type": "node", "id": 1348463224, "lat": 43.2903749, "lon": 5.3770722, "tags": {"bus": "yes", "name": "Estrangin Puget", "name:oc": "Estrangin - Puget", "public_transport": "stop_position", "source:name:oc": "ieo-bdtopoc"}}, {"type": "node", "id": 1348463226, "lat": 43.290494, "lon": 5.3765066, "tags": {"bus": "yes", "name": "Estrangin Puget", "name:oc": "Estrangin - Puget", "public_transport": "stop_position", "source:name:oc": "ieo-bdtopoc"}}, {"type": "node", "id": 1353059498, "lat": 43.2824129, "lon": 5.3855983, "tags": {"bench": "yes", "bin": "yes", "bus": "yes", "highway": "bus_stop", "lit": "yes", "name": "Prado Dupr\u00e9", "name:oc": "Prad\u00f2t - Dupr\u00e9", "public_transport": "platform", "shelter": "yes", "source:name:oc": "ieo-bdtopoc", "tactile_paving": "yes", "wheelchair": "yes"}}, {"type": "node", "id": 1353059499, "lat": 43.2847019, "lon": 5.3844221, "tags": {"bus": "yes", "name": "Castellane", "name:oc": "Castelana", "public_transport": "stop_position", "source:name:oc": "ieo-bdtopoc"}}, {"type": "node", "id": 1353059500, "lat": 43.2816207, "lon": 5.3861755, "tags": {"bus": "yes", "name": "Prado Dupr\u00e9", "name:oc": "Prad\u00f2t - Dupr\u00e9", "public_transport": "stop_position", "source:name:oc": "ieo-bdtopoc"}}, {"type": "node", "id": 1353059501, "lat": 43.2817119, "lon": 5.3862486, "tags": {"bench": "yes", "bin": "no", "bus": "yes", "highway": "bus_stop", "lit": "yes", "name": "Prado Dupr\u00e9", "name:oc": "Prad\u00f2t - Dupr\u00e9", "public_transport": "platform", "shelter": "yes", "source:name:oc": "ieo-bdtopoc", "tactile_paving": "yes", "wheelchair": "yes"}}, {"type": "node", "id": 1353059502, "lat": 43.2824611, "lon": 5.3857029, "tags": {"bus": "yes", "name": "Prado Dupr\u00e9", "name:oc": "Prad\u00f2t - Dupr\u00e9", "public_transport": "stop_position", "source:name:oc": "ieo-bdtopoc"}}, {"type": "node", "id": 1353105307, "lat": 43.2799576, "lon": 5.3784265, "tags": {"bench": "yes", "bin": "yes", "bus": "yes", "highway": "bus_stop", "lit": "yes", "name": "Montebello", "name:oc": "Montebello", "public_transport": "platform", "shelter": "yes", "source:name:oc": "ieo-bdtopoc", "tactile_paving": "no"}}, {"type": "node", "id": 1353105326, "lat": 43.2791784, "lon": 5.3833956, "tags": {"bus": "yes", "name": "Place Delibes", "name:oc": "Pla\u00e7a Deslibes", "public_transport": "stop_position", "source:name:oc": "ieo-bdtopoc"}}, {"type": "node", "id": 1353105328, "lat": 43.2791461, "lon": 5.3832322, "tags": {"bus": "yes", "name": "Place Delibes", "name:oc": "Pla\u00e7a Deslibes", "public_transport": "stop_position", "source:name:oc": "ieo-bdtopoc"}}, {"type": "node", "id": 1353105342, "lat": 43.2788674, "lon": 5.3804642, "tags": {"bench": "no", "bin": "no", "bus": "yes", "highway": "bus_stop", "lit": "yes", "name": "Gaston Cr\u00e9mieux", "name:oc": "Gaston Cremieus", "public_transport": "platform", "shelter": "no", "source:name:oc": "ieo-bdtopoc", "tactile_paving": "no"}}, {"type": "node", "id": 1353105347, "lat": 43.2789487, "lon": 5.3801845, "tags": {"bus": "yes", "name": "Gaston Cr\u00e9mieux", "name:oc": "Gaston Cremieus", "public_transport": "stop_position", "source:name:oc": "ieo-bdtopoc"}}, {"type": "node", "id": 1353105352, "lat": 43.2789079, "lon": 5.3801361, "tags": {"bench": "yes", "bin": "no", "bus": "yes", "highway": "bus_stop", "lit": "yes", "name": "Gaston Cr\u00e9mieux", "name:oc": "Gaston Cremieus", "public_transport": "platform", "shelter": "yes", "source:name:oc": "ieo-bdtopoc", "tactile_paving": "no"}}, {"type": "node", "id": 1353105366, "lat": 43.2797804, "lon": 5.3864126, "tags": {"bus": "yes", "name": "P\u00e9rier Prado", "name:oc": "Perier - Prad\u00f2t", "public_transport": "stop_position", "source:name:oc": "ieo-bdtopoc"}}, {"type": "node", "id": 1353105373, "lat": 43.2811921, "lon": 5.3782687, "tags": {"bench": "yes", "bus": "yes", "highway": "bus_stop", "name": "Vallon Montebello", "name:oc": "Valon Montebello", "public_transport": "platform", "shelter": "yes", "source:name:oc": "ieo-bdtopoc", "tactile_paving": "yes"}}, {"type": "node", "id": 1353105387, "lat": 43.2812334, "lon": 5.3783334, "tags": {"bus": "yes", "name": "Vallon Montebello", "name:oc": "Valon Montebello", "public_transport": "stop_position", "source:name:oc": "ieo-bdtopoc"}}, {"type": "node", "id": 1353105392, "lat": 43.2792012, "lon": 5.3832175, "tags": {"bench": "no", "bin": "no", "bus": "yes", "highway": "bus_stop", "lit": "no", "name": "Place Delibes", "name:oc": "Pla\u00e7a Deslibes", "public_transport": "platform", "shelter": "no", "source:name:oc": "ieo-bdtopoc", "tactile_paving": "no"}}, {"type": "node", "id": 1353105408, "lat": 43.2797255, "lon": 5.3864401, "tags": {"amenity": "shelter", "name": "P\u00e9rier Prado", "name:oc": "Perier - Prad\u00f2t", "shelter_type": "public_transport"}}, {"type": "node", "id": 1353105416, "lat": 43.2802126, "lon": 5.3784505, "tags": {"bench": "no", "bin": "yes", "bus": "yes", "highway": "bus_stop", "lit": "yes", "name": "Montebello", "name:oc": "Montebello", "public_transport": "platform", "shelter": "no", "source:name:oc": "ieo-bdtopoc", "tactile_paving": "no"}}, {"type": "node", "id": 1353105433, "lat": 43.2812518, "lon": 5.3785746, "tags": {"bench": "no", "bus": "yes", "highway": "bus_stop", "name": "Vallon Montebello", "name:oc": "Valon Montebello", "public_transport": "platform", "shelter": "no", "source:name:oc": "ieo-bdtopoc", "tactile_paving": "no"}}, {"type": "node", "id": 1353105437, "lat": 43.2788181, "lon": 5.38039, "tags": {"bus": "yes", "name": "Gaston Cr\u00e9mieux", "name:oc": "Gaston Cremieus", "public_transport": "stop_position", "source:name:oc": "ieo-bdtopoc"}}, {"type": "node", "id": 1353105442, "lat": 43.2791147, "lon": 5.3834051, "tags": {"bench": "yes", "bin": "no", "bus": "yes", "highway": "bus_stop", "lit": "no", "name": "Place Delibes", "name:oc": "Pla\u00e7a Deslibes", "public_transport": "platform", "shelter": "yes", "source:name:oc": "ieo-bdtopoc", "tactile_paving": "no"}}, {"type": "node", "id": 1353105455, "lat": 43.2798257, "lon": 5.3863357, "tags": {"amenity": "shelter", "name": "P\u00e9rier Prado", "name:oc": "Perier - Prad\u00f2t", "shelter_type": "public_transport"}}, {"type": "node", "id": 1353167677, "lat": 43.2837955, "lon": 5.3754581, "tags": {"bus": "yes", "name": "Place Val\u00e8re Bernard", "name:oc": "Pla\u00e7a Val\u00e8ri Bernat", "public_transport": "stop_position", "source:name:oc": "ieo-bdtopoc"}}, {"type": "node", "id": 1353201449, "lat": 43.2829451, "lon": 5.3744181, "tags": {"bench": "no", "bin": "no", "bus": "yes", "highway": "bus_stop", "lit": "no", "name": "Fort du Sanctuaire", "name:oc": "F\u00f2rt dau Sanctuari", "public_transport": "platform", "shelter": "no", "source:name:oc": "ieo-bdtopoc", "tactile_paving": "yes"}}, {"type": "node", "id": 1353201451, "lat": 43.286661, "lon": 5.3773089, "tags": {"bus": "yes", "name": "Breteuil Dragon", "name:oc": "Bretuelh - Dragon", "public_transport": "stop_position", "source:name:oc": "ieo-bdtopoc"}}, {"type": "node", "id": 1353201452, "lat": 43.2819521, "lon": 5.3747533, "tags": {"bus": "yes", "name": "Martinique Guadeloupe", "name:oc": "Martinica - Guadalope", "public_transport": "stop_position", "source:name:oc": "ieo-bdtopoc"}}, {"type": "node", "id": 1353201453, "lat": 43.2818973, "lon": 5.3743447, "tags": {"bench": "no", "bin": "no", "bus": "yes", "highway": "bus_stop", "lit": "no", "name": "Guadeloupe Martinique", "name:oc": "Guadalope - Martinica", "public_transport": "platform", "shelter": "no", "source:name:oc": "ieo-bdtopoc", "tactile_paving": "no"}}, {"type": "node", "id": 1353201454, "lat": 43.2818733, "lon": 5.3770059, "tags": {"bench": "yes", "bin": "no", "bus": "yes", "highway": "bus_stop", "name": "Vauban", "name:oc": "Vauban", "public_transport": "platform", "shelter": "no", "source:name:oc": "ieo-bdtopoc", "tactile_paving": "no"}}, {"type": "node", "id": 1353201455, "lat": 43.2838179, "lon": 5.3754243, "tags": {"bench": "no", "bin": "yes", "bus": "yes", "check_date:shelter": "2023-02-18", "highway": "bus_stop", "lit": "yes", "name": "Place Val\u00e8re Bernard", "name:oc": "Pla\u00e7a Val\u00e8ri Bernat", "public_transport": "platform", "shelter": "no", "source:name:oc": "ieo-bdtopoc", "tactile_paving": "no"}}, {"type": "node", "id": 1353201456, "lat": 43.2883366, "lon": 5.3765608, "tags": {"bench": "no", "bus": "yes", "highway": "bus_stop", "name": "Breteuil Sylvabelle", "name:oc": "Bretuelh - Silvab\u00e8la", "public_transport": "platform", "shelter": "no", "source:name:oc": "ieo-bdtopoc", "tactile_paving": "no"}}, {"type": "node", "id": 1353201457, "lat": 43.2871002, "lon": 5.3737897, "tags": {"bus": "yes", "name": "Notre-Dame Dragon", "name:oc": "N\u00f2stra D\u00f2na - Dragon", "public_transport": "stop_position", "source:name:oc": "ieo-bdtopoc"}},