{"version": 0.6, "generator": "Overpass API 0.7.62.8 e802775f", "osm3s": {"timestamp_osm_base": "2026-01-12T01:17:00Z", "copyright": "The data included in this document is from www.openstreetmap.org. The data is made available under ODbL."}, "elements": [{"type": "node", "id": 725873852, "lat": -36.7948583, "lon": 174.6853571, "tags": {"bus": "yes", "highway": "bus_stop", "name": "Aeroview Drive", "public_transport": "platform"}}, {"type": "node", "id": 725873882, "lat": -36.7920791, "lon": 174.6874277, "tags": {"bus": "yes", "departures_board": "realtime", "highway": "bus_stop", "name": "Beach Haven Shops", "name:en": "Beach Haven Shops", "name:mi": "Ng\u0101 Toa o Beach Haven", "network": "AT", "network:wikidata": "Q4819567", "public_transport": "platform", "ref": "4150", "shelter": "yes"}}, {"type": "node", "id": 725873883, "lat": -36.7925966, "lon": 174.6878409, "tags": {"bus": "yes", "highway": "bus_stop", "name": "Beach Haven Shops", "name:en": "Beach Haven Shops", "name:mi": "Ng\u0101 Toa o Beach Haven", "network": "AT", "network:wikidata": "Q4819567", "public_transport": "platform", "ref": "4037", "shelter": "yes"}}, {"type": "node", "id": 725873895, "lat": -36.7983016, "lon": 174.6907954, "tags": {"bus": "yes", "highway": "bus_stop", "name": "Aeroview Drive", "name:en": "Aeroview Drive", "name:mi": "Te Ara \u0100whio o Aeroview", "network": "AT", "network:wikidata": "Q4819567", "public_transport": "platform", "ref": "4033"}}, {"type": "node", "id": 725873981, "lat": -36.8008933, "lon": 174.6912445, "tags": {"bus": "yes", "highway": "bus_stop", "name": "Lysander Crescent", "name:en": "Lysander Crescent", "name:mi": "Te Araniko o Lysander", "network": "AT", "network:wikidata": "Q4819567", "public_transport": "platform", "ref": "4031"}}, {"type": "node", "id": 955713779, "lat": -36.7199701, "lon": 174.7172197, "tags": {"bench": "yes", "bus": "yes", "highway": "bus_stop", "name": "Lagonda Rise", "public_transport": "platform", "ref": "4534", "shelter": "yes"}}, {"type": "node", "id": 955861859, "lat": -36.7507986, "lon": 174.7109454, "tags": {"bench": "yes", "bin": "no", "bus": "yes", "highway": "bus_stop", "lit": "yes", "name": "Rosedale Park North", "name:en": "Rosedale Park North", "name:mi": "Te Papa R\u0113hia o Rosedale kei te Raki", "network": "AT", "network:wikidata": "Q4819567", "public_transport": "platform", "ref": "3633", "shelter": "yes", "tactile_paving": "no"}}, {"type": "node", "id": 955861885, "lat": -36.7598799, "lon": 174.7155203, "tags": {"bus": "yes", "highway": "bus_stop", "name": "Rifleman Rise", "network": "AT", "network:wikidata": "Q4819567", "public_transport": "platform", "ref": "3822"}}, {"type": "node", "id": 1706610144, "lat": -36.7440759, "lon": 174.6971, "tags": {"bus": "yes", "highway": "bus_stop", "name": "Lovell Court", "network": "AT", "network:wikidata": "Q4819567", "public_transport": "platform", "ref": "3786"}}, {"type": "node", "id": 1706610145, "lat": -36.7443179, "lon": 174.6973089, "tags": {"bus": "yes", "highway": "bus_stop", "name": "Lovell Court", "network": "AT", "network:wikidata": "Q4819567", "public_transport": "platform", "ref": "3627"}}, {"type": "node", "id": 2006136532, "lat": -36.8037104, "lon": 174.644205, "tags": {"bus": "yes", "highway": "bus_stop", "public_transport": "platform", "ref": "5684"}}, {"type": "node", "id": 2006136533, "lat": -36.8039026, "lon": 174.6437851, "tags": {"bus": "yes", "highway": "bus_stop", "public_transport": "platform", "ref": "5683"}}, {"type": "node", "id": 2128873040, "lat": -36.7719523, "lon": 174.6819172, "tags": {"bus": "yes", "highway": "bus_stop", "name": "Orwell Road", "name:en": "Orwell Road", "name:mi": "Te Huarahi o Orwell", "network": "AT", "network:wikidata": "Q4819567", "public_transport": "platform", "ref": "4271"}}, {"type": "node", "id": 2128873051, "lat": -36.7732406, "lon": 174.675106, "tags": {"bench": "yes", "bin": "yes", "bus": "yes", "highway": "bus_stop", "name": "Greenhithe School", "name:en": "Greenhithe School", "name:mi": "Te Kura o Greenhithe", "network": "AT", "network:wikidata": "Q4819567", "public_transport": "platform", "ref": "3603", "shelter": "yes"}}, {"type": "node", "id": 2128873052, "lat": -36.7736541, "lon": 174.6748658, "tags": {"bus": "yes", "highway": "bus_stop", "name": "Greenhithe School", "name:en": "Greenhithe School", "name:mi": "Te Kura o Greenhithe", "network": "AT", "network:wikidata": "Q4819567", "public_transport": "platform", "ref": "3599"}}, {"type": "node", "id": 2128873053, "lat": -36.7751383, "lon": 174.671021, "tags": {"bus": "yes", "highway": "bus_stop", "name": "Greenhithe Shops", "name:en": "Greenhithe Shops", "name:mi": "Ng\u0101 Toa o Greenhithe", "network": "AT", "network:wikidata": "Q4819567", "public_transport": "platform", "ref": "4305", "shelter": "yes"}}, {"type": "node", "id": 2128873054, "lat": -36.7751848, "lon": 174.6708527, "tags": {"bus": "yes", "highway": "bus_stop", "name": "Greenhithe Shops", "name:en": "Greenhithe Shops", "name:mi": "Ng\u0101 Toa o Greenhithe", "network": "AT", "network:wikidata": "Q4819567", "public_transport": "platform", "ref": "3756"}}, {"type": "node", "id": 2128873116, "lat": -36.7801476, "lon": 174.6731734, "tags": {"bus": "yes", "highway": "bus_stop", "name": "Pounamu Avenue", "name:en": "Pounamu Avenue", "name:mi": "Te Arah\u0101ngai o Pounamu", "network": "AT", "network:wikidata": "Q4819567", "public_transport": "platform", "ref": "3163"}}, {"type": "node", "id": 2139771426, "lat": -36.7876669, "lon": 174.6723821, "tags": {"amenity": "ferry_terminal", "fare_gates": "no", "ferry": "yes", "loc_ref": "1", "name": "Hobsonville Point", "name:en": "Hobsonville Point", "name:mi": "Onekiritea", "network": "AT", "network:wikidata": "Q4819567", "official_name": "Hobsonville Point Ferry Terminal", "official_name:en": "Hobsonville Point Ferry Terminal", "official_name:mi": "Taunga Waka K\u014dpiko o Onekiritea", "operator": "Discovery 360", "public_transport": "stop_position", "ref": "9720", "start_date": "2013-02-03", "wikidata": "Q131196270"}}, {"type": "node", "id": 2148860656, "lat": -36.7894526, "lon": 174.6947205, "tags": {"bus": "yes", "highway": "bus_stop", "name": "Lancaster Road", "name:en": "Lancaster Road", "name:mi": "Te Huarahi o Lancaster", "network": "AT", "network:wikidata": "Q4819567", "public_transport": "platform", "ref": "4049", "shelter": "yes"}}, {"type": "node", "id": 2148860662, "lat": -36.7898105, "lon": 174.6931657, "tags": {"bus": "yes", "highway": "bus_stop", "name": "Maria Assumpta Catholic Church", "name:en": "Maria Assumpta Catholic Church", "network": "AT", "network:wikidata": "Q4819567", "public_transport": "platform", "ref": "4045", "shelter": "yes"}}, {"type": "node", "id": 2148860663, "lat": -36.7901675, "lon": 174.6922658, "tags": {"bus": "yes", "highway": "bus_stop", "name": "Maria Assumpta Catholic Church", "name:en": "Maria Assumpta Catholic Church", "network": "AT", "network:wikidata": "Q4819567", "public_transport": "platform", "ref": "4047", "shelter": "no"}}, {"type": "node", "id": 2148860665, "lat": -36.7908006, "lon": 174.6897859, "tags": {"bench": "yes", "bin": "yes", "bus": "yes", "departures_board": "yes", "highway": "bus_stop", "lit": "yes", "name": "Shepherds Park", "name:en": "Shepherds Park", "name:mi": "Te Papa R\u0113hia o Shepherd", "network": "AT", "network:wikidata": "Q4819567", "public_transport": "platform", "ref": "4160", "shelter": "yes", "tactile_paving": "no"}}, {"type": "node", "id": 2148860666, "lat": -36.7909528, "lon": 174.6896244, "tags": {"bench": "no", "bin": "no", "bus": "yes", "highway": "bus_stop", "lit": "no", "name": "Shepherds Park", "name:en": "Shepherds Park", "name:mi": "Te Papa R\u0113hia o Shepherd", "network": "AT", "network:wikidata": "Q4819567", "public_transport": "platform", "ref": "4043", "shelter": "no", "tactile_paving": "no"}}, {"type": "node", "id": 2148860679, "lat": -36.7970385, "lon": 174.7008669, "tags": {"bus": "yes", "highway": "bus_stop", "name": "Tiri Tiri Road", "name:en": "Tiri Tiri Road", "name:mi": "Te Huarahi o Tiri Tiri", "network": "AT", "network:wikidata": "Q4819567", "public_transport": "platform", "ref": "4172", "shelter": "yes"}}, {"type": "node", "id": 2148860685, "lat": -36.7983479, "lon": 174.690661, "tags": {"bus": "yes", "highway": "bus_stop", "name": "Aeroview Drive", "name:en": "Aeroview Drive", "name:mi": "Te Ara \u0100whio o Aeroview", "network": "AT", "network:wikidata": "Q4819567", "public_transport": "platform", "ref": "4146", "shelter": "yes"}}, {"type": "node", "id": 2148860760, "lat": -36.8007709, "lon": 174.7031129, "tags": {"bus": "yes", "highway": "bus_stop", "name": "Birkdale Primary School", "network": "AT", "network:wikidata": "Q4819567", "public_transport": "platform", "ref": "4059", "shelter": "yes"}}, {"type": "node", "id": 2171010324, "lat": -36.8018273, "lon": 174.7249207, "tags": {"bus": "yes", "highway": "bus_stop", "name": "Coroglen Avenue", "name:en": "Coroglen Avenue", "name:mi": "Te Arah\u0101ngai o Coroglen", "network": "AT", "network:wikidata": "Q4819567", "public_transport": "platform", "ref": "3895"}}, {"type": "node", "id": 2171010326, "lat": -36.8020193, "lon": 174.7247758, "tags": {"bench": "no", "bin": "no", "bus": "yes", "departures_board": "timetable", "highway": "bus_stop", "name": "Coroglen Avenue", "name:en": "Coroglen Avenue", "name:mi": "Te Arah\u0101ngai o Coroglen", "network": "AT", "network:wikidata": "Q4819567", "public_transport": "platform", "ref": "4024", "shelter": "no"}}, {"type": "node", "id": 2171010385, "lat": -36.8042014, "lon": 174.7253799, "tags": {"bench": "yes", "bin": "no", "bus": "yes", "highway": "bus_stop", "lit": "yes", "name": "Pupuke Road", "name:en": "Pupuke Road", "name:mi": "Te Huarahi o Pupuke", "network": "AT", "network:wikidata": "Q4819567", "public_transport": "platform", "ref": "3897", "shelter": "yes", "tactile_paving": "no"}}, {"type": "node", "id": 2171047346, "lat": -36.7717111, "lon": 174.7112827, "tags": {"bus": "yes", "highway": "bus_stop", "name": "Spinella Reserve", "name:en": "Spinella Reserve", "name:mi": "Te Papa R\u0101hui o Spinella", "network": "AT", "network:wikidata": "Q4819567", "public_transport": "platform", "ref": "3757"}}, {"type": "node", "id": 2171047409, "lat": -36.7732027, "lon": 174.7027301, "tags": {"bus": "yes", "highway": "bus_stop", "name": "Lynn Reserve", "name:en": "Lynn Reserve", "name:mi": "Te Papa R\u0101hui o Lynn", "network": "AT", "network:wikidata": "Q4819567", "public_transport": "platform", "ref": "4077"}}, {"type": "node", "id": 2171047443, "lat": -36.7751143, "lon": 174.7032342, "tags": {"bus": "yes", "highway": "bus_stop", "name": "Hale Crescent", "network": "AT", "network:wikidata": "Q4819567", "public_transport": "platform", "ref": "3765"}}, {"type": "node", "id": 2358370663, "lat": -36.725547, "lon": 174.6959783, "tags": {"bus": "yes", "highway": "bus_stop", "name": "Albany Village", "name:en": "Albany Village", "name:mi": "Te P\u0101 o \u014ckahukura", "network": "AT", "network:wikidata": "Q4819567", "public_transport": "platform", "ref": "3563"}}, {"type": "node", "id": 2358370854, "lat": -36.7387359, "lon": 174.6924534, "tags": {"bus": "yes", "highway": "bus_stop", "public_transport": "platform", "ref": "3577", "shelter": "yes"}}, {"type": "node", "id": 2358370916, "lat": -36.7422943, "lon": 174.6928533, "tags": {"bus": "yes", "highway": "bus_stop", "name": "Kristin School", "name:en": "Kristin School", "name:mi": "Te Kura o Kristin", "network": "AT", "network:wikidata": "Q4819567", "public_transport": "platform", "ref": "3579", "shelter": "yes"}}, {"type": "node", "id": 2358383785, "lat": -36.7357014, "lon": 174.6915433, "tags": {"bus": "yes", "highway": "bus_stop", "name": "Summerfield Lane", "network": "AT", "network:wikidata": "Q4819567", "public_transport": "platform", "ref": "3571"}}, {"type": "node", "id": 2514714979, "lat": -36.722259, "lon": 174.7122173}, {"type": "node", "id": 2605816470, "lat": -36.778195, "lon": 174.6709672, "tags": {"bus": "yes", "highway": "bus_stop", "name": "Marae Road", "name:en": "Marae Road", "name:mi": "Te Huarahi o Marae", "network": "AT", "network:wikidata": "Q4819567", "public_transport": "platform", "ref": "3601"}}, {"type": "node", "id": 2629383269, "lat": -36.7713888, "lon": 174.686963, "tags": {"bus": "yes", "highway": "bus_stop", "name": "Motorway Overbridge", "public_transport": "platform", "ref": "4301"}}, {"type": "node", "id": 2774650417, "lat": -36.7629868, "lon": 174.705775, "tags": {"bus": "yes", "highway": "bus_stop", "name": "Dene Court Lane", "name:en": "Dene Court Lane", "name:mi": "Te Arak\u016biti o Dene Court", "network": "AT", "network:wikidata": "Q4819567", "public_transport": "platform", "ref": "3591"}}, {"type": "node", "id": 2774650418, "lat": -36.7691522, "lon": 174.7000744, "tags": {"bus": "yes", "highway": "bus_stop", "name": "Kerer\u016b Grove", "network": "AT", "network:wikidata": "Q4819567", "public_transport": "platform", "ref": "3752"}}, {"type": "node", "id": 2774650420, "lat": -36.7698231, "lon": 174.6993902, "tags": {"bus": "yes", "highway": "bus_stop", "public_transport": "platform", "ref": "3593"}}, {"type": "node", "id": 2774650447, "lat": -36.7771501, "lon": 174.6908036, "tags": {"bus": "yes", "highway": "bus_stop", "name": "Upper Harbour Drive", "name:en": "Upper Harbour Drive", "name:mi": "Te Ara \u0100whio o Upper Harbour", "network": "AT", "network:wikidata": "Q4819567", "public_transport": "platform"}}, {"type": "node", "id": 2822327260, "lat": -36.7961806, "lon": 174.7235055, "tags": {"bench": "yes", "bin": "no", "bus": "yes", "highway": "bus_stop", "name": "Speedy Crescent", "network": "AT", "network:wikidata": "Q4819567", "public_transport": "platform", "ref": "4020", "shelter": "yes"}}, {"type": "node", "id": 2822327261, "lat": -36.7966682, "lon": 174.7236868, "tags": {"bench": "yes", "bin": "yes", "bus": "yes", "highway": "bus_stop", "name": "Speedy Crescent", "network": "AT", "network:wikidata": "Q4819567", "public_transport": "platform", "ref": "3891", "shelter": "yes"}}, {"type": "node", "id": 2822327262, "lat": -36.7983997, "lon": 174.723415, "tags": {"bench": "yes", "bin": "yes", "bus": "yes", "highway": "bus_stop", "lit": "yes", "name": "Glenfield Road / Eskdale Road", "name:en": "Glenfield Road / Eskdale Road", "name:mi": "Te Huarahi o Glenfield m\u0101 Te Huarahi o Eskdale", "network": "AT", "network:wikidata": "Q4819567", "public_transport": "platform", "ref": "4022", "shelter": "yes", "tactile_paving": "no"}}, {"type": "node", "id": 2905172358, "lat": -36.7425756, "lon": 174.6951251, "tags": {"access": "no", "bus": "yes", "highway": "bus_stop", "name": "William Pickering Drive", "network": "AT", "network:wikidata": "Q4819567", "public_transport": "platform", "ref": "3700", "school_bus": "designated"}}, {"type": "node", "id": 2905172359, "lat": -36.7426758, "lon": 174.6954438, "tags": {"access": "no", "bus": "yes", "highway": "bus_stop", "name": "William Pickering Drive", "network": "AT", "network:wikidata": "Q4819567", "public_transport": "platform", "ref": "3762", "school_bus": "designated"}}, {"type": "node", "id": 3151754384, "lat": -36.7987196, "lon": 174.6483283, "tags": {"bus": "yes", "highway": "bus_stop", "public_transport": "platform", "ref": "5679", "shelter": "yes"}}, {"type": "node", "id": 3151754386, "lat": -36.7987296, "lon": 174.6484575, "tags": {"bus": "yes", "highway": "bus_stop", "public_transport": "platform", "ref": "5680", "shelter": "yes"}}, {"type": "node", "id": 3151754561, "lat": -36.801602, "lon": 174.6458746, "tags": {"bus": "yes", "highway": "bus_stop", "public_transport": "platform", "ref": "5681"}}, {"type": "node", "id": 3151754562, "lat": -36.8018565, "lon": 174.6459205, "tags": {"bus": "yes", "highway": "bus_stop", "public_transport": "platform", "ref": "5682"}}, {"type": "node", "id": 3247421609, "lat": -36.7904261, "lon": 174.6604576, "tags": {"bus": "yes", "highway": "bus_stop", "public_transport": "platform", "ref": "5932"}}, {"type": "node", "id": 3247421628, "lat": -36.7920868, "lon": 174.6584645, "tags": {"bus": "yes", "highway": "bus_stop", "public_transport": "platform", "ref": "5917"}}, {"type": "node", "id": 3247421629, "lat": -36.7921723, "lon": 174.6585654, "tags": {"bus": "yes", "highway": "bus_stop", "network": "AT", "network:wikidata": "Q4819567", "public_transport": "platform", "ref": "5934"}}, {"type": "node", "id": 3247421644, "lat": -36.7928162, "lon": 174.6560445, "tags": {"bus": "yes", "highway": "bus_stop", "name": "Squadron Drive / Buckley Avenue", "name:en": "Squadron Drive / Buckley Avenue", "name:mi": "Te Ara \u0100whio o Squadron m\u0101 Te Arah\u0101ngai o Buckley", "network": "AT", "network:wikidata": "Q4819567", "public_transport": "platform", "ref": "1645"}}, {"type": "node", "id": 3247421647, "lat": -36.7930086, "lon": 174.6559541, "tags": {"bus": "yes", "highway": "bus_stop", "name": "Squadron Drive / Buckley Avenue", "name:en": "Squadron Drive / Buckley Avenue", "name:mi": "Te Ara \u0100whio o Squadron m\u0101 Te Arah\u0101ngai o Buckley", "network": "AT", "network:wikidata": "Q4819567", "public_transport": "platform", "ref": "1646", "shelter": "yes"}}, {"type": "node", "id": 3247424167, "lat": -36.7972052, "lon": 174.6497183, "tags": {"bench": "yes", "bus": "yes", "check_date:shelter": "2021-11-23", "highway": "bus_stop", "name": "Hobsonville War Memorial Park", "name:en": "Hobsonville War Memorial Park", "network": "AT", "network:wikidata": "Q4819567", "public_transport": "platform", "ref": "5838", "shelter": "yes"}}, {"type": "node", "id": 3247424168, "lat": -36.7979734, "lon": 174.6492574, "tags": {"bus": "yes", "highway": "bus_stop", "name": "Hobsonville War Memorial Park", "name:en": "Hobsonville War Memorial Park", "network": "AT", "network:wikidata": "Q4819567", "public_transport": "platform", "ref": "5809", "shelter": "no"}}, {"type": "node", "id": 3247451956, "lat": -36.7890947, "lon": 174.6716323, "tags": {"bench": "yes", "bin": "yes", "bus": "yes", "capacity": "2", "highway": "bus_stop", "name": "Hobsolville Point Ferry Terminal", "name:en": "Hobsolville Point Ferry Terminal", "name:mi": "Taunga Waka K\u014dpiko o Onekiritea", "network": "AT", "network:wikidata": "Q4819567", "public_transport": "platform", "ref": "5883", "shelter": "yes", "tactile_paving": "yes"}}, {"type": "node", "id": 3247451986, "lat": -36.7926109, "lon": 174.6612588, "tags": {"bench": "yes", "bus": "yes", "highway": "bus_stop", "name": "Hobsonville Point Primary School", "name:en": "Hobsonville Point Primary School", "name:mi": "Te Kura Tuatahi o Hobsonville Point", "network": "AT", "network:wikidata": "Q4819567", "public_transport": "platform", "ref": "1664", "shelter": "yes", "tactile_paving": "no"}}, {"type": "node", "id": 3247451996, "lat": -36.7951434, "lon": 174.6565234, "tags": {"bus": "yes", "highway": "bus_stop", "name": "Hobsonville Point Secondary School", "network": "AT", "network:wikidata": "Q4819567", "public_transport": "platform", "ref": "1647", "shelter": "yes"}}, {"type": "node", "id": 3247452005, "lat": -36.7992035, "lon": 174.6455416, "tags": {"bench": "yes", "bus": "yes", "highway": "bus_stop", "name": "New World Hobsonville", "name:en": "New World Hobsonville", "network": "AT", "network:wikidata": "Q4819567", "public_transport": "platform", "ref": "5836", "shelter": "yes"}}, {"type": "node", "id": 3247452027, "lat": -36.8046867, "lon": 174.6379809, "tags": {"bus": "yes", "highway": "bus_stop", "name": "Hobsonville School", "name:en": "Hobsonville School", "name:mi": "Te Kura o Hobsonville", "network": "AT", "network:wikidata": "Q4819567", "public_transport": "platform", "ref": "5834", "shelter": "no"}}, {"type": "node", "id": 3247452037, "lat": -36.8057896, "lon": 174.6372545, "tags": {"bus": "yes", "highway": "bus_stop", "name": "Hobsonville School", "name:en": "Hobsonville School", "name:mi": "Te Kura o Hobsonville", "network": "AT", "network:wikidata": "Q4819567", "public_transport": "platform", "ref": "5811", "shelter": "no"}}, {"type": "node", "id": 3259548258, "lat": -36.7874608, "lon": 174.7006736, "tags": {"bus": "yes", "highway": "bus_stop", "name": "Lauderdale Road", "name:en": "Lauderdale Road", "name:mi": "Te Huarahi o Lauderdale", "network": "AT", "network:wikidata": "Q4819567", "public_transport": "platform", "ref": "4204"}}, {"type": "node", "id": 3259548259, "lat": -36.7875538, "lon": 174.7007279, "tags": {"bus": "yes", "highway": "bus_stop", "name": "Lauderdale Road", "name:en": "Lauderdale Road", "name:mi": "Te Huarahi o Lauderdale", "network": "AT", "network:wikidata": "Q4819567", "public_transport": "platform", "ref": "4075", "shelter": "no"}}, {"type": "node", "id": 3259548583, "lat": -36.7885818, "lon": 174.6997341, "tags": {"bus": "yes", "highway": "bus_stop", "name": "Birkdale Bible Chapel", "network": "AT", "network:wikidata": "Q4819567", "public_transport": "platform", "ref": "4051", "shelter": "yes"}}, {"type": "node", "id": 3259548585, "lat": -36.788629, "lon": 174.6995982, "tags": {"bus": "yes", "highway": "bus_stop", "name": "Birkdale Bible Chapel", "network": "AT", "network:wikidata": "Q4819567", "public_transport": "platform", "ref": "4164", "shelter": "no"}}, {"type": "node", "id": 3259548590, "lat": -36.7890415, "lon": 174.6957835, "tags": {"bus": "yes", "departures_board": "realtime", "highway": "bus_stop", "name": "Lancaster Road", "name:en": "Lancaster Road", "name:mi": "Te Huarahi o Lancaster", "network": "AT", "network:wikidata": "Q4819567", "public_transport": "platform", "ref": "4162", "shelter": "yes"}}, {"type": "node", "id": 3259548639, "lat": -36.7900429, "lon": 174.6798759, "tags": {"bus": "yes", "highway": "bus_stop", "name": "Beach Haven Wharf", "name:en": "Beach Haven Wharf", "network": "AT", "network:wikidata": "Q4819567", "public_transport": "platform", "ref": "4158"}}, {"type": "node", "id": 3259548640, "lat": -36.7900477, "lon": 174.703361, "tags": {"bus": "yes", "highway": "bus_stop", "name": "McPhail Street", "name:en": "McPhail Street", "name:mi": "Te Tiriti o McPhail", "network": "AT", "network:wikidata": "Q4819567", "public_transport": "platform", "ref": "4444"}}, {"type": "node", "id": 3259548643, "lat": -36.7902499, "lon": 174.7003744, "tags": {"bus": "yes", "highway": "bus_stop", "name": "Birkdale North School", "network": "AT", "network:wikidata": "Q4819567", "public_transport": "platform", "ref": "4166", "shelter": "no"}}, {"type": "node", "id": 3259548644, "lat": -36.790363, "lon": 174.7037748, "tags": {"bus": "yes", "highway": "bus_stop", "name": "McPhail Street", "name:en": "McPhail Street", "name:mi": "Te Tiriti o McPhail", "network": "AT", "network:wikidata": "Q4819567", "public_transport": "platform", "ref": "4393"}}, {"type": "node", "id": 3259548646, "lat": -36.7906728, "lon": 174.6816473, "tags": {"bus": "yes", "highway": "bus_stop", "name": "Rambler Crescent", "name:en": "Rambler Crescent", "network": "AT", "network:wikidata": "Q4819567", "public_transport": "platform", "ref": "4156"}}, {"type": "node", "id": 3259548648, "lat": -36.790799, "lon": 174.6818236, "tags": {"bus": "yes", "highway": "bus_stop", "name": "Rambler Crescent", "name:en": "Rambler Crescent", "network": "AT", "network:wikidata": "Q4819567", "public_transport": "platform", "ref": "4041"}}, {"type": "node", "id": 3259548657, "lat": -36.7913365, "lon": 174.6852742, "tags": {"bus": "yes", "highway": "bus_stop", "name": "Cresta Avenue", "name:en": "Cresta Avenue", "name:mi": "Te Arah\u0101ngai o Cresta", "network": "AT", "network:wikidata": "Q4819567", "public_transport": "platform", "ref": "4154", "shelter": "yes"}}, {"type": "node", "id": 3259548672, "lat": -36.7915916, "lon": 174.6867695, "tags": {"bus": "yes", "highway": "bus_stop", "name": "Rangitira Road", "name:en": "Rangitira Road", "name:mi": "Te Huarahi o Rangitira", "network": "AT", "network:wikidata": "Q4819567", "public_transport": "platform", "ref": "4152", "shelter": "no"}}, {"type": "node", "id": 3259548676, "lat": -36.7916526, "lon": 174.6866954, "tags": {"bus": "yes", "highway": "bus_stop", "name": "Rangitira Road", "name:en": "Rangitira Road", "name:mi": "Te Huarahi o Rangitira", "network": "AT", "network:wikidata": "Q4819567", "public_transport": "platform", "ref": "4039", "shelter": "no"}}, {"type": "node", "id": 3259548689, "lat": -36.7924836, "lon": 174.700739, "tags": {"bus": "yes", "highway": "bus_stop", "name": "Levesque Street Shops", "name:en": "Levesque Street Shops", "name:mi": "Ng\u0101 Toa o Te Tiriti o Levesque", "network": "AT", "network:wikidata": "Q4819567", "public_transport": "platform", "ref": "4168"}}, {"type": "node", "id": 3259548690, "lat": -36.7926244, "lon": 174.7070437, "tags": {"bus": "yes", "highway": "bus_stop", "name": "Lauderdale Road / Eskdale Road", "name:en": "Lauderdale Road / Eskdale Road", "name:mi": "Te Huarahi o Lauderdale m\u0101 Te Huarahi o Eskdale", "network": "AT", "network:wikidata": "Q4819567", "public_transport": "platform", "ref": "4391"}}, {"type": "node", "id": 3259548691, "lat": -36.792835, "lon": 174.700876, "tags": {"bus": "yes", "highway": "bus_stop", "name": "Levesque Street Shops", "name:en": "Levesque Street Shops", "name:mi": "Ng\u0101 Toa o Te Tiriti o Levesque", "network": "AT", "network:wikidata": "Q4819567", "public_transport": "platform", "ref": "4053"}}, {"type": "node", "id": 3259548692, "lat": -36.7929557, "lon": 174.7070421, "tags": {"bus": "yes", "highway": "bus_stop", "name": "Lauderdale Road / Eskdale Road", "name:en": "Lauderdale Road / Eskdale Road", "name:mi": "Te Huarahi o Lauderdale m\u0101 Te Huarahi o Eskdale", "network": "AT", "network:wikidata": "Q4819567", "public_transport": "platform", "ref": "4208"}}, {"type": "node", "id": 3259548714, "lat": -36.7936089, "lon": 174.7087261, "tags": {"bus": "yes", "highway": "bus_stop", "name": "Verbena Road", "name:en": "Verbena Road", "name:mi": "Te Huarahi o Verbena", "network": "AT", "network:wikidata": "Q4819567", "public_transport": "platform", "ref": "4218", "shelter": "yes"}}, {"type": "node", "id": 3259548715, "lat": -36.7937603, "lon": 174.7086963, "tags": {"bus": "yes", "highway": "bus_stop", "name": "Verbena Road", "name:en": "Verbena Road", "name:mi": "Te Huarahi o Verbena", "network": "AT", "network:wikidata": "Q4819567", "public_transport": "platform", "ref": "4073", "shelter": "no"}}, {"type": "node", "id": 3259548737, "lat": -36.7942875, "lon": 174.7099724, "tags": {"access": "no", "bus": "yes", "highway": "bus_stop", "name": "Verbana Road", "name:en": "Verbana Road", "name:mi": "Te Huarahi o Verbana", "network": "AT", "network:wikidata": "Q4819567", "note": "AT has incorrect spelling here", "public_transport": "platform", "ref": "4262", "school_bus": "designated"}}, {"type": "node", "id": 3259548738, "lat": -36.7944481, "lon": 174.7008127, "tags": {"bus": "yes", "highway": "bus_stop", "name": "Birkdale Road / Eskdale Road", "name:en": "Birkdale Road / Eskdale Road", "name:mi": "Te Huarahi o Birkdale m\u0101 Te Huarahi o Eskdale", "network": "AT", "network:wikidata": "Q4819567", "public_transport": "platform", "ref": "4170"}}, {"type": "node", "id": 3259548739, "lat": -36.7944757, "lon": 174.6887315, "tags": {"bus": "yes", "departures_board": "timetable", "highway": "bus_stop", "name": "Gilpin Place", "name:en": "Gilpin Place", "name:mi": "Te Aramutu o Gilpin", "network": "AT", "network:wikidata": "Q4819567", "public_transport": "platform", "ref": "4148", "shelter": "yes"}}, {"type": "node", "id": 3259548741, "lat": -36.7947719, "lon": 174.700941, "tags": {"bus": "yes", "highway": "bus_stop", "name": "Birkdale Road / Eskdale Road", "name:en": "Birkdale Road / Eskdale Road", "name:mi": "Te Huarahi o Birkdale m\u0101 Te Huarahi o Eskdale", "network": "AT", "network:wikidata": "Q4819567", "public_transport": "platform", "ref": "4055"}}, {"type": "node", "id": 3259548742, "lat": -36.794968, "lon": 174.6891583, "tags": {"bus": "yes", "departures_board": "timetable", "highway": "bus_stop", "name": "Gilpin Place", "name:en": "Gilpin Place", "name:mi": "Te Aramutu o Gilpin", "network": "AT", "network:wikidata": "Q4819567", "public_transport": "platform", "ref": "4035", "shelter": "yes"}}, {"type": "node", "id": 3259548769, "lat": -36.7976335, "lon": 174.7092289, "tags": {"bus": "yes", "highway": "bus_stop", "name": "154 Verbena Road", "name:en": "154 Verbena Road", "name:mi": "154 ki te Huarahi o Verbena", "network": "AT", "network:wikidata": "Q4819567", "public_transport": "platform", "ref": "4192", "shelter": "no"}}, {"type": "node", "id": 3259548772, "lat": -36.7977058, "lon": 174.7155024, "tags": {"access": "no", "bus": "yes", "highway": "bus_stop", "name": "Hobby Avenue", "name:en": "Hobby Avenue", "name:mi": "Te Arah\u0101ngai o Hobby", "network": "AT", "network:wikidata": "Q4819567", "public_transport": "platform", "ref": "4264", "school_bus": "designated", "shelter": "no"}}, {"type": "node", "id": 3259548774, "lat": -36.7978834, "lon": 174.7010609, "tags": {"bus": "yes", "highway": "bus_stop", "name": "Tiri Tiri Road", "name:en": "Tiri Tiri Road", "name:mi": "Te Huarahi o Tiri Tiri", "network": "AT", "network:wikidata": "Q4819567", "public_transport": "platform", "ref": "4057"}}, {"type": "node", "id": 3259548793, "lat": -36.7984365, "lon": 174.709403, "tags": {"bus": "yes", "highway": "bus_stop", "name": "91 Verbena Road", "name:en": "91 Verbena Road", "name:mi": "91 ki te Huarahi o Verbena", "network": "AT", "network:wikidata": "Q4819567", "public_transport": "platform", "ref": "4389", "shelter": "yes"}}, {"type": "node", "id": 3259548806, "lat": -36.8002689, "lon": 174.7093181, "tags": {"bus": "yes", "highway": "bus_stop", "name": "Castleton Street", "name:en": "Castleton Street", "name:mi": "Te Tiriti o Castleton", "network": "AT", "network:wikidata": "Q4819567", "public_transport": "platform", "ref": "4190", "shelter": "no"}}, {"type": "node", "id": 3259548812, "lat": -36.8010368, "lon": 174.7094627, "tags": {"bus": "yes", "departures_board": "timetable", "highway": "bus_stop", "name": "Castleton Street", "name:en": "Castleton Street", "name:mi": "Te Tiriti o Castleton", "network": "AT", "network:wikidata": "Q4819567", "public_transport": "platform", "ref": "4381", "shelter": "yes"}}, {"type": "node", "id": 3259548813, "lat": -36.8013917, "lon": 174.6911875, "tags": {"bus": "yes", "highway": "bus_stop", "name": "Lysander Crescent", "name:en": "Lysander Crescent", "name:mi": "Te Araniko o Lysander", "network": "AT", "network:wikidata": "Q4819567", "public_transport": "platform", "ref": "4144"}}, {"type": "node", "id": 3259548814, "lat": -36.8018344, "lon": 174.7033076, "tags": {"bus": "yes", "highway": "bus_stop", "name": "Stott Avenue", "name:en": "Stott Avenue", "name:mi": "Te Arah\u0101ngai o Stott", "network": "AT", "network:wikidata": "Q4819567", "public_transport": "platform", "ref": "4174", "shelter": "no"}}, {"type": "node", "id": 3259548815, "lat": -36.8024389, "lon": 174.7088402, "tags": {"bus": "yes", "highway": "bus_stop", "name": "46 Verbena Road", "name:en": "46 Verbena Road", "name:mi": "46 ki te Huarahi o Verbena", "network": "AT", "network:wikidata": "Q4819567", "public_transport": "platform", "ref": "4188"}}, {"type": "node", "id": 3259548816, "lat": -36.8027508, "lon": 174.708673, "tags": {"bus": "yes", "highway": "bus_stop", "name": "41 Verbena Road", "name:en": "41 Verbena Road", "name:mi": "41 ki te Huarahi o Verbena", "network": "AT", "network:wikidata": "Q4819567", "public_transport": "platform", "ref": "4307"}}, {"type": "node", "id": 3259548818, "lat": -36.8038769, "lon": 174.7039501, "tags": {"bus": "yes", "highway": "bus_stop", "name": "Gatman Street", "name:en": "Gatman Street", "name:mi": "Te Tiriti o Gatman", "network": "AT", "network:wikidata": "Q4819567", "public_transport": "platform", "ref": "4176", "shelter": "yes"}}, {"type": "node", "id": 3259548819, "lat": -36.8039355, "lon": 174.7040956, "tags": {"bus": "yes", "highway": "bus_stop", "name": "Gatman Street", "name:en": "Gatman Street", "name:mi": "Te Tiriti o Gatman", "network": "AT", "network:wikidata": "Q4819567", "public_transport": "platform", "ref": "4061", "shelter": "yes"}}, {"type": "node", "id": 3259548820, "lat": -36.8044035, "lon": 174.6927316, "tags": {"bus": "yes", "highway": "bus_stop", "name": "Gemini Place", "name:en": "Gemini Place", "name:mi": "Te Aramutu o Gemini", "network": "AT", "network:wikidata": "Q4819567", "public_transport": "platform", "ref": "4142"}}, {"type": "node", "id": 3259548821, "lat": -36.8045928, "lon": 174.6931132, "tags": {"bus": "yes", "highway": "bus_stop", "name": "Gemini Place", "name:en": "Gemini Place", "name:mi": "Te Aramutu o Gemini", "network": "AT", "network:wikidata": "Q4819567", "public_transport": "platform", "ref": "4029"}}, {"type": "node", "id": 3259580518, "lat": -36.7999, "lon": 174.7241911, "tags": {"bench": "yes", "bin": "yes", "bus": "yes", "highway": "bus_stop", "lit": "yes", "name": "McDowell Crescent", "network": "AT", "network:wikidata": "Q4819567", "public_transport": "platform", "ref": "3893", "shelter": "yes", "tactile_paving": "no"}}, {"type": "node", "id": 3269978630, "lat": -36.7422051, "lon": 174.69261, "tags": {"bus": "yes", "highway": "bus_stop", "name": "Kristin School", "name:en": "Kristin School", "name:mi": "Te Kura o Kristin", "network": "AT", "network:wikidata": "Q4819567", "public_transport": "platform", "ref": "3686", "shelter": "yes"}}, {"type": "node", "id": 3269978631, "lat": -36.7421397, "lon": 174.7009715, "tags": {"bus": "yes", "highway": "bus_stop", "name": "Airborne Road", "name:en": "Airborne Road", "name:mi": "Te Huarahi o Airborne", "network": "AT", "network:wikidata": "Q4819567", "public_transport": "platform", "ref": "4143"}}, {"type": "node", "id": 3269978632, "lat": -36.742168, "lon": 174.7014372, "tags": {"bus": "yes", "highway": "bus_stop", "name": "Airborne Road", "name:en": "Airborne Road", "name:mi": "Te Huarahi o Airborne", "network": "AT", "network:wikidata": "Q4819567", "public_transport": "platform", "ref": "4242"}}, {"type": "node", "id": 3269978635, "lat": -36.7474432, "lon": 174.6988943, "tags": {"bench": "yes", "bin": "yes", "bus": "yes", "highway": "bus_stop", "lit": "yes", "name": "Douglas Alexander Parade", "network": "AT", "network:wikidata": "Q4819567", "public_transport": "platform", "ref": "3784", "shelter": "yes", "tactile_paving": "no"}}, {"type": "node", "id": 3269978636, "lat": -36.7475302, "lon": 174.6991743, "tags": {"bench": "yes", "bin": "no", "bus": "yes", "highway": "bus_stop", "lit": "yes", "name": "Douglas Alexander Parade", "network": "AT", "network:wikidata": "Q4819567", "public_transport": "platform", "ref": "3625", "shelter": "yes", "tactile_paving": "no"}}, {"type": "node", "id": 3269978637, "lat": -36.7486195, "lon": 174.6933744, "tags": {"bus": "yes", "highway": "bus_stop", "name": "Albany Junior High School", "network": "AT", "network:wikidata": "Q4819567", "public_transport": "platform", "ref": "3596", "shelter": "yes"}}, {"type": "node", "id": 3269978638, "lat": -36.7500289, "lon": 174.6937881, "tags": {"bus": "yes", "highway": "bus_stop", "name": "Albany Junior High School", "network": "AT", "network:wikidata": "Q4819567", "public_transport": "platform", "ref": "3583", "shelter": "yes"}}, {"type": "node", "id": 3269978639, "lat": -36.7503599, "lon": 174.7015902, "tags": {"bench": "yes", "bin": "yes", "bus": "yes", "highway": "bus_stop", "lit": "yes", "name": "Armstrong Road", "name:en": "Armstrong Road", "name:mi": "Te Huarahi o Armstrong", "network": "AT", "network:wikidata": "Q4819567", "public_transport": "platform", "ref": "3782", "shelter": "yes", "tactile_paving": "no"}}, {"type": "node", "id": 3269978640, "lat": -36.7505858, "lon": 174.7115256, "tags": {"bench": "yes", "bin": "no", "bus": "yes", "highway": "bus_stop", "lit": "yes", "name": "Rosedale Park North", "name:en": "Rosedale Park North", "name:mi": "Te Papa R\u0113hia o Rosedale kei te Raki", "network": "AT", "network:wikidata": "Q4819567", "public_transport": "platform", "ref": "3792", "shelter": "yes", "tactile_paving": "no"}}, {"type": "node", "id": 3269978641, "lat": -36.7508003, "lon": 174.7025583, "tags": {"bench": "yes", "bin": "no", "bus": "yes", "highway": "bus_stop", "lit": "yes", "name": "Armstrong Road", "name:en": "Armstrong Road", "name:mi": "Te Huarahi o Armstrong", "network": "AT", "network:wikidata": "Q4819567", "public_transport": "platform", "ref": "3623", "shelter": "yes", "tactile_paving": "no"}}, {"type": "node", "id": 3269978642, "lat": -36.7509663, "lon": 174.7138351, "tags": {"bench": "yes", "bin": "yes", "bus": "yes", "highway": "bus_stop", "lit": "yes", "name": "Saturn Place", "name:en": "Saturn Place", "name:mi": "Te Aramutu o Saturn", "network": "AT", "network:wikidata": "Q4819567", "public_transport": "platform", "ref": "3635", "shelter": "yes", "tactile_paving": "no"}}, {"type": "node", "id": 3269978643, "lat": -36.7514, "lon": 174.7144745, "tags": {"bench": "yes", "bin": "no", "bus": "yes", "highway": "bus_stop", "lit": "yes", "name": "Saturn Place", "name:en": "Saturn Place", "name:mi": "Te Aramutu o Saturn", "network": "AT", "network:wikidata": "Q4819567", "public_transport": "platform", "ref": "3794", "shelter": "yes", "tactile_paving": "no"}}, {"type": "node", "id": 3269978644, "lat": -36.751429, "lon": 174.7033326, "tags": {"bench": "yes", "bin": "no", "bus": "yes", "highway": "bus_stop", "lit": "yes", "name": "Te Kea Place", "name:en": "Te Kea Place", "name:mi": "Te Aramutu o Te Kea", "network": "AT", "network:wikidata": "Q4819567", "public_transport": "platform", "ref": "3780", "shelter": "yes", "tactile_paving": "no"}}, {"type": "node", "id": 3269978645, "lat": -36.7517334, "lon": 174.7040721, "tags": {"bench": "yes", "bin": "yes", "bus": "yes", "highway": "bus_stop", "lit": "yes", "name": "Te Kea Place", "name:en": "Te Kea Place", "name:mi": "Te Aramutu o Te Kea", "network": "AT", "network:wikidata": "Q4819567", "public_transport": "platform", "ref": "3621", "shelter": "yes", "tactile_paving": "no"}}, {"type": "node", "id": 3269978646, "lat": -36.7520655, "lon": 174.7067717, "tags": {"bench": "yes", "bin": "no", "bus": "yes", "highway": "bus_stop", "lit": "yes", "name": "Bush Road / William Pickering Drive", "name:en": "Bush Road / William Pickering Drive", "name:mi": "Te Huarahi o Bush m\u0101 Te Ara \u0100whio o William Pickering", "network": "AT", "network:wikidata": "Q4819567", "public_transport": "platform", "ref": "3615", "shelter": "yes", "tactile_paving": "no"}}, {"type": "node", "id": 3269978647, "lat": -36.7519695, "lon": 174.7066758, "tags": {"bench": "yes", "bin": "yes", "bus": "yes", "highway": "bus_stop", "lit": "yes", "name": "Bush Road / William Pickering Drive", "name:en": "Bush Road / William Pickering Drive", "name:mi": "Te Huarahi o Bush m\u0101 Te Ara \u0100whio o William Pickering", "network": "AT", "network:wikidata": "Q4819567", "public_transport": "platform", "ref": "3722", "shelter": "yes", "tactile_paving": "no"}}, {"type": "node", "id": 3269978648, "lat": -36.7524826, "lon": 174.7050311, "tags": {"bench": "yes", "bin": "yes", "bus": "yes", "highway": "bus_stop", "lit": "yes", "name": "Beatrice Tinsley Crescent", "network": "AT", "network:wikidata": "Q4819567", "public_transport": "platform", "ref": "3778", "shelter": "yes", "tactile_paving": "no"}}, {"type": "node", "id": 3269978653, "lat": -36.7635997, "lon": 174.7048907, "tags": {"bus": "yes", "highway": "bus_stop", "name": "Emily Lane", "name:en": "Emily Lane", "name:mi": "Te Arak\u016biti o Emily", "network": "AT", "network:wikidata": "Q4819567", "public_transport": "platform", "ref": "3750"}}, {"type": "node", "id": 3269980917, "lat": -36.7704416, "lon": 174.6931938, "tags": {"bus": "yes", "highway": "bus_stop", "name": "Blacks Road", "name:en": "Blacks Road", "name:mi": "Te Huarahi o Blacks", "network": "AT", "network:wikidata": "Q4819567", "public_transport": "platform", "ref": "4304"}}, {"type": "node", "id": 3269980920, "lat": -36.770718, "lon": 174.6917893, "tags": {"bus": "yes", "highway": "bus_stop", "name": "175 Greenhithe Road", "name:en": "175 Greenhithe Road", "name:mi": "175 ki te Huarahi o Greenhithe", "network": "AT", "network:wikidata": "Q4819567", "public_transport": "platform", "ref": "4303"}}, {"type": "node", "id": 3269980921, "lat": -36.7707156, "lon": 174.6947907, "tags": {"bus": "yes", "highway": "bus_stop", "name": "Greenhithe Road", "name:en": "Greenhithe Road", "name:mi": "Te Huarahi o Greenhithe", "network": "AT", "network:wikidata": "Q4819567", "public_transport": "platform", "ref": "3754"}}, {"type": "node", "id": 3269980923, "lat": -36.7710841, "lon": 174.6944731, "tags": {"bus": "yes", "highway": "bus_stop", "name": "Greenhithe Road", "name:en": "Greenhithe Road", "name:mi": "Te Huarahi o Greenhithe", "network": "AT", "network:wikidata": "Q4819567", "public_transport": "platform", "ref": "3595"}}, {"type": "node", "id": 3269980924, "lat": -36.7712091, "lon": 174.6872946, "tags": {"bus": "yes", "highway": "bus_stop", "name": "Mackay Drive", "name:en": "Mackay Drive", "name:mi": "Te Ara \u0100whio o Mackay", "network": "AT", "network:wikidata": "Q4819567", "public_transport": "platform", "ref": "3760"}}, {"type": "node", "id": 3269980925, "lat": -36.7720692, "lon": 174.6806482, "tags": {"bus": "yes", "highway": "bus_stop", "name": "Greenhithe Pony Club", "public_transport": "platform", "ref": "3758"}}, {"type": "node", "id": 3269980928, "lat": -36.7785044, "lon": 174.6714418, "tags": {"bus": "yes", "highway": "bus_stop", "name": "Marae Road", "name:en": "Marae Road", "name:mi": "Te Huarahi o Marae", "network": "AT", "network:wikidata": "Q4819567", "public_transport": "platform", "ref": "3678"}}, {"type": "node", "id": 3269980929, "lat": -36.7802098, "lon": 174.673362, "tags": {"bus": "yes", "highway": "bus_stop", "name": "Pounamu Avenue", "name:en": "Pounamu Avenue", "name:mi": "Te Arah\u0101ngai o Pounamu", "network": "AT", "network:wikidata": "Q4819567", "public_transport": "platform", "ref": "3684"}}, {"type": "node", "id": 3298104178, "lat": -36.7604117, "lon": 174.7081042, "tags": {"bus": "yes", "highway": "bus_stop", "name": "Upper Harbour Drive", "name:en": "Upper Harbour Drive", "name:mi": "Te Ara \u0100whio o Upper Harbour", "network": "AT", "network:wikidata": "Q4819567", "public_transport": "platform", "ref": "3705"}}, {"type": "node", "id": 3298104179, "lat": -36.7614753, "lon": 174.7102399, "tags": {"bus": "yes", "highway": "bus_stop", "name": "Westminster Christian School", "name:en": "Westminster Christian School", "network": "AT", "network:wikidata": "Q4819567", "public_transport": "platform", "ref": "3699"}}, {"type": "node", "id": 3298104186, "lat": -36.761912, "lon": 174.7159809, "tags": {"bus": "yes", "highway": "bus_stop", "name": "Bronzewing Terrace", "network": "AT", "network:wikidata": "Q4819567", "public_transport": "platform", "ref": "3824"}}, {"type": "node", "id": 3298104201, "lat": -36.7620869, "lon": 174.7109139, "tags": {"bus": "yes", "highway": "bus_stop", "name": "Westminster Christian School", "name:en": "Westminster Christian School", "network": "AT", "network:wikidata": "Q4819567", "public_transport": "platform", "ref": "3862"}}, {"type": "node", "id": 3298104219, "lat": -36.7627624, "lon": 174.7164457, "tags": {"bus": "yes", "highway": "bus_stop", "name": "Albany Highway / Unsworth Drive", "network": "AT", "network:wikidata": "Q4819567", "public_transport": "platform", "ref": "3663"}}, {"type": "node", "id": 3298104221, "lat": -36.7628505, "lon": 174.7156253, "tags": {"bus": "yes", "highway": "bus_stop", "name": "Albany Highway / Unsworth Drive", "network": "AT", "network:wikidata": "Q4819567", "public_transport": "platform", "ref": "3697"}}, {"type": "node", "id": 3298104224, "lat": -36.7649287, "lon": 174.7180968, "tags": {"bus": "yes", "highway": "bus_stop", "name": "Sunset Road", "name:en": "Sunset Road", "name:mi": "Te Huarahi o Sunset", "network": "AT", "network:wikidata": "Q4819567", "public_transport": "platform", "ref": "3860"}}, {"type": "node", "id": 3298104227, "lat": -36.7654956, "lon": 174.7191765, "tags": {"bus": "yes", "highway": "bus_stop", "name": "Sunset Road", "name:en": "Sunset Road", "name:mi": "Te Huarahi o Sunset", "network": "AT", "network:wikidata": "Q4819567", "public_transport": "platform", "ref": "3707", "shelter": "yes"}}, {"type": "node", "id": 3298104247, "lat": -36.7677878, "lon": 174.7199191, "tags": {"bench": "yes", "bin": "yes", "bus": "yes", "highway": "bus_stop", "name": "Glenfield Road / James Street", "name:en": "Glenfield Road / James Street", "name:mi": "Te Huarahi o Glenfield / Te Tiriti o James", "network": "AT", "network:wikidata": "Q4819567", "public_transport": "platform", "ref": "3400", "shelter": "yes"}}, {"type": "node", "id": 3298104248, "lat": -36.7679426, "lon": 174.7202425, "tags": {"bench": "yes", "bin": "no", "bus": "yes", "highway": "bus_stop", "name": "Glenfield Road / James Street", "name:en": "Glenfield Road / James Street", "name:mi": "Te Huarahi o Glenfield / Te Tiriti o James", "network": "AT", "network:wikidata": "Q4819567", "public_transport": "platform", "ref": "3709", "shelter": "yes"}}, {"type": "node", "id": 3298104371, "lat": -36.7696777, "lon": 174.7191963, "tags": {"bus": "yes", "highway": "bus_stop", "name": "Spinella Drive / James Street", "name:en": "Spinella Drive / James Street", "name:mi": "Te Ara \u0100whio o Spinella m\u0101 Te Tiriti o James", "network": "AT", "network:wikidata": "Q4819567", "public_transport": "platform", "ref": "3751", "shelter": "yes"}}, {"type": "node", "id": 3298104382, "lat": -36.770196, "lon": 174.7217399, "tags": {"bench": "yes", "bin": "yes", "bus": "yes", "highway": "bus_stop", "name": "Glenfield Road / Wairau Road", "name:en": "Glenfield Road / Wairau Road", "name:mi": "Te Huarahi o Glenfield m\u0101 Te Huarahi o Wairau", "network": "AT", "network:wikidata": "Q4819567", "public_transport": "platform", "ref": "4000", "shelter": "yes"}}, {"type": "node", "id": 3298104394, "lat": -36.7710771, "lon": 174.7169435, "tags": {"bus": "yes", "highway": "bus_stop", "name": "Fernwood Grove", "network": "AT", "network:wikidata": "Q4819567", "public_transport": "platform", "ref": "3753"}}, {"type": "node", "id": 3298104398, "lat": -36.7712218, "lon": 174.7217258, "tags": {"bus": "yes", "highway": "bus_stop", "name": "Glenfield Road / Wairau Road", "name:en": "Glenfield Road / Wairau Road", "name:mi": "Te Huarahi o Glenfield m\u0101 Te Huarahi o Wairau", "network": "AT", "network:wikidata": "Q4819567", "public_transport": "platform", "ref": "3871"}}, {"type": "node", "id": 3298104401, "lat": -36.7714955, "lon": 174.7056737, "tags": {"bus": "yes", "highway": "bus_stop", "name": "Bayview Community Centre", "network": "AT", "network:wikidata": "Q4819567", "public_transport": "platform", "ref": "3904"}}, {"type": "node", "id": 3298104412, "lat": -36.7725237, "lon": 174.708292, "tags": {"bus": "yes", "highway": "bus_stop", "name": "Bayview Road", "name:en": "Bayview Road", "name:mi": "Te Huarahi o Bayview", "network": "AT", "network:wikidata": "Q4819567", "public_transport": "platform", "ref": "3759"}}, {"type": "node", "id": 3298104418, "lat": -36.772682, "lon": 174.7139624, "tags": {"bus": "yes", "highway": "bus_stop", "name": "Laser Place", "name:en": "Laser Place", "name:mi": "Te Aramutu o Laser", "network": "AT", "network:wikidata": "Q4819567", "public_transport": "platform", "ref": "3755"}}, {"type": "node", "id": 3298104427, "lat": -36.7736308, "lon": 174.720682, "tags": {"bus": "yes", "highway": "bus_stop", "name": "Manuka Road", "name:en": "Manuka Road", "name:mi": "Te Huarahi o Manuka", "network": "AT", "network:wikidata": "Q4819567", "public_transport": "platform", "ref": "4002"}}, {"type": "node", "id": 3298104449, "lat": -36.7743956, "lon": 174.7214863, "tags": {"bench": "yes", "bin": "yes", "bus": "yes", "highway": "bus_stop", "name": "Hogans Road", "name:en": "Hogans Road", "name:mi": "Te Huarahi o Hogans", "network": "AT", "network:wikidata": "Q4819567", "public_transport": "platform", "ref": "3873", "shelter": "yes"}}, {"type": "node", "id": 3298104450, "lat": -36.7744158, "lon": 174.7185479, "tags": {"bus": "yes", "highway": "bus_stop", "name": "Elliott Avenue", "name:en": "Elliott Avenue", "name:mi": "Te Arah\u0101ngai o Elliott", "network": "AT", "network:wikidata": "Q4819567", "public_transport": "platform", "ref": "3777"}}, {"type": "node", "id": 3298104451, "lat": -36.7747421, "lon": 174.709582, "tags": {"bus": "yes", "highway": "bus_stop", "public_transport": "platform"}}, {"type": "node", "id": 3298104452, "lat": -36.7750274, "lon": 174.7155509, "tags": {"access": "no", "bus": "yes", "highway": "bus_stop", "name": "Manuka Primary School", "network": "AT", "network:wikidata": "Q4819567", "public_transport": "platform", "ref": "3908", "school_bus": "designated"}}, {"type": "node", "id": 3298104453, "lat": -36.7753064, "lon": 174.7125118, "tags": {"bus": "yes", "highway": "bus_stop", "name": "Bayview Road", "name:en": "Bayview Road", "name:mi": "Te Huarahi o Bayview", "network": "AT", "network:wikidata": "Q4819567", "public_transport": "platform", "ref": "3775"}}, {"type": "node", "id": 3298104454, "lat": -36.7753817, "lon": 174.7126711, "tags": {"bus": "yes", "highway": "bus_stop", "name": "Bayview Road", "name:en": "Bayview Road", "name:mi": "Te Huarahi o Bayview", "network": "AT", "network:wikidata": "Q4819567", "public_transport": "platform", "ref": "3906"}}, {"type": "node", "id": 3298104455, "lat": -36.7772034, "lon": 174.7040971, "tags": {"bus": "yes", "highway": "bus_stop", "name": "Houston Place", "network": "AT", "network:wikidata": "Q4819567", "public_transport": "platform", "ref": "3767"}}, {"type": "node", "id": 3298104456, "lat": -36.7772907, "lon": 174.722823, "tags": {"bus": "yes", "highway": "bus_stop", "name": "Mayfield Road", "name:en": "Mayfield Road", "name:mi": "Te Huarahi o Mayfield q", "network": "AT", "network:wikidata": "Q4819567", "public_transport": "platform", "ref": "4004"}}, {"type": "node", "id": 3298104457, "lat": -36.7773088, "lon": 174.7107914, "tags": {"bus": "yes", "highway": "bus_stop", "name": "Leigh Terrace", "network": "AT", "network:wikidata": "Q4819567", "public_transport": "platform", "ref": "3773"}}, {"type": "node", "id": 3298104458, "lat": -36.7782744, "lon": 174.7230706, "tags": {"bus": "yes", "highway": "bus_stop", "name": "461 Glenfield Road", "name:en": "461 Glenfield Road", "name:mi": "461 ki te Huarahi o Glenfield", "network": "AT", "network:wikidata": "Q4819567", "public_transport": "platform", "ref": "3875"}}, {"type": "node", "id": 3298104459, "lat": -36.7787581, "lon": 174.7047401, "tags": {"bench": "yes", "bus": "yes", "highway": "bus_stop", "name": "Manuka Road", "name:en": "Manuka Road", "name:mi": "Te Huarahi o Manuka", "network": "AT", "network:wikidata": "Q4819567", "public_transport": "platform", "ref": "3769", "shelter": "yes"}}, {"type": "node", "id": 3298104460, "lat": -36.778821, "lon": 174.7148971, "tags": {"access": "no", "bus": "yes", "highway": "bus_stop", "name": "Gladys Avenue", "name:en": "Gladys Avenue", "name:mi": "Te Arah\u0101ngai o Gladys", "network": "AT", "network:wikidata": "Q4819567", "public_transport": "platform", "ref": "3781", "school_bus": "designated"}}, {"type": "node", "id": 3298104461, "lat": -36.7787799, "lon": 174.7150822, "tags": {"access": "no", "bus": "yes", "highway": "bus_stop", "name": "Gladys Avenue", "name:en": "Gladys Avenue", "name:mi": "Te Arah\u0101ngai o Gladys", "network": "AT", "network:wikidata": "Q4819567", "public_transport": "platform", "ref": "3910", "school_bus": "designated"}}, {"type": "node", "id": 3298104463, "lat": -36.7795968, "lon": 174.7136632, "tags": {"bus": "yes", "highway": "bus_stop", "name": "Easton Park Parade", "network": "AT", "network:wikidata": "Q4819567", "public_transport": "platform", "ref": "3785"}}, {"type": "node", "id": 3298104465, "lat": -36.7796399, "lon": 174.7072603, "tags": {"bench": "yes", "bus": "yes", "highway": "bus_stop", "name": "Anne McLean Drive", "name:en": "Anne McLean Drive", "name:mi": "Te Ara \u0100whio o Anne McLean", "network": "AT", "network:wikidata": "Q4819567", "public_transport": "platform", "ref": "3771", "shelter": "yes"}}, {"type": "node", "id": 3298104477, "lat": -36.7803564, "lon": 174.7182372, "tags": {"bus": "yes", "highway": "bus_stop", "name": "Kaip\u0101tiki Park", "name:en": "Kaip\u0101tiki Park", "name:mi": "Te Papa R\u0113hia o Kaip\u0101tiki", "network": "AT", "network:wikidata": "Q4819567", "public_transport": "platform", "ref": "3783"}}, {"type": "node", "id": 3298104490, "lat": -36.7808368, "lon": 174.7187937, "tags": {"bus": "yes", "highway": "bus_stop", "name": "Kaip\u0101tiki Park", "name:en": "Kaip\u0101tiki Park", "name:mi": "Te Papa R\u0113hia o Kaip\u0101tiki", "network": "AT", "network:wikidata": "Q4819567", "public_transport": "platform", "ref": "3912"}}, {"type": "node", "id": 3298104520, "lat": -36.7813187, "lon": 174.7214253, "tags": {"bench": "yes", "bin": "yes", "bus": "yes", "highway": "bus_stop", "lit": "yes", "name": "Glenfield Mall", "name:en": "Glenfield Mall", "name:mi": "Ng\u0101 Toa Hokohoko o Glenfield", "network": "AT", "network:wikidata": "Q4819567", "public_transport": "platform", "ref": "4010", "shelter": "yes", "tactile_paving": "yes"}}, {"type": "node", "id": 3298104522, "lat": -36.7815641, "lon": 174.7210192, "tags": {"bench": "yes", "bin": "yes", "bus": "yes", "highway": "bus_stop", "lit": "yes", "name": "Glenfield Mall", "name:en": "Glenfield Mall", "name:mi": "Ng\u0101 Toa Hokohoko o Glenfield", "network": "AT", "network:wikidata": "Q4819567", "public_transport": "platform", "ref": "3881", "shelter": "yes", "tactile_paving": "no"}}, {"type": "node", "id": 3298104549, "lat": -36.7832577, "lon": 174.721116, "tags": {"bench": "yes", "bin": "yes", "bus": "yes", "highway": "bus_stop", "name": "Peach Road", "name:en": "Peach Road", "name:mi": "Te Huarahi o Peach", "network": "AT", "network:wikidata": "Q4819567", "public_transport": "platform", "ref": "4012", "shelter": "yes"}}, {"type": "node", "id": 3298104572, "lat": -36.7839703, "lon": 174.7217942, "tags": {"bench": "yes", "bin": "yes", "bus": "yes", "highway": "bus_stop", "lit": "yes", "name": "High Road", "name:en": "High Road", "name:mi": "Te Huarahi o High", "network": "AT", "network:wikidata": "Q4819567", "public_transport": "platform", "ref": "3883", "shelter": "yes", "tactile_paving": "no"}}, {"type": "node", "id": 3298104597, "lat": -36.7848291, "lon": 174.7131915, "tags": {"access": "no", "bus": "yes", "highway": "bus_stop", "name": "Stanley Road", "name:en": "Stanley Road", "name:mi": "Te Huarahi o Stanley", "network": "AT", "network:wikidata": "Q4819567", "public_transport": "platform", "ref": "3920", "school_bus": "designated"}}, {"type": "node", "id": 3298104607, "lat": -36.7853581, "lon": 174.7111868, "tags": {"access": "no", "bus": "yes", "highway": "bus_stop", "name": "Tamahere Drive", "name:en": "Tamahere Drive", "name:mi": "Te Ara \u0100whio o Tamahere", "network": "AT", "network:wikidata": "Q4819567", "public_transport": "platform", "ref": "3922", "school_bus": "designated"}}, {"type": "node", "id": 3298104608, "lat": -36.7853889, "lon": 174.710977, "tags": {"bus": "yes", "highway": "bus_stop", "name": "Tamahere Drive", "name:en": "Tamahere Drive", "name:mi": "Te Ara \u0100whio o Tamahere", "network": "AT", "network:wikidata": "Q4819567", "public_transport": "platform", "ref": "3789"}}, {"type": "node", "id": 3298104610, "lat": -36.7868361, "lon": 174.7115779, "tags": {"access": "no", "bus": "yes", "highway": "bus_stop", "name": "Beaudine Drive", "name:en": "Beaudine Drive", "name:mi": "Te Ara \u0100whio o Beaudine", "network": "AT", "network:wikidata": "Q4819567", "note": "AT has wrong name here", "public_transport": "platform", "ref": "3924", "school_bus": "designated"}}, {"type": "node", "id": 3298104611, "lat": -36.7874427, "lon": 174.7214572, "tags": {"bench": "yes", "bin": "no", "bus": "yes", "highway": "bus_stop", "name": "Oruamo Domain", "network": "AT", "network:wikidata": "Q4819567", "public_transport": "platform", "ref": "4014", "shelter": "yes", "tactile_paving": "no"}}, {"type": "node", "id": 3298104612, "lat": -36.7877943, "lon": 174.7117737, "tags": {"bus": "yes", "highway": "bus_stop", "name": "Beaudine Drive", "name:en": "Beaudine Drive", "name:mi": "Te Ara \u0100whio o Beaudine", "network": "AT", "network:wikidata": "Q4819567", "note": "AT has wrong name here", "public_transport": "platform", "ref": "3791"}}, {"type": "node", "id": 3298104613, "lat": -36.7879283, "lon": 174.7215615, "tags": {"bench": "yes", "bin": "yes", "bus": "yes", "highway": "bus_stop", "name": "Oruamo Domain", "network": "AT", "network:wikidata": "Q4819567", "public_transport": "platform", "ref": "3885", "shelter": "yes", "tactile_paving": "no"}}, {"type": "node", "id": 3298104619, "lat": -36.7889823, "lon": 174.7111095, "tags": {"bus": "yes", "highway": "bus_stop", "name": "Windy Ridge School", "name:en": "Windy Ridge School", "name:mi": "Te Kura o Windy Ridge", "network": "AT", "network:wikidata": "Q4819567", "public_transport": "platform", "ref": "3793"}}, {"type": "node", "id": 3298104621, "lat": -36.7892251, "lon": 174.7120103, "tags": {"access": "no", "bus": "yes", "highway": "bus_stop", "name": "Windy Ridge School", "name:en": "Windy Ridge School", "name:mi": "Te Kura o Windy Ridge", "network": "AT", "network:wikidata": "Q4819567", "public_transport": "platform", "ref": "3795", "school_bus": "designated"}}, {"type": "node", "id": 3298104634, "lat": -36.7894013, "lon": 174.7205207, "tags": {"bench": "yes", "bin": "yes", "bus": "yes", "highway": "bus_stop", "lit": "yes", "name": "Roberts Road", "name:en": "Roberts Road", "name:mi": "Te Huarahi o Roberts", "network": "AT", "network:wikidata": "Q4819567", "public_transport": "platform", "ref": "4016", "shelter": "yes", "tactile_paving": "no"}}, {"type": "node", "id": 3298104642, "lat": -36.7897104, "lon": 174.7137155, "tags": {"access": "no", "bus": "yes", "highway": "bus_stop", "name": "Valley View Road", "name:en": "Valley View Road", "name:mi": "Te Huarahi o Valley View", "network": "AT", "network:wikidata": "Q4819567", "public_transport": "platform", "ref": "3797", "school_bus": "designated"}}, {"type": "node", "id": 3298104643, "lat": -36.7896679, "lon": 174.7174759, "tags": {"access": "no", "bus": "yes", "highway": "bus_stop", "name": "Seaview Road", "name:en": "Seaview Road", "name:mi": "Te Huarahi o Seaview", "network": "AT", "network:wikidata": "Q4819567", "public_transport": "platform", "ref": "3799", "school_bus": "designated"}}, {"type": "node", "id": 3298104645, "lat": -36.7898457, "lon": 174.7174205, "tags": {"bus": "yes", "highway": "bus_stop", "name": "Seaview Road", "name:en": "Seaview Road", "name:mi": "Te Huarahi o Seaview", "network": "AT", "network:wikidata": "Q4819567", "public_transport": "platform", "ref": "3928"}}, {"type": "node", "id": 3298104648, "lat": -36.7898843, "lon": 174.7138986, "tags": {"bus": "yes", "highway": "bus_stop", "name": "Valley View Road", "name:en": "Valley View Road", "name:mi": "Te Huarahi o Valley View", "network": "AT", "network:wikidata": "Q4819567", "public_transport": "platform", "ref": "3926"}}, {"type": "node", "id": 3298104649, "lat": -36.7899348, "lon": 174.7200876, "tags": {"access": "no", "bus": "yes", "highway": "bus_stop", "name": "Glenfield Road", "name:en": "Glenfield Road", "name:mi": "Te Huarahi o Glenfield", "network": "AT", "network:wikidata": "Q4819567", "public_transport": "platform", "ref": "3801", "school_bus": "designated"}}, {"type": "node", "id": 3298104650, "lat": -36.7900539, "lon": 174.7200608, "tags": {"bus": "yes", "highway": "bus_stop", "name": "Glenfield Road", "name:en": "Glenfield Road", "name:mi": "Te Huarahi o Glenfield", "network": "AT", "network:wikidata": "Q4819567", "public_transport": "platform", "ref": "3930"}}, {"type": "node", "id": 3298104652, "lat": -36.7901611, "lon": 174.7214989, "tags": {"bench": "yes", "bin": "yes", "bus": "yes", "highway": "bus_stop", "name": "Roberts Road", "name:en": "Roberts Road", "name:mi": "Te Huarahi o Roberts", "network": "AT", "network:wikidata": "Q4819567", "public_transport": "platform", "ref": "3887", "shelter": "yes"}}, {"type": "node", "id": 3298104674, "lat": -36.7930604, "lon": 174.7242587, "tags": {"bench": "yes", "bin": "yes", "bus": "yes", "highway": "bus_stop", "lit": "yes", "name": "Coronation Road", "name:en": "Coronation Road", "name:mi": "Te Huarahi o Coronation", "network": "AT", "network:wikidata": "Q4819567", "public_transport": "platform", "ref": "3889", "shelter": "yes", "tactile_paving": "no"}}, {"type": "node", "id": 3298104675, "lat": -36.7931719, "lon": 174.7240351, "tags": {"bench": "yes", "bin": "no", "bus": "yes", "highway": "bus_stop", "lit": "yes", "name": "Coronation Road", "name:en": "Coronation Road", "name:mi": "Te Huarahi o Coronation", "network": "AT", "network:wikidata": "Q4819567", "public_transport": "platform", "ref": "4018", "shelter": "yes", "tactile_paving": "no"}}, {"type": "node", "id": 3298116631, "lat": -36.7918609, "lon": 174.7251143, "tags": {"bus": "yes", "highway": "bus_stop", "name": "Coronation Road / Glenfield Road", "name:en": "Coronation Road / Glenfield Road", "name:mi": "Te Huarahi o Coronation m\u0101 Te Huarahi o Glenfield", "network": "AT", "network:wikidata": "Q4819567", "public_transport": "platform", "ref": "3958", "shelter": "no"}}, {"type": "node", "id": 3298116633, "lat": -36.7921788, "lon": 174.724892, "tags": {"bus": "yes", "highway": "bus_stop", "name": "Coronation Road / Glenfield Road", "name:en": "Coronation Road / Glenfield Road", "name:mi": "Te Huarahi o Coronation m\u0101 Te Huarahi o Glenfield", "network": "AT", "network:wikidata": "Q4819567", "public_transport": "platform", "ref": "3827", "shelter": "no"}}, {"type": "node", "id": 3298128056, "lat": -36.7842312, "lon": 174.7130455, "tags": {"bus": "yes", "highway": "bus_stop", "name": "Peach Road", "name:en": "Peach Road", "name:mi": "Te Huarahi o Peach", "network": "AT", "network:wikidata": "Q4819567", "public_transport": "platform", "ref": "3918"}}, {"type": "node", "id": 3300006160, "lat": -36.7525525, "lon": 174.6960617, "tags": {"bus": "yes", "highway": "bus_stop", "name": "Albany Highway / Schnapper Rock Road", "name:en": "Albany Highway / Schnapper Rock Road", "network": "AT", "network:wikidata": "Q4819567", "public_transport": "platform", "ref": "3598", "shelter": "yes"}}, {"type": "node", "id": 3300007461, "lat": -36.7522579, "lon": 174.6959128, "tags": {"bus": "yes", "highway": "bus_stop", "name": "Albany Highway / Schnapper Rock Road", "name:en": "Albany Highway / Schnapper Rock Road", "network": "AT", "network:wikidata": "Q4819567", "public_transport": "platform", "ref": "3585", "shelter": "yes"}}, {"type": "node", "id": 3311669242, "lat": -36.8032652, "lon": 174.7263923, "tags": {"access": "no", "bus": "yes", "highway": "bus_stop", "name": "Birkenhead Avenue", "name:en": "Birkenhead Avenue", "name:mi": "Te Arah\u0101ngai o Birkenhead", "network": "AT", "network:wikidata": "Q4819567", "public_transport": "platform", "ref": "3986", "school_bus": "designated"}}, {"type": "node", "id": 3311669245, "lat": -36.8034772, "lon": 174.7260779, "tags": {"access": "no", "bus": "yes", "highway": "bus_stop", "name": "Birkenhead Avenue", "name:en": "Birkenhead Avenue", "name:mi": "Te Arah\u0101ngai o Birkenhead", "network": "AT", "network:wikidata": "Q4819567", "public_transport": "platform", "ref": "3853", "school_bus": "designated"}}, {"type": "node", "id": 3353447058, "lat": -36.7530618, "lon": 174.7224681, "tags": {"bench": "yes", "bin": "no", "bus": "yes", "highway": "bus_stop", "lit": "yes", "name": "Meadowood Community House", "network": "AT", "network:wikidata": "Q4819567", "public_transport": "platform", "ref": "3637", "shelter": "yes", "tactile_paving": "no"}}, {"type": "node", "id": 3353447059, "lat": -36.7531213, "lon": 174.7190786, "tags": {"bus": "yes", "highway": "bus_stop", "name": "Jumento Place", "name:en": "Jumento Place", "name:mi": "Te Aramutu o Jumento", "network": "AT", "network:wikidata": "Q4819567", "public_transport": "platform", "ref": "3653"}}, {"type": "node", "id": 3353447060, "lat": -36.7532632, "lon": 174.7189192, "tags": {"bus": "yes", "highway": "bus_stop", "name": "Jumento Place", "name:en": "Jumento Place", "name:mi": "Te Aramutu o Jumento", "network": "AT", "network:wikidata": "Q4819567", "public_transport": "platform", "ref": "3812"}}, {"type": "node", "id": 3353447062, "lat": -36.7533459, "lon": 174.7220827, "tags": {"bench": "yes", "bin": "no", "bus": "yes", "highway": "bus_stop", "lit": "no", "name": "Meadowood Community House", "network": "AT", "network:wikidata": "Q4819567", "public_transport": "platform", "ref": "3796", "shelter": "yes", "tactile_paving": "no"}}, {"type": "node", "id": 3353447064, "lat": -36.7533752, "lon": 174.723953, "tags": {"bench": "no", "bin": "no", "bus": "yes", "highway": "bus_stop", "lit": "yes", "name": "Santiago Crescent", "network": "AT", "network:wikidata": "Q4819567", "public_transport": "platform", "ref": "3798", "shelter": "no", "tactile_paving": "no"}}, {"type": "node", "id": 3353447066, "lat": -36.7536976, "lon": 174.7159583, "tags": {"bus": "yes", "highway": "bus_stop", "name": "Grenadine Place", "name:en": "Grenadine Place", "name:mi": "Te Aramutu o Grenadine", "network": "AT", "network:wikidata": "Q4819567", "public_transport": "platform", "ref": "3655"}}, {"type": "node", "id": 3353447071, "lat": -36.7538837, "lon": 174.7245601, "tags": {"bench": "yes", "bin": "no", "bus": "yes", "highway": "bus_stop", "lit": "yes", "name": "Santiago Crescent", "network": "AT", "network:wikidata": "Q4819567", "public_transport": "platform", "ref": "3639", "shelter": "yes", "tactile_paving": "no"}}, {"type": "node", "id": 3353447073, "lat": -36.7550119, "lon": 174.7238566, "tags": {"bus": "yes", "highway": "bus_stop", "name": "Devonshire Reserve", "name:en": "Devonshire Reserve", "name:mi": "Te Papa R\u0101hui o Devonshire", "network": "AT", "network:wikidata": "Q4819567", "public_transport": "platform", "ref": "3641"}}, {"type": "node", "id": 3353447075, "lat": -36.7556822, "lon": 174.7217937, "tags": {"bus": "yes", "highway": "bus_stop", "name": "Exeter Place", "name:en": "Exeter Place", "name:mi": "Te Aramutu o Exeter", "network": "AT", "network:wikidata": "Q4819567", "public_transport": "platform", "ref": "3643"}}, {"type": "node", "id": 3353447080, "lat": -36.7562536, "lon": 174.7197201, "tags": {"bus": "yes", "highway": "bus_stop", "name": "Devonshire Road", "network": "AT", "network:wikidata": "Q4819567", "public_transport": "platform", "ref": "3647"}}, {"type": "node", "id": 3353449093, "lat": -36.7572376, "lon": 174.7243485, "tags": {"bus": "yes", "highway": "bus_stop", "name": "93 Sunset Road", "name:en": "93 Sunset Road", "name:mi": "93 ki te Huarahi o Sunset", "network": "AT", "network:wikidata": "Q4819567", "public_transport": "platform", "ref": "3671"}}, {"type": "node", "id": 3353449096, "lat": -36.7574727, "lon": 174.7237318, "tags": {"bus": "yes", "highway": "bus_stop", "name": "114 Sunset Road", "name:en": "114 Sunset Road", "name:mi": "114 ki te Huarahi o Sunset", "network": "AT", "network:wikidata": "Q4819567", "public_transport": "platform", "ref": "3830"}}, {"type": "node", "id": 3353449110, "lat": -36.7589328, "lon": 174.7256164, "tags": {"bus": "yes", "highway": "bus_stop", "name": "Tacitus Place", "name:en": "Tacitus Place", "name:mi": "Te Aramutu o Tacitus", "network": "AT", "network:wikidata": "Q4819567", "public_transport": "platform", "ref": "3858"}}, {"type": "node", "id": 3353449114, "lat": -36.7594821, "lon": 174.7258578, "tags": {"bus": "yes", "highway": "bus_stop", "name": "Tacitus Place", "name:en": "Tacitus Place", "name:mi": "Te Aramutu o Tacitus", "network": "AT", "network:wikidata": "Q4819567", "public_transport": "platform", "ref": "3695"}}, {"type": "node", "id": 3353449118, "lat": -36.7599722, "lon": 174.7232001, "tags": {"bus": "yes", "highway": "bus_stop", "name": "Sunset Road / Trias Road", "name:en": "Sunset Road / Trias Road", "name:mi": "Te Huarahi o Sunset m\u0101 Te Huarahi o Trias", "network": "AT", "network:wikidata": "Q4819567", "public_transport": "platform", "ref": "3828"}}, {"type": "node", "id": 3353449138, "lat": -36.760958, "lon": 174.721891, "tags": {"bus": "yes", "highway": "bus_stop", "name": "Caribbean Drive / Goldfinch Rise", "network": "AT", "network:wikidata": "Q4819567", "public_transport": "platform", "ref": "3651"}}, {"type": "node", "id": 3353449163, "lat": -36.7617636, "lon": 174.7247957, "tags": {"bench": "yes", "bin": "yes", "bus": "yes", "departures_board": "timetable", "highway": "bus_stop", "lit": "yes", "name": "Sunset Road", "name:en": "Sunset Road", "name:mi": "Te Huarahi o Sunset", "network": "AT", "network:wikidata": "Q4819567", "public_transport": "platform", "ref": "3834", "shelter": "yes", "tactile_paving": "no"}}, {"type": "node", "id": 3353449184, "lat": -36.763216, "lon": 174.7214376, "tags": {"bus": "yes", "highway": "bus_stop", "name": "Tenbless Crescent", "name:en": "Tenbless Crescent", "network": "AT", "network:wikidata": "Q4819567", "public_transport": "platform", "ref": "3826"}}, {"type": "node", "id": 3353449192, "lat": -36.7644509, "lon": 174.7206655, "tags": {"bus": "yes", "highway": "bus_stop", "name": "Girrahween Drive", "name:en": "Girrahween Drive", "name:mi": "Te Ara \u0100whio o Girrahween", "network": "AT", "network:wikidata": "Q4819567", "public_transport": "platform", "ref": "3665"}}, {"type": "node", "id": 3353477514, "lat": -36.7537977, "lon": 174.716034, "tags": {"bus": "yes", "highway": "bus_stop", "name": "Grenadine Place", "name:en": "Grenadine Place", "name:mi": "Te Aramutu o Grenadine", "network": "AT", "network:wikidata": "Q4819567", "public_transport": "platform", "ref": "3814"}}, {"type": "node", "id": 3353477529, "lat": -36.7551275, "lon": 174.7149358, "tags": {"bus": "yes", "highway": "bus_stop", "name": "Barbados Drive / Unsworth Drive", "name:en": "Barbados Drive / Unsworth Drive", "name:mi": "Te Ara \u0100whio o Barbados m\u0101 Te Ara \u0100whio o Unsworth", "network": "AT", "network:wikidata": "Q4819567", "public_transport": "platform", "ref": "3816"}}, {"type": "node", "id": 3353477530, "lat": -36.7551371, "lon": 174.7239303, "tags": {"bus": "yes", "highway": "bus_stop", "name": "Devonshire Reserve", "name:en": "Devonshire Reserve", "name:mi": "Te Papa R\u0101hui o Devonshire", "network": "AT", "network:wikidata": "Q4819567", "public_transport": "platform", "ref": "3802"}}, {"type": "node", "id": 3353477533, "lat": -36.7555772, "lon": 174.7145638, "tags": {"bus": "yes", "highway": "bus_stop", "name": "Barbados Drive / Unsworth Drive", "name:en": "Barbados Drive / Unsworth Drive", "name:mi": "Te Ara \u0100whio o Barbados m\u0101 Te Ara \u0100whio o Unsworth", "network": "AT", "network:wikidata": "Q4819567", "public_transport": "platform", "ref": "3657"}}, {"type": "node", "id": 3353477537, "lat": -36.7557748, "lon": 174.7216765, "tags": {"bus": "yes", "highway": "bus_stop", "name": "Exeter Place", "name:en": "Exeter Place", "name:mi": "Te Aramutu o Exeter", "network": "AT", "network:wikidata": "Q4819567", "public_transport": "platform", "ref": "3804"}}, {"type": "node", "id": 3353477548, "lat": -36.7562367, "lon": 174.7199381, "tags": {"bus": "yes", "highway": "bus_stop", "name": "Devonshire Road", "network": "AT", "network:wikidata": "Q4819567", "public_transport": "platform", "ref": "3806"}}, {"type": "node", "id": 3353477549, "lat": -36.757109, "lon": 174.7146558, "tags": {"bus": "yes", "highway": "bus_stop", "name": "Westminster Gardens", "network": "AT", "network:wikidata": "Q4819567", "public_transport": "platform", "ref": "3659"}}, {"type": "node", "id": 3353477553, "lat": -36.7574511, "lon": 174.7146821, "tags": {"bus": "yes", "highway": "bus_stop", "name": "Westminster Gardens", "network": "AT", "network:wikidata": "Q4819567", "public_transport": "platform", "ref": "3820"}}, {"type": "node", "id": 3353477591, "lat": -36.7596497, "lon": 174.7156179, "tags": {"bus": "yes", "highway": "bus_stop", "name": "Rifleman Rise", "network": "AT", "network:wikidata": "Q4819567", "public_transport": "platform", "ref": "3661"}}, {"type": "node", "id": 3353477592, "lat": -36.7597432, "lon": 174.7206352, "tags": {"bus": "yes", "highway": "bus_stop", "name": "Mandeville Place", "name:en": "Mandeville Place", "name:mi": "Te Aramutu o Mandeville", "network": "AT", "network:wikidata": "Q4819567", "public_transport": "platform", "ref": "3649"}}, {"type": "node", "id": 3353477593, "lat": -36.7598329, "lon": 174.7208796, "tags": {"bus": "yes", "highway": "bus_stop", "name": "Mandeville Place", "name:en": "Mandeville Place", "name:mi": "Te Aramutu o Mandeville", "network": "AT", "network:wikidata": "Q4819567", "public_transport": "platform", "ref": "3808"}}, {"type": "node", "id": 3353477600, "lat": -36.7602413, "lon": 174.7234457, "tags": {"bench": "yes", "bin": "yes", "bus": "yes", "highway": "bus_stop", "lit": "no", "name": "Sunset Road / Trias Road", "name:en": "Sunset Road / Trias Road", "name:mi": "Te Huarahi o Sunset m\u0101 Te Huarahi o Trias", "network": "AT", "network:wikidata": "Q4819567", "public_transport": "platform", "ref": "3669", "shelter": "yes", "tactile_paving": "no"}}, {"type": "node", "id": 3353477618, "lat": -36.7608539, "lon": 174.7220748, "tags": {"bus": "yes", "highway": "bus_stop", "name": "Caribbean Drive / Goldfinch Rise", "network": "AT", "network:wikidata": "Q4819567", "public_transport": "platform", "ref": "3810"}}, {"type": "node", "id": 3353477669, "lat": -36.7619347, "lon": 174.7227598, "tags": {"bench": "no", "bin": "no", "bus": "yes", "highway": "bus_stop", "lit": "no", "name": "Caribbean Drive", "name:en": "Caribbean Drive", "name:mi": "Te Ara \u0100whio o Caribbean", "network": "AT", "network:wikidata": "Q4819567", "public_transport": "platform", "ref": "3667", "shelter": "no", "tactile_paving": "no"}}, {"type": "node", "id": 3353497027, "lat": -36.7767321, "lon": 174.7238524, "tags": {"bench": "yes", "bin": "no", "bus": "yes", "highway": "bus_stop", "lit": "yes", "name": "Chivalry Road / Glenfield Road", "name:en": "Chivalry Road / Glenfield Road", "name:mi": "Te Huarahi o Chivalry m\u0101 Te Huarahi o Glenfield", "network": "AT", "network:wikidata": "Q4819567", "public_transport": "platform", "ref": "3882", "shelter": "yes", "tactile_paving": "yes"}}, {"type": "node", "id": 3353497028, "lat": -36.776863, "lon": 174.7238087, "tags": {"bench": "yes", "bin": "no", "bus": "yes", "highway": "bus_stop", "lit": "yes", "name": "Chivalry Road / Glenfield Road", "name:en": "Chivalry Road / Glenfield Road", "name:mi": "Te Huarahi o Chivalry m\u0101 Te Huarahi o Glenfield", "network": "AT", "network:wikidata": "Q4819567", "public_transport": "platform", "ref": "3733", "shelter": "no", "tactile_paving": "yes"}}, {"type": "node", "id": 3353497029, "lat": -36.7774957, "lon": 174.7256541, "tags": {"bench": "no", "bin": "no", "bus": "yes", "highway": "bus_stop", "lit": "yes", "name": "Colin Wild Place", "name:en": "Colin Wild Place", "name:mi": "Te Aramutu o Colin Wild", "network": "AT", "network:wikidata": "Q4819567", "public_transport": "platform", "ref": "3880", "shelter": "no", "tactile_paving": "no"}}, {"type": "node", "id": 3353497030, "lat": -36.7780558, "lon": 174.7257399, "tags": {"bus": "yes", "highway": "bus_stop", "name": "Colin Wild Place", "name:en": "Colin Wild Place", "name:mi": "Te Aramutu o Colin Wild", "network": "AT", "network:wikidata": "Q4819567", "public_transport": "platform", "ref": "3731"}}, {"type": "node", "id": 3364614105, "lat": -36.77738, "lon": 174.65885, "tags": {"access": "no", "bus": "yes", "highway": "bus_stop", "name": "Twin Wharf Road", "network": "AT", "network:wikidata": "Q4819567", "public_transport": "platform", "ref": "5692", "school_bus": "designated", "wheelchair": "limited"}}, {"type": "node", "id": 3364614106, "lat": -36.7775441, "lon": 174.6298638, "tags": {"bus": "yes", "highway": "bus_stop", "name": "Karaka Road", "network": "AT", "network:wikidata": "Q4819567", "public_transport": "platform", "ref": "5825"}}, {"type": "node", "id": 3364614107, "lat": -36.7781822, "lon": 174.632531, "tags": {"bus": "yes", "highway": "bus_stop", "public_transport": "platform", "ref": "5827"}}, {"type": "node", "id": 3364614108, "lat": -36.778709, "lon": 174.6550557, "tags": {"access": "no", "bus": "yes", "highway": "bus_stop", "name": "George Avenue", "network": "AT", "network:wikidata": "Q4819567", "public_transport": "platform", "ref": "5690", "school_bus": "designated"}}, {"type": "node", "id": 3364614111, "lat": -36.779281, "lon": 174.6367916, "tags": {"bus": "yes", "highway": "bus_stop", "public_transport": "platform", "ref": "5846"}}, {"type": "node", "id": 3364614116, "lat": -36.7799686, "lon": 174.6585715, "tags": {"access": "no", "bus": "yes", "highway": "bus_stop", "name": "Holgate Avenue", "network": "AT", "network:wikidata": "Q4819567", "public_transport": "platform", "ref": "5689", "school_bus": "designated", "wheelchair": "no"}}, {"type": "node", "id": 3364614129, "lat": -36.7805656, "lon": 174.6367374, "tags": {"bus": "yes", "highway": "bus_stop", "public_transport": "platform", "ref": "5844"}}, {"type": "node", "id": 3364614132, "lat": -36.7808755, "lon": 174.651133, "tags": {"access": "no", "bus": "yes", "highway": "bus_stop", "name": "Coleman Avenue", "network": "AT", "network:wikidata": "Q4819567", "public_transport": "platform", "ref": "5688", "school_bus": "designated", "wheelchair": "no"}}, {"type": "node", "id": 3364614134, "lat": -36.78105, "lon": 174.65454, "tags": {"access": "no", "bus": "yes", "highway": "bus_stop", "name": "Coleman Avenue", "network": "AT", "network:wikidata": "Q4819567", "public_transport": "platform", "ref": "5691", "school_bus": "designated", "wheelchair": "no"}}, {"type": "node", "id": 3364614135, "lat": -36.7812419, "lon": 174.6403021, "tags": {"bus": "yes", "highway": "bus_stop", "public_transport": "platform", "ref": "5842"}}, {"type": "node", "id": 3364614138, "lat": -36.7825917, "lon": 174.6439127, "tags": {"bus": "yes", "highway": "bus_stop", "network": "AT", "network:wikidata": "Q4819567", "public_transport": "platform", "ref": "5840", "wheelchair": "no"}}, {"type": "node", "id": 3364614142, "lat": -36.7889627, "lon": 174.6143067, "tags": {"bus": "yes", "highway": "bus_stop", "name": "Dale Road", "network": "AT", "network:wikidata": "Q4819567", "public_transport": "platform", "ref": "1636"}}, {"type": "node", "id": 3364614143, "lat": -36.7883273, "lon": 174.6142934, "tags": {"bus": "yes", "highway": "bus_stop", "name": "Dale Road", "network": "AT", "network:wikidata": "Q4819567", "public_transport": "platform", "ref": "5829"}}, {"type": "node", "id": 3365345685, "lat": -36.7832781, "lon": 174.7230181, "tags": {"bus": "yes", "highway": "bus_stop", "name": "Downing Street Reserve", "name:en": "Downing Street Reserve", "name:mi": "Te Papa R\u0101hui o te Tiriti o Downing", "network": "AT", "network:wikidata": "Q4819567", "public_transport": "platform", "ref": "4008"}}, {"type": "node", "id": 3379223449, "lat": -36.7292121, "lon": 174.7023847, "tags": {"bus": "yes", "highway": "bus_stop", "name": "North Harbour Stadium", "network": "AT", "network:wikidata": "Q4819567", "public_transport": "platform", "ref": "4246"}}, {"type": "node", "id": 3379223450, "lat": -36.7294038, "lon": 174.7041453, "tags": {"bus": "yes", "highway": "bus_stop", "name": "North Harbour Stadium", "network": "AT", "network:wikidata": "Q4819567", "public_transport": "platform", "ref": "4245"}}, {"type": "node", "id": 3379223459, "lat": -36.7334949, "lon": 174.7031682, "tags": {"bus": "yes", "highway": "bus_stop", "network": "AT", "network:wikidata": "Q4819567", "network:wikipedia": "en:Auckland Transport", "public_transport": "platform", "ref": "4214"}}, {"type": "node", "id": 3379223463, "lat": -36.7221673, "lon": 174.7121631, "tags": {"bus": "yes", "highway": "bus_stop", "local_ref": "C", "name": "Albany", "network": "AT", "network:wikidata": "Q4819567", "official_name": "Stop C Albany Bus Station", "official_name:en": "Stop C Albany Bus Station", "official_name:mi": "T\u016bnga C Te Teihana Pahi o Albany", "public_transport": "platform", "ref": "4227"}}, {"type": "node", "id": 3379223464, "lat": -36.7221976, "lon": 174.7126749, "tags": {"bus": "yes", "highway": "bus_stop", "local_ref": "D", "name": "Albany", "network": "AT", "network:wikidata": "Q4819567", "official_name": "Stop D Albany Bus Station", "official_name:en": "Stop D Albany Bus Station", "official_name:mi": "T\u016bnga D Te Teihana Pahi o Albany", "public_transport": "platform", "ref": "4229"}}, {"type": "node", "id": 3379223465, "lat": -36.7223307, "lon": 174.7130036, "tags": {"bus": "yes", "highway": "bus_stop", "local_ref": "A", "name": "Albany", "network": "AT", "network:wikidata": "Q4819567", "official_name": "Stop A Albany Bus Station", "official_name:en": "Stop A Albany Bus Station", "official_name:mi": "T\u016bnga A Te Teihana Pahi o Albany", "public_transport": "platform", "ref": "4226"}}, {"type": "node", "id": 3379223466, "lat": -36.7223008, "lon": 174.7125065, "tags": {"bus": "yes", "highway": "bus_stop", "local_ref": "B", "name": "Albany", "network": "AT", "network:wikidata": "Q4819567", "official_name": "Stop B Albany Bus Station", "official_name:en": "Stop B Albany Bus Station", "official_name:mi": "T\u016bnga B Te Teihana Pahi o Albany", "public_transport": "platform", "ref": "4228"}}, {"type": "node", "id": 3379319548, "lat": -36.7252272, "lon": 174.6958352, "tags": {"bus": "yes", "highway": "bus_stop", "name": "Albany Village", "name:en": "Albany Village", "name:mi": "Te P\u0101 o \u014ckahukura", "network": "AT", "network:wikidata": "Q4819567", "public_transport": "platform", "ref": "3578"}}, {"type": "node", "id": 3379319611, "lat": -36.7273005, "lon": 174.7078417, "tags": {"bus": "yes", "highway": "bus_stop", "name": "Westfield Albany", "public_transport": "platform", "ref": "4260"}}, {"type": "node", "id": 3379319612, "lat": -36.7272451, "lon": 174.7074952, "tags": {"bus": "yes", "highway": "bus_stop", "name": "Westfield Albany", "network": "AT", "network:wikidata": "Q4819567", "public_transport": "platform", "ref": "4259"}}, {"type": "node", "id": 3379319613, "lat": -36.7274284, "lon": 174.7082489, "tags": {"bus": "yes", "highway": "bus_stop", "name": "Westfield Albany", "network": "AT", "network:wikidata": "Q4819567", "public_transport": "platform", "ref": "4260"}}, {"type": "node", "id": 3379319614, "lat": -36.7274044, "lon": 174.707848, "tags": {"bus": "yes", "highway": "bus_stop", "name": "Westfield Albany", "public_transport": "platform", "ref": "4259"}}, {"type": "node", "id": 3379319615, "lat": -36.7274717, "lon": 174.7179938, "tags": {"bus": "yes", "highway": "bus_stop", "name": "Pinehill School", "name:en": "Pinehill School", "name:mi": "Te Kura o Pinehill", "network": "AT", "network:wikidata": "Q4819567", "public_transport": "platform", "ref": "4230"}}, {"type": "node", "id": 3379319621, "lat": -36.727595, "lon": 174.7179001, "tags": {"bus": "yes", "highway": "bus_stop", "name": "Pinehill School", "name:en": "Pinehill School", "name:mi": "Te Kura o Pinehill", "network": "AT", "network:wikidata": "Q4819567", "public_transport": "platform", "ref": "3187"}}, {"type": "node", "id": 3379319661, "lat": -36.7282839, "lon": 174.6971705, "tags": {"bus": "yes", "highway": "bus_stop", "name": "Albany Senior High School", "network": "AT", "network:wikidata": "Q4819567", "public_transport": "platform", "ref": "4402"}}, {"type": "node", "id": 3379319684, "lat": -36.7294552, "lon": 174.7111073, "tags": {"bus": "yes", "highway": "bus_stop", "name": "Northridge Plaza", "network": "AT", "network:wikidata": "Q4819567", "public_transport": "platform", "ref": "3588"}}, {"type": "node", "id": 3379319724, "lat": -36.7297911, "lon": 174.721691, "tags": {"bus": "yes", "highway": "bus_stop", "name": "Bundoran Way", "name:en": "Bundoran Way", "name:mi": "Te Ara o Bundoran", "network": "AT", "network:wikidata": "Q4819567", "public_transport": "platform", "ref": "3181"}}, {"type": "node", "id": 3379319732, "lat": -36.7298231, "lon": 174.7211242, "tags": {"bus": "yes", "highway": "bus_stop", "name": "Bundoran Way", "name:en": "Bundoran Way", "name:mi": "Te Ara o Bundoran", "network": "AT", "network:wikidata": "Q4819567", "public_transport": "platform", "ref": "3182"}}, {"type": "node", "id": 3379319754, "lat": -36.7301147, "lon": 174.7107943, "tags": {"bus": "yes", "highway": "bus_stop", "name": "Northridge Plaza", "network": "AT", "network:wikidata": "Q4819567", "public_transport": "platform", "ref": "3587"}}, {"type": "node", "id": 3379319868, "lat": -36.7324209, "lon": 174.7258874, "tags": {"bus": "yes", "highway": "bus_stop", "name": "Killybegs Drive", "name:en": "Killybegs Drive", "name:mi": "Te Ara \u0100whio o Killybegs", "network": "AT", "network:wikidata": "Q4819567", "public_transport": "platform", "ref": "3179"}}, {"type": "node", "id": 3379319877, "lat": -36.7327309, "lon": 174.726554, "tags": {"bus": "yes", "highway": "bus_stop", "name": "Killybegs Drive", "name:en": "Killybegs Drive", "name:mi": "Te Ara \u0100whio o Killybegs", "network": "AT", "network:wikidata": "Q4819567", "public_transport": "platform", "ref": "3180"}}, {"type": "node", "id": 3379319969, "lat": -36.7340755, "lon": 174.7075682, "tags": {"bus": "yes", "highway": "bus_stop", "name": "Bushlands Park Drive", "name:en": "Bushlands Park Drive", "name:mi": "Te Ara \u0100whio o Bushlands Park", "network": "AT", "network:wikidata": "Q4819567", "public_transport": "platform", "ref": "3764"}}, {"type": "node", "id": 3379319978, "lat": -36.7343868, "lon": 174.706994, "tags": {"bus": "yes", "highway": "bus_stop", "name": "Bushlands Park Drive", "name:en": "Bushlands Park Drive", "name:mi": "Te Ara \u0100whio o Bushlands Park", "network": "AT", "network:wikidata": "Q4819567", "public_transport": "platform", "ref": "3607"}}, {"type": "node", "id": 3379319993, "lat": -36.7351027, "lon": 174.691272, "tags": {"bus": "yes", "highway": "bus_stop", "name": "Summerfield Lane", "network": "AT", "network:wikidata": "Q4819567", "public_transport": "platform", "ref": "3592", "shelter": "yes"}}, {"type": "node", "id": 3379320066, "lat": -36.73769, "lon": 174.6921, "tags": {"bus": "yes", "highway": "bus_stop", "name": "Bass Road", "network": "AT", "network:wikidata": "Q4819567", "public_transport": "platform", "ref": "4079"}}, {"type": "node", "id": 3379320106, "lat": -36.7392882, "lon": 174.7039779, "tags": {"bus": "yes", "highway": "bus_stop", "name": "Pinehurst School", "name:en": "Pinehurst School", "name:mi": "Te Kura o Pinehurst", "network": "AT", "network:wikidata": "Q4819567", "public_transport": "platform", "ref": "3609"}}, {"type": "node", "id": 3379320110, "lat": -36.7395059, "lon": 174.7206141, "tags": {"bus": "yes", "highway": "bus_stop", "name": "Triton Drive", "name:en": "Triton Drive", "name:mi": "Te Ara \u0100whio o Triton", "network": "AT", "network:wikidata": "Q4819567", "public_transport": "platform", "ref": "4250"}}, {"type": "node", "id": 3379320111, "lat": -36.7392597, "lon": 174.7207001, "tags": {"bus": "yes", "highway": "bus_stop", "name": "Triton Drive", "name:en": "Triton Drive", "name:mi": "Te Ara \u0100whio o Triton", "network": "AT", "network:wikidata": "Q4819567", "public_transport": "platform", "ref": "4139"}}, {"type": "node", "id": 3379320112, "lat": -36.7398754, "lon": 174.7040814, "tags": {"bus": "yes", "highway": "bus_stop", "public_transport": "platform", "shelter": "yes"}}, {"type": "node", "id": 3379320119, "lat": -36.7406414, "lon": 174.7040115, "tags": {"bus": "yes", "highway": "bus_stop", "name": "Pinehurst School", "name:en": "Pinehurst School", "name:mi": "Te Kura o Pinehurst", "network": "AT", "network:wikidata": "Q4819567", "public_transport": "platform", "ref": "3766", "shelter": "no"}}, {"type": "node", "id": 3379320120, "lat": -36.7409263, "lon": 174.7233452, "tags": {"bus": "yes", "highway": "bus_stop", "name": "Canaveral Drive", "name:en": "Canaveral Drive", "name:mi": "Te Ara \u0100whio o Canaveral", "network": "AT", "network:wikidata": "Q4819567", "public_transport": "platform", "ref": "4145", "shelter": "yes"}}, {"type": "node", "id": 3379320122, "lat": -36.7414495, "lon": 174.7240607, "tags": {"bench": "yes", "bus": "yes", "highway": "bus_stop", "name": "Canaveral Drive", "name:en": "Canaveral Drive", "name:mi": "Te Ara \u0100whio o Canaveral", "network": "AT", "network:wikidata": "Q4819567", "public_transport": "platform", "ref": "4248", "shelter": "yes"}}, {"type": "node", "id": 3379320123, "lat": -36.741377, "lon": 174.7166227, "tags": {"bus": "yes", "highway": "bus_stop", "name": "Henry Rose Place", "name:en": "Henry Rose Place", "name:mi": "Te Aramutu o Henry Rose", "network": "AT", "network:wikidata": "Q4819567", "public_transport": "platform", "ref": "4141"}}, {"type": "node", "id": 3379320125, "lat": -36.741673, "lon": 174.7113351, "tags": {"bus": "yes", "highway": "bus_stop", "name": "Rosedale Plaza", "network": "AT", "network:wikidata": "Q4819567", "public_transport": "platform", "ref": "3702"}}, {"type": "node", "id": 3379320127, "lat": -36.7416979, "lon": 174.7160704, "tags": {"bus": "yes", "highway": "bus_stop", "name": "Henry Rose Place", "name:en": "Henry Rose Place", "name:mi": "Te Aramutu o Henry Rose", "network": "AT", "network:wikidata": "Q4819567", "public_transport": "platform", "ref": "4240"}}, {"type": "node", "id": 3379320129, "lat": -36.7417356, "lon": 174.7106129, "tags": {"bus": "yes", "highway": "bus_stop", "name": "Rosedale Plaza", "network": "AT", "network:wikidata": "Q4819567", "public_transport": "platform", "ref": "3608"}}, {"type": "node", "id": 3415537960, "lat": -36.782666, "lon": 174.7114035, "tags": {"access": "no", "bus": "yes", "highway": "bus_stop", "name": "The Orchards Retirement Village", "network": "AT", "network:wikidata": "Q4819567", "public_transport": "platform", "ref": "3787", "school_bus": "designated"}}, {"type": "node", "id": 3415537961, "lat": -36.7827923, "lon": 174.7113763, "tags": {"bus": "yes", "highway": "bus_stop", "name": "The Orchards Retirement Village", "network": "AT", "network:wikidata": "Q4819567", "public_transport": "platform", "ref": "3916"}}, {"type": "node", "id": 3440523902, "lat": -36.7157995, "lon": 174.7169477, "tags": {"bus": "yes", "highway": "bus_stop", "name": "Oteha Valley School", "public_transport": "platform", "ref": "3186"}}, {"type": "node", "id": 3440523936, "lat": -36.7189644, "lon": 174.7166463, "tags": {"bench": "yes", "bus": "yes", "highway": "bus_stop", "name": "Fernhill Way", "public_transport": "platform", "ref": "4427", "shelter": "yes"}}, {"type": "node", "id": 3453726425, "lat": -36.7174233, "lon": 174.6771025, "tags": {"bus": "yes", "highway": "bus_stop", "name": "Hobson Road", "network": "AT", "network:wikidata": "Q4819567", "public_transport": "platform", "ref": "4147", "wheelchair": "no"}}, {"type": "node", "id": 3453726426, "lat": -36.7174345, "lon": 174.6773301, "tags": {"bus": "yes", "highway": "bus_stop", "name": "Hobson Road", "network": "AT", "network:wikidata": "Q4819567", "public_transport": "platform", "ref": "3602", "wheelchair": "no"}}, {"type": "node", "id": 3453726427, "lat": -36.7218774, "lon": 174.6913458, "tags": {"bench": "yes", "bin": "yes", "bus": "yes", "highway": "bus_stop", "name": "The Avenue", "name:en": "The Avenue", "name:mi": "Te Arah\u0101ngai", "network": "AT", "network:wikidata": "Q4819567", "public_transport": "platform", "ref": "3561", "shelter": "yes"}}, {"type": "node", "id": 3453726428, "lat": -36.722025, "lon": 174.7058797, "tags": {"access": "no", "bus": "yes", "highway": "bus_stop", "name": "Mills Lane", "network": "AT", "network:wikidata": "Q4819567", "public_transport": "platform", "ref": "3570", "school_bus": "designated"}}, {"type": "node", "id": 3453726429, "lat": -36.7219799, "lon": 174.6911546, "tags": {"bus": "yes", "highway": "bus_stop", "name": "The Avenue", "name:en": "The Avenue", "name:mi": "Te Arah\u0101ngai", "network": "AT", "network:wikidata": "Q4819567", "public_transport": "platform", "ref": "3559"}}, {"type": "node", "id": 3470686762, "lat": -36.7782437, "lon": 174.670966}, {"type": "node", "id": 3470686772, "lat": -36.7782527, "lon": 174.670953}, {"type": "node", "id": 3470687096, "lat": -36.7782707, "lon": 174.670995}, {"type": "node", "id": 3470687106, "lat": -36.7782797, "lon": 174.670982}, {"type": "node", "id": 3558121576, "lat": -36.7173336, "lon": 174.7246319, "tags": {"bus": "yes", "highway": "bus_stop", "name": "John Downs Drive", "name:en": "John Downs Drive", "name:mi": "Te Ara \u0100whio o John Downs", "network": "AT", "network:wikidata": "Q4819567", "public_transport": "platform", "ref": "3174", "shelter": "yes"}}, {"type": "node", "id": 3558121585, "lat": -36.7177841, "lon": 174.7247333, "tags": {"bus": "yes", "highway": "bus_stop", "name": "John Downs Drive", "name:en": "John Downs Drive", "name:mi": "Te Ara \u0100whio o John Downs", "network": "AT", "network:wikidata": "Q4819567", "public_transport": "platform", "ref": "3155", "shelter": "yes"}}, {"type": "node", "id": 3558121631, "lat": -36.7190757, "lon": 174.7243028, "tags": {"bus": "yes", "highway": "bus_stop", "name": "Saint Clair Place", "public_transport": "platform", "ref": "3172", "shelter": "yes"}}, {"type": "node", "id": 3558121633, "lat": -36.7199026, "lon": 174.7243112, "tags": {"bus": "yes", "highway": "bus_stop", "name": "Saint Clair Place", "public_transport": "platform", "ref": "3153", "shelter": "yes"}}, {"type": "node", "id": 3558121660, "lat": -36.7229889, "lon": 174.723103, "tags": {"bus": "yes", "highway": "bus_stop", "name": "City Impact Church", "public_transport": "platform", "ref": "3170", "shelter": "yes"}}, {"type": "node", "id": 3558121664, "lat": -36.7242502, "lon": 174.7234381, "tags": {"bus": "yes", "highway": "bus_stop", "name": "Spencer Road", "name:en": "Spencer Road", "name:mi": "Te Huarahi o Spencer", "network": "AT", "network:wikidata": "Q4819567", "public_transport": "platform", "ref": "3151", "shelter": "yes"}}, {"type": "node", "id": 3558121678, "lat": -36.7246691, "lon": 174.7256008, "tags": {"bus": "yes", "highway": "bus_stop", "name": "Langana Avenue", "name:en": "Langana Avenue", "name:mi": "Te Arah\u0101ngai o Langana", "network": "AT", "network:wikidata": "Q4819567", "public_transport": "platform", "ref": "3144", "shelter": "no"}}, {"type": "node", "id": 3558121679, "lat": -36.72482, "lon": 174.725688, "tags": {"bus": "yes", "highway": "bus_stop", "name": "Langana Avenue", "name:en": "Langana Avenue", "name:mi": "Te Arah\u0101ngai o Langana", "network": "AT", "network:wikidata": "Q4819567", "public_transport": "platform", "ref": "3125", "shelter": "no"}}, {"type": "node", "id": 3558121681, "lat": -36.7264698, "lon": 174.7242991, "tags": {"bus": "yes", "highway": "bus_stop", "name": "Oaktree Avenue", "public_transport": "platform", "ref": "3146", "shelter": "yes"}}, {"type": "node", "id": 3762191643, "lat": -36.7346976, "lon": 174.6932157}, {"type": "node", "id": 3762191644, "lat": -36.7346718, "lon": 174.6932403}, {"type": "node", "id": 3762191645, "lat": -36.7347449, "lon": 174.6932108}, {"type": "node", "id": 3762191646, "lat": -36.7347793, "lon": 174.6932778}, {"type": "node", "id": 3762191647, "lat": -36.7348072, "lon": 174.6932912}, {"type": "node", "id": 3762191648, "lat": -36.7347835, "lon": 174.6933958}, {"type": "node", "id": 3762191649, "lat": -36.7347384, "lon": 174.6933717}, {"type": "node", "id": 4096400785, "lat": -36.7886379, "lon": 174.6665137, "tags": {"bench": "yes", "bin": "no", "bus": "yes", "highway": "bus_stop", "name": "Hudson Bay Road / Buckley Avenue", "name:en": "Hudson Bay Road / Buckley Avenue", "name:mi": "Te Huarahi o Hudson Bay / Te Arah\u0101ngai o Buckley", "network": "AT", "network:wikidata": "Q4819567", "public_transport": "platform", "ref": "1551", "shelter": "yes", "tactile_paving": "no"}}, {"type": "node", "id": 4096401602, "lat": -36.7903057, "lon": 174.6631611, "tags": {"bench": "no", "bus": "yes", "highway": "bus_stop", "name": "Isitt Road", "network": "AT", "network:wikidata": "Q4819567", "public_transport": "platform", "ref": "1530", "shelter": "yes", "tactile_paving": "no"}}, {"type": "node", "id": 4096401605, "lat": -36.7906507, "lon": 174.6631316, "tags": {"bench": "yes", "bus": "yes", "highway": "bus_stop", "name": "Isitt Road", "network": "AT", "network:wikidata": "Q4819567", "public_transport": "platform", "ref": "1531", "shelter": "no", "tactile_paving": "no"}}, {"type": "node", "id": 4226313291, "lat": -36.795211, "lon": 174.6556721, "tags": {"bus": "yes", "highway": "bus_stop", "name": "Hobsonville Point Secondary School", "network": "AT", "network:wikidata": "Q4819567", "public_transport": "platform", "ref": "1644", "shelter": "yes"}}, {"type": "node", "id": 4294164678, "lat": -36.7450957, "lon": 174.6929781, "tags": {"bus": "yes", "highway": "bus_stop", "name": "Oak Manor Drive", "name:en": "Oak Manor Drive", "name:mi": "Te Ara \u0100whio o Oak Manor", "network": "AT", "network:wikidata": "Q4819567", "public_transport": "platform", "ref": "3594", "shelter": "yes"}}, {"type": "node", "id": 4294164682, "lat": -36.7465526, "lon": 174.6933443, "tags": {"bus": "yes", "highway": "bus_stop", "name": "Oak Manor Drive", "name:en": "Oak Manor Drive", "name:mi": "Te Ara \u0100whio o Oak Manor", "network": "AT", "network:wikidata": "Q4819567", "public_transport": "platform", "ref": "3581", "shelter": "yes"}}, {"type": "node", "id": 4294164876, "lat": -36.7541856, "lon": 174.698725, "tags": {"bus": "yes", "highway": "bus_stop", "name": "Rothwell Avenue", "name:en": "Rothwell Avenue", "name:mi": "Te Arah\u0101ngai o Rothwell", "network": "AT", "network:wikidata": "Q4819567", "public_transport": "platform", "ref": "3629", "shelter": "yes"}}, {"type": "node", "id": 4590138554, "lat": -36.7930337, "lon": 174.6609946, "tags": {"bus": "yes", "highway": "bus_stop", "name": "Hobsonville Point Primary School", "name:en": "Hobsonville Point Primary School", "name:mi": "Te Kura Tuatahi o Hobsonville Point", "network": "AT", "network:wikidata": "Q4819567", "public_transport": "platform", "ref": "1665"}}, {"type": "node", "id": 4809069184, "lat": -36.7284889, "lon": 174.6973352, "tags": {"bus": "yes", "highway": "bus_stop", "name": "Albany Senior High School", "network": "AT", "network:wikidata": "Q4819567", "public_transport": "platform", "ref": "4423", "shelter": "yes"}}, {"type": "node", "id": 4809449404, "lat": -36.722128, "lon": 174.7133513}, {"type": "node", "id": 4809449407, "lat": -36.7221726, "lon": 174.7117142}, {"type": "node", "id": 4828294605, "lat": -36.7198635, "lon": 174.7016643, "tags": {"bus": "yes", "highway": "bus_stop", "name": "Living Stream Avenue", "network": "AT", "network:wikidata": "Q4819567", "public_transport": "platform", "ref": "3293"}}, {"type": "node", "id": 5057172402, "lat": -36.7254539, "lon": 174.7183159, "tags": {"bus": "yes", "highway": "bus_stop", "network": "AT", "network:wikidata": "Q4819567", "public_transport": "platform"}}, {"type": "node", "id": 5057172403, "lat": -36.725332, "lon": 174.7183596, "tags": {"bus": "yes", "highway": "bus_stop", "network": "AT", "network:wikidata": "Q4819567", "public_transport": "platform"}}, {"type": "node", "id": 5324885022, "lat": -36.7898787, "lon": 174.6782931, "tags": {"amenity": "ferry_terminal", "fare_gates": "no", "ferry": "yes", "loc_ref": "1", "name": "Beach Haven", "network": "AT", "network:wikidata": "Q4819567", "official_name": "Beach Haven Ferry Terminal", "public_transport": "stop_position", "ref": "9650", "wikidata": "Q131225674"}},