{"version": 0.6, "generator": "Overpass API 0.7.62.8 e802775f", "osm3s": {"timestamp_osm_base": "2026-01-12T13:39:15Z", "copyright": "The data included in this document is from www.openstreetmap.org. The data is made available under ODbL."}, "elements": [{"type": "node", "id": 62053599, "lat": 12.9723136, "lon": 77.5079205, "tags": {"bus": "yes", "highway": "bus_stop", "name": "Papareddy Palya", "name:kn": "\u0caa\u0cbe\u0caa\u0cb0\u0cc6\u0ca1\u0ccd\u0ca1\u0cbf \u0caa\u0cbe\u0cb3\u0ccd\u0caf", "network": "BMTC", "network:wikidata": "Q3345039", "network:wikipedia": "hi:\u092c\u0947\u0902\u0917\u0932\u094b\u0930 \u092e\u0939\u093e\u0928\u0917\u0930 \u092a\u0930\u093f\u0935\u0939\u0928 \u0928\u093f\u0917\u092e", "public_transport": "platform"}}, {"type": "node", "id": 62053620, "lat": 12.9751302, "lon": 77.5094207, "tags": {"highway": "bus_stop", "loc_name": "PAPAREDDY PALYA", "name": "Aladamara", "name:kn": "\u0c86\u0cb2\u0ca6\u0cae\u0cb0"}}, {"type": "node", "id": 62053636, "lat": 12.9795534, "lon": 77.5106479, "tags": {"highway": "bus_stop", "loc_name": "NAGARABHAVI 2ND STAGE", "name": "Nagarabhavi BDA Complex"}}, {"type": "node", "id": 62053719, "lat": 12.9721349, "lon": 77.5079442, "tags": {"bus": "yes", "highway": "bus_stop", "name": "Papareddypalya", "name:en": "Papareddypalya", "name:kn": "\u0caa\u0cbe\u0caa\u0cb0\u0cc6\u0ca1\u0ccd\u0ca1\u0cbf \u0caa\u0cbe\u0cb3\u0ccd\u0caf", "network": "BMTC", "operator": "BMTC", "public_transport": "platform"}}, {"type": "node", "id": 62053750, "lat": 12.9753322, "lon": 77.5096764, "tags": {"highway": "bus_stop", "loc_name": "PAPAREDDY PALYA", "name": "Aladamara Papareddypalya", "name:en": "Aladamara Papareddypalya", "name:kn": "\u0c86\u0cb2\u0ca6\u0cae\u0cb0", "network": "BMTC", "operator": "BMTC", "public_transport": "platform"}}, {"type": "node", "id": 62053772, "lat": 12.9796102, "lon": 77.5107547, "tags": {"bus": "yes", "name": "Nagarabhavi BDA Complex", "name:en": "Nagarabhavi BDA Complex", "network": "BMTC", "operator": "BMTC", "public_transport": "stop_position"}}, {"type": "node", "id": 62056921, "lat": 12.9697447, "lon": 77.5091394, "tags": {"highway": "bus_stop", "name": "Nagarabhavi 9th Block"}}, {"type": "node", "id": 62056953, "lat": 12.9611226, "lon": 77.5098771, "tags": {"bus": "yes", "highway": "bus_stop", "loc_name": "NGEF LAYOUT", "name": "NGEF Layout", "public_transport": "platform"}}, {"type": "node", "id": 62056965, "lat": 12.9607472, "lon": 77.5074459, "tags": {"highway": "bus_stop", "name": "Vinayaka Layout Bus Stop", "name:kn": "\u0cb5\u0cbf\u0ca8\u0cbe\u0caf\u0c95 \u0cac\u0ca1\u0cbe\u0cb5\u0ca3\u0cc6"}}, {"type": "node", "id": 62056980, "lat": 12.9604446, "lon": 77.504936, "tags": {"bus": "yes", "highway": "bus_stop", "loc_name": "80FEET Mallathahalli Road", "name": "Ambedkar College", "name:kn": "\u0c85\u0c82\u0cac\u0cc7\u0ca1\u0ccd\u0c95\u0cb0\u0ccd \u0c95\u0cbe\u0cb2\u0cc7\u0c9c\u0cc1", "operator": "my college rote", "public_transport": "platform"}}, {"type": "node", "id": 66626034, "lat": 12.9571672, "lon": 77.5030961, "tags": {"bus": "yes", "highway": "bus_stop", "name": "Mallathalli Cross", "name:en": "Mallathalli Cross", "name:kn": "\u0cae\u0cb2\u0ccd\u0cb2\u0ca4\u0ccd\u0ca4\u0cb9\u0cb3\u0ccd\u0cb3\u0cbf", "network": "BMTC", "operator": "BMTC", "public_transport": "platform"}}, {"type": "node", "id": 66626051, "lat": 12.9517746, "lon": 77.4997107, "tags": {"bus": "yes", "name": "Bangalore University Quarters", "name:en": "Bangalore University Quarters", "network": "BMTC", "operator": "BMTC", "public_transport": "stop_position"}}, {"type": "node", "id": 66626086, "lat": 12.9452578, "lon": 77.4955665, "tags": {"bus": "yes", "highway": "bus_stop", "name": "Mariyappanapalya", "name:en": "Mariyappanapalya", "name:kn": "\u0cae\u0cb0\u0cbf\u0caf\u0caa\u0ccd\u0caa\u0ca8 \u0caa\u0cbe\u0cb3\u0ccd\u0caf", "network": "BMTC", "operator": "BMTC", "public_transport": "platform"}}, {"type": "node", "id": 246396993, "lat": 12.9783064, "lon": 77.5692678, "tags": {"name": "Bangalore City Junction", "public_transport": "stop_position", "railway": "stop", "ref": "SBC:1", "train": "yes"}}, {"type": "node", "id": 246396994, "lat": 12.9796804, "lon": 77.5694992}, {"type": "node", "id": 246396997, "lat": 12.9830887, "lon": 77.5722533}, {"type": "node", "id": 246396998, "lat": 12.9833263, "lon": 77.5725466}, {"type": "node", "id": 246396999, "lat": 12.9835298, "lon": 77.5728565}, {"type": "node", "id": 246397000, "lat": 12.9842496, "lon": 77.5746955}, {"type": "node", "id": 246397001, "lat": 12.9843186, "lon": 77.5748634}, {"type": "node", "id": 246397002, "lat": 12.9853628, "lon": 77.5762003}, {"type": "node", "id": 246397003, "lat": 12.9861104, "lon": 77.5767179}, {"type": "node", "id": 246397291, "lat": 12.9758484, "lon": 77.568862}, {"type": "node", "id": 248615894, "lat": 12.9059216, "lon": 77.5418887, "tags": {"alt_name": "Utharahalli", "highway": "bus_stop", "name": "Utharahalli Circle", "name:kn": "\u0c89\u0ca4\u0ccd\u0ca4\u0cb0\u0cb9\u0cb3\u0ccd\u0cb3\u0cbf", "public_transport": "platform"}}, {"type": "node", "id": 248677023, "lat": 12.9253246, "lon": 77.4991719, "tags": {"bench": "yes", "bin": "yes", "bus": "yes", "covered": "yes", "highway": "bus_stop", "loc_name": "Mysore Road", "name": "RV College", "name:en": "RV College", "name:kn": "\u0c86\u0cb0\u0ccd \u0cb5\u0cbf \u0c95\u0cbe\u0cb2\u0cc7\u0c9c\u0cc1", "network": "BMTC", "operator": "BMTC", "passenger_information_display": "yes", "public_transport": "platform", "shelter": "yes"}}, {"type": "node", "id": 248680029, "lat": 12.9178645, "lon": 77.5735761, "tags": {"bus": "yes", "highway": "bus_stop", "name": "Banashankari BMTC", "name:kn": "\u0cac\u0ca8\u0cb6\u0c82\u0c95\u0cb0\u0cbf", "public_transport": "platform"}}, {"type": "node", "id": 248838952, "lat": 12.947308, "lon": 77.5663055, "tags": {"alt_name": "Gavipuram Extension", "bench": "yes", "covered": "yes", "highway": "bus_stop", "name": "Kohinoor Ground", "name:en": "Kohinoor Ground", "name:kn": "\u0c95\u0cca\u0cb9\u0cbf\u0ca8\u0cc2\u0cb0\u0cc1 \u0c95\u0ccd\u0cb0\u0cc0\u0ca1\u0cbe\u0c82\u0c97\u0ca3", "network": "BMTC", "operator": "BMTC", "public_transport": "platform", "shelter": "yes"}}, {"type": "node", "id": 249083662, "lat": 12.9539007, "lon": 77.5436416, "tags": {"bus": "yes", "highway": "bus_stop", "loc_name": "BAPUJINAGAR", "name": "MCTC Bus Stand", "public_transport": "platform"}}, {"type": "node", "id": 249084526, "lat": 12.9758097, "lon": 77.5635002, "tags": {"highway": "bus_stop", "name": "Magadi Road 1st Cross", "name:kn": "\u0cae\u0cbe\u0c97\u0ca1\u0cbf \u0cb0\u0cb8\u0ccd\u0ca4\u0cc6 \u0ce7\u0ca8\u0cc7 \u0c85\u0ca1\u0ccd\u0ca1", "public_transport": "platform"}}, {"type": "node", "id": 249087970, "lat": 12.9723865, "lon": 77.5821246, "tags": {"alt_name": "Cauvery Bhavana", "bench": "yes", "bin": "no", "bus": "yes", "covered": "yes", "highway": "bus_stop", "name": "Mysore Bank", "name:en": "Mysore Bank", "name:kn": "\u0cae\u0cc8\u0cb8\u0cc2\u0cb0\u0cc1 \u0cac\u0ccd\u0caf\u0cbe\u0c82\u0c95\u0ccd", "network": "BMTC", "network:wikidata": "Q3345039", "operator": "BMTC", "platforms": "3", "public_transport": "platform", "shelter": "yes"}}, {"type": "node", "id": 249141343, "lat": 12.9531166, "lon": 77.5767721, "tags": {"bus": "yes", "highway": "bus_stop", "name": "Sajjan Rao Circle", "name:kn": "\u0cb8\u0c9c\u0ccd\u0c9c\u0ca8 \u0cb0\u0cbe\u0cb5 \u0cb5\u0cc3\u0ca4\u0ccd\u0ca4", "public_transport": "platform"}}, {"type": "node", "id": 249589952, "lat": 12.9560697, "lon": 77.546516, "tags": {"bus": "yes", "highway": "bus_stop", "name": "New Guddadahalli", "name:kn": "\u0cb9\u0cca\u0cb8 \u0c97\u0cc1\u0ca1\u0ccd\u0ca1\u0ca6\u0cb9\u0cb3\u0ccd\u0cb3\u0cbf", "public_transport": "platform"}}, {"type": "node", "id": 249776275, "lat": 12.9320356, "lon": 77.5675801, "tags": {"designation": "T. R. Nagar", "highway": "bus_stop", "loc_name": "T. R. Nagar", "name": "Thyagaraja Nagar", "name:kn": "\u0ca4\u0ccd\u0caf\u0cbe\u0c97\u0cb0\u0cbe\u0c9c\u0ca8\u0c97\u0cb0"}}, {"type": "node", "id": 249842964, "lat": 12.9198852, "lon": 77.569261, "tags": {"bus": "yes", "highway": "bus_stop", "loc_name": "BANASHANKRI 2ND STAGE", "name": "Kaveri Nagara", "name:kn": "\u0c95\u0cbe\u0cb5\u0cc7\u0cb0\u0cbf\u0ca8\u0c97\u0cb0", "public_transport": "platform", "wheelchair": "limited"}}, {"type": "node", "id": 303921150, "lat": 12.9291007, "lon": 77.5860389, "tags": {"bus": "yes", "name": "Jayanagara 4th Block", "name:en": "Jayanagara 4th Block", "network": "BMTC", "operator": "BMTC", "public_transport": "stop_position"}}, {"type": "node", "id": 308062834, "lat": 12.9324365, "lon": 77.5078417}, {"type": "node", "id": 308062836, "lat": 12.932968, "lon": 77.508526}, {"type": "node", "id": 308062839, "lat": 12.9333657, "lon": 77.5088648}, {"type": "node", "id": 308062840, "lat": 12.9338722, "lon": 77.5092485}, {"type": "node", "id": 308062841, "lat": 12.9341929, "lon": 77.509613}, {"type": "node", "id": 308062843, "lat": 12.9350588, "lon": 77.5107606}, {"type": "node", "id": 308062851, "lat": 12.9413253, "lon": 77.5212118, "tags": {"internet_access": "no", "name": "Nayandahalli", "name:kn": "\u0ca8\u0cbe\u0caf\u0c82\u0ca1\u0cb9\u0cb3\u0ccd\u0cb3\u0cbf", "name:ml": "\u0d28\u0d3e\u0d2f\u0d23\u0d4d\u0d1f\u0d39\u0d33\u0d4d\u0d33\u0d3f", "network": "IR", "operator": "SWR", "platforms": "3", "public_transport": "station", "railway": "station", "ref": "NYH", "wikidata": "Q55624883", "wikipedia": "en:Nayandahalli railway station"}}, {"type": "node", "id": 308062855, "lat": 12.9434513, "lon": 77.5242015}, {"type": "node", "id": 308062857, "lat": 12.9440625, "lon": 77.5250029}, {"type": "node", "id": 308062858, "lat": 12.9447304, "lon": 77.5256627}, {"type": "node", "id": 308062859, "lat": 12.9453392, "lon": 77.5261011}, {"type": "node", "id": 308062861, "lat": 12.9467227, "lon": 77.5268107}, {"type": "node", "id": 308062862, "lat": 12.9495604, "lon": 77.5287003}, {"type": "node", "id": 308062863, "lat": 12.9508904, "lon": 77.5296015}, {"type": "node", "id": 308062865, "lat": 12.9513848, "lon": 77.5301365}, {"type": "node", "id": 308062866, "lat": 12.9518744, "lon": 77.5309925}, {"type": "node", "id": 308062867, "lat": 12.9522509, "lon": 77.53182}, {"type": "node", "id": 308062868, "lat": 12.9524329, "lon": 77.5325019}, {"type": "node", "id": 308062870, "lat": 12.9526979, "lon": 77.533548}, {"type": "node", "id": 308062871, "lat": 12.9529125, "lon": 77.5341115}, {"type": "node", "id": 308062874, "lat": 12.9534433, "lon": 77.5350912}, {"type": "node", "id": 308062876, "lat": 12.9537852, "lon": 77.535533}, {"type": "node", "id": 308062878, "lat": 12.9550651, "lon": 77.5367038}, {"type": "node", "id": 308062882, "lat": 12.9593807, "lon": 77.5404251}, {"type": "node", "id": 308062885, "lat": 12.9598574, "lon": 77.54079}, {"type": "node", "id": 308062887, "lat": 12.963502, "lon": 77.5433515}, {"type": "node", "id": 308062888, "lat": 12.9639108, "lon": 77.5436831}, {"type": "node", "id": 308062890, "lat": 12.9643069, "lon": 77.5443294}, {"type": "node", "id": 308062891, "lat": 12.9643894, "lon": 77.544708}, {"type": "node", "id": 308062893, "lat": 12.9643821, "lon": 77.5451625}, {"type": "node", "id": 308062894, "lat": 12.9643286, "lon": 77.5459229}, {"type": "node", "id": 308062895, "lat": 12.9644592, "lon": 77.5466207}, {"type": "node", "id": 308062897, "lat": 12.9649094, "lon": 77.547939}, {"type": "node", "id": 308062898, "lat": 12.9651578, "lon": 77.5484086}, {"type": "node", "id": 308062900, "lat": 12.9653554, "lon": 77.5487161}, {"type": "node", "id": 308062901, "lat": 12.9663014, "lon": 77.5499539}, {"type": "node", "id": 308062902, "lat": 12.9668849, "lon": 77.5504608}, {"type": "node", "id": 308062905, "lat": 12.9678558, "lon": 77.551349}, {"type": "node", "id": 308062907, "lat": 12.9682679, "lon": 77.5520776}, {"type": "node", "id": 308062908, "lat": 12.9684935, "lon": 77.5528779}, {"type": "node", "id": 308062910, "lat": 12.9692715, "lon": 77.5557711}, {"type": "node", "id": 308062911, "lat": 12.9694411, "lon": 77.5567449}, {"type": "node", "id": 308062913, "lat": 12.9693118, "lon": 77.5577867}, {"type": "node", "id": 308062914, "lat": 12.9691412, "lon": 77.558608}, {"type": "node", "id": 308062916, "lat": 12.9689205, "lon": 77.5595454}, {"type": "node", "id": 308062917, "lat": 12.9686102, "lon": 77.5601307}, {"type": "node", "id": 308062918, "lat": 12.9679911, "lon": 77.5608585}, {"type": "node", "id": 308062920, "lat": 12.9677951, "lon": 77.5610531}, {"type": "node", "id": 308062921, "lat": 12.9674105, "lon": 77.5615781}, {"type": "node", "id": 308062923, "lat": 12.967218, "lon": 77.5622562}, {"type": "node", "id": 308062924, "lat": 12.9673831, "lon": 77.5631428}, {"type": "node", "id": 308062926, "lat": 12.9675034, "lon": 77.5633732}, {"type": "node", "id": 308062927, "lat": 12.9678356, "lon": 77.5637463}, {"type": "node", "id": 308062930, "lat": 12.9719349, "lon": 77.566844}, {"type": "node", "id": 308062934, "lat": 12.9734552, "lon": 77.5674866}, {"type": "node", "id": 308062945, "lat": 12.9788685, "lon": 77.5687341}, {"type": "node", "id": 308062949, "lat": 12.979622, "lon": 77.5690191}, {"type": "node", "id": 308063055, "lat": 12.9764305, "lon": 77.5675289}, {"type": "node", "id": 308063059, "lat": 12.9804831, "lon": 77.5683313}, {"type": "node", "id": 308063061, "lat": 12.9808806, "lon": 77.5684625}, {"type": "node", "id": 308063067, "lat": 12.9838632, "lon": 77.5694883}, {"type": "node", "id": 308063070, "lat": 12.9855298, "lon": 77.5700748}, {"type": "node", "id": 308063257, "lat": 12.9799167, "lon": 77.5681776}, {"type": "node", "id": 308063845, "lat": 12.9581731, "lon": 77.5269422, "tags": {"bus": "yes", "highway": "bus_stop", "name": "Chandra Layout", "name:kn": "\u0c9a\u0c82\u0ca6\u0ccd\u0cb0\u0cbe \u0cb2\u0cc7\u0c94\u0c9f\u0ccd", "public_transport": "platform"}}, {"type": "node", "id": 308063850, "lat": 12.9593821, "lon": 77.5217937, "tags": {"bus": "yes", "highway": "bus_stop", "name": "Jyothi Nagara", "name:en": "Jyothi Nagara", "name:kn": "\u0c9c\u0ccd\u0caf\u0ccb\u0ca4\u0cbf\u0ca8\u0c97\u0cb0", "network": "BMTC", "operator": "BMTC", "public_transport": "platform"}}, {"type": "node", "id": 308063952, "lat": 12.9488494, "lon": 77.5110793, "tags": {"highway": "bus_stop", "loc_name": "BANGALORE UNIVERSITY", "name": "Gandhi Bhavan", "name:kn": "\u0c97\u0cbe\u0c82\u0ca7\u0cbf \u0cad\u0cb5\u0ca8"}}, {"type": "node", "id": 308065331, "lat": 12.9593813, "lon": 77.5167128, "tags": {"bench": "yes", "covered": "yes", "highway": "bus_stop", "loc_name": "Outer Ring Road", "name": "Nagarabhavi Village", "name:en": "Nagarabhavi Village", "name:kn": "\u0ca8\u0cbe\u0c97\u0cb0\u0cad\u0cbe\u0cb5\u0cbf \u0c97\u0ccd\u0cb0\u0cbe\u0cae", "network": "BMTC", "operator": "BMTC", "public_transport": "platform", "shelter": "yes"}}, {"type": "node", "id": 308069202, "lat": 12.9838135, "lon": 77.5292847, "tags": {"highway": "bus_stop", "name": "Kamakshipalya", "name:kn": "\u0c95\u0cbe\u0cae\u0cbe\u0c95\u0ccd\u0cb7\u0cbf\u0caa\u0cbe\u0cb3\u0ccd\u0caf"}}, {"type": "node", "id": 308232640, "lat": 12.9611192, "lon": 77.5332043, "tags": {"alt_name": "Bunts Sangha", "bus": "yes", "name": "Income Tax Layout", "name:en": "Income Tax Layout", "network": "BMTC", "operator": "BMTC", "public_transport": "stop_position"}}, {"type": "node", "id": 308232838, "lat": 12.9718716, "lon": 77.5375885, "tags": {"bench": "yes", "bus": "yes", "covered": "yes", "name": "Vijayanagara", "name:kn": "\u0cb5\u0cbf\u0c9c\u0caf\u0ca8\u0c97\u0cb0", "network": "BMTC", "operator": "BMTC", "public_transport": "platform", "shelter": "yes"}}, {"type": "node", "id": 308809874, "lat": 12.9336915, "lon": 77.583999, "tags": {"bus": "yes", "highway": "bus_stop", "name": "3rd Block Jayanagara", "name:en": "3rd Block Jayanagara", "name:kn": "\u0c9c\u0caf\u0ca8\u0c97\u0cb0 \u0ce9\u0ca8\u0cc7 \u0cac\u0ca1\u0cbe\u0cb5\u0ca3\u0cc6", "network": "BMTC", "network:wikidata": "Q3345039", "operator": "BMTC", "public_transport": "platform"}}, {"type": "node", "id": 320647365, "lat": 12.9642064, "lon": 77.5768931, "tags": {"bus": "yes", "crossing": "uncontrolled", "highway": "traffic_signals", "name": "KR Market", "name:en": "Krishnarajendra Market", "name:kn": "\u0c95\u0cc3\u0cb7\u0ccd\u0ca3\u0cb0\u0cbe\u0c9c\u0cc7\u0c82\u0ca6\u0ccd\u0cb0 \u0cae\u0cbe\u0cb0\u0cc1\u0c95\u0c9f\u0ccd\u0c9f\u0cc6", "network": "BMTC", "operator": "BMTC", "public_transport": "stop_position"}}, {"type": "node", "id": 347295366, "lat": 12.9806491, "lon": 77.5698574}, {"type": "node", "id": 347295369, "lat": 12.9802527, "lon": 77.5696615}, {"type": "node", "id": 347295371, "lat": 12.9742111, "lon": 77.5682206, "tags": {"railway": "switch"}}, {"type": "node", "id": 347295376, "lat": 12.9737446, "lon": 77.5680648, "tags": {"railway": "switch"}}, {"type": "node", "id": 347295382, "lat": 12.9746665, "lon": 77.5684848, "tags": {"access": "private", "railway": "level_crossing"}}, {"type": "node", "id": 347295393, "lat": 12.9751527, "lon": 77.5686925}, {"type": "node", "id": 347295419, "lat": 12.9789493, "lon": 77.5684565}, {"type": "node", "id": 347295421, "lat": 12.9777143, "lon": 77.5682304}, {"type": "node", "id": 347295424, "lat": 12.9776985, "lon": 77.5683205}, {"type": "node", "id": 347295628, "lat": 12.9781831, "lon": 77.5717624, "tags": {"bus": "yes", "name": "Platform 28A", "operator": "BMTC", "public_transport": "stop_position"}}, {"type": "node", "id": 347295648, "lat": 12.9783665, "lon": 77.5730556, "tags": {"bus": "yes", "name": "Platform 23", "operator": "BMTC", "public_transport": "stop_position"}}, {"type": "node", "id": 347297131, "lat": 12.9813283, "lon": 77.5703047}, {"type": "node", "id": 347297132, "lat": 12.980993, "lon": 77.5701057}, {"type": "node", "id": 352902972, "lat": 12.9314985, "lon": 77.5063591, "tags": {"crossing:barrier": "full", "railway": "level_crossing"}}, {"type": "node", "id": 382803182, "lat": 12.9014849, "lon": 77.5734716, "tags": {"highway": "bus_stop", "loc_name": "Kanakapura Road", "name": "Jaraganahalli Cross"}}, {"type": "node", "id": 428851695, "lat": 12.9778231, "lon": 77.572453, "tags": {"amenity": "toilets", "wheelchair": "no"}}, {"type": "node", "id": 428858189, "lat": 12.9642026, "lon": 77.5771453}, {"type": "node", "id": 428858190, "lat": 12.9643703, "lon": 77.5773061}, {"type": "node", "id": 428858191, "lat": 12.9643779, "lon": 77.5776458}, {"type": "node", "id": 428858192, "lat": 12.9637586, "lon": 77.5784387}, {"type": "node", "id": 428858193, "lat": 12.9638058, "lon": 77.5781909}, {"type": "node", "id": 428858194, "lat": 12.9640574, "lon": 77.5776067}, {"type": "node", "id": 429286836, "lat": 12.9806131, "lon": 77.5581149, "tags": {"highway": "bus_stop", "loc_name": "RAJAJINAGARA", "name": "Gopalapura", "name:en": "Gopalapura", "name:kn": "\u0c97\u0cca\u0caa\u0cbe\u0cb2\u0caa\u0cc1\u0cb0", "network": "BMTC", "operator": "BMTC", "public_transport": "platform", "wheelchair": "limited"}}, {"type": "node", "id": 432841688, "lat": 12.9054878, "lon": 77.5627988, "tags": {"bench": "no", "bin": "no", "covered": "no", "highway": "bus_stop", "loc_name": "Kumaraswamy Layout", "name": "Kumaraswamy Layout Police Station", "name:en": "Kumaraswamy Layout Police Station", "name:kn": "\u0c95\u0cc1\u0cae\u0cbe\u0cb0\u0cb8\u0ccd\u0cb5\u0cbe\u0cae\u0cbf \u0cb2\u0cc7\u0c94\u0c9f\u0ccd \u0caa\u0ccb\u0cb2\u0cbf\u0cb8\u0ccd \u0cb8\u0ccd\u0c9f\u0cc7\u0cb6\u0ca8\u0ccd", "network": "BMTC", "operator": "BMTC", "passenger_information_display": "no", "public_transport": "platform", "shelter": "no"}}, {"type": "node", "id": 432841703, "lat": 12.8990521, "lon": 77.5578197, "tags": {"highway": "bus_stop", "name": "ISRO Layout", "name:kn": "\u0c87\u0cb8\u0ccd\u0cb0\u0ccb \u0cb2\u0cc7\u0c94\u0c9f\u0ccd"}}, {"type": "node", "id": 435245495, "lat": 12.9616771, "lon": 77.5770546}, {"type": "node", "id": 435245496, "lat": 12.96141, "lon": 77.5776405}, {"type": "node", "id": 435245497, "lat": 12.9599544, "lon": 77.5775868}, {"type": "node", "id": 435245498, "lat": 12.9593003, "lon": 77.5766607}, {"type": "node", "id": 435688194, "lat": 12.8950921, "lon": 77.5550909, "tags": {"bus": "yes", "highway": "bus_stop", "loc_name": "VASANTHAPUR", "name": "Pipeline Vasanthapura", "name:en": "Pipeline Vasanthapura", "name:kn": "\u0caa\u0cc8\u0caa\u0ccd \u0cb2\u0cc8\u0ca8\u0ccd", "network": "BMTC", "operator": "BMTC", "public_transport": "platform"}}, {"type": "node", "id": 435688203, "lat": 12.8963443, "lon": 77.5524195, "tags": {"bus": "yes", "highway": "bus_stop", "name": "Vasanthapura", "name:en": "Vasanthapura", "name:kn": "\u0cb5\u0cb8\u0c82\u0ca4\u0caa\u0cc1\u0cb0", "network": "BMTC", "operator": "BMTC", "public_transport": "platform"}}, {"type": "node", "id": 435688212, "lat": 12.8964116, "lon": 77.5483851, "tags": {"highway": "bus_stop", "name": "Yadalam Nagara", "name:en": "Yadalam Nagara", "network": "BMTC", "operator": "BMTC", "public_transport": "platform"}}, {"type": "node", "id": 435688218, "lat": 12.8975842, "lon": 77.5464565, "tags": {"alt_name": "Subramanyapura Co-operative Society", "highway": "bus_stop", "name": "Subramanyapura KEB", "name:en": "Subramanyapura KEB", "network": "BMTC", "operator": "BMTC", "public_transport": "platform"}}, {"type": "node", "id": 435688219, "lat": 12.8976193, "lon": 77.5463589, "tags": {"bus": "yes", "name": "Subramanyapura KEB", "name:en": "Subramanyapura KEB", "name:kn": "\u0cb8\u0cc1\u0cac\u0ccd\u0cb0\u0cae\u0ca3\u0ccd\u0caf\u0caa\u0cc1\u0cb0", "network": "BMTC", "operator": "BMTC", "public_transport": "stop_position"}}, {"type": "node", "id": 435688236, "lat": 12.9049372, "lon": 77.5434901, "tags": {"highway": "bus_stop", "name": "Utharahalli", "name:kn": "\u0c89\u0ca4\u0ccd\u0ca4\u0cb0\u0cb9\u0cb3\u0ccd\u0cb3\u0cbf"}}, {"type": "node", "id": 446892457, "lat": 12.9576043, "lon": 77.5234322, "tags": {"highway": "bus_stop", "name": "Jyothi Nagara 6th Cross"}}, {"type": "node", "id": 447078372, "lat": 12.984718, "lon": 77.5569509, "tags": {"alt_name": "Rajajinagar Entrance", "bus": "yes", "highway": "bus_stop", "loc_name": "RAJAJI NAGARA", "name": "MEI Polytechnic College", "public_transport": "platform", "wheelchair": "limited"}}, {"type": "node", "id": 448117694, "lat": 12.9601434, "lon": 77.5549629, "tags": {"bus": "yes", "highway": "bus_stop", "loc_name": "HALEGUDDADAHALLI", "name": "Old Gudahalli Cross", "public_transport": "platform"}}, {"type": "node", "id": 456132248, "lat": 12.9672436, "lon": 77.5627322}, {"type": "node", "id": 456132253, "lat": 12.9673096, "lon": 77.5618136}, {"type": "node", "id": 456132306, "lat": 12.9756557, "lon": 77.5689986, "tags": {"railway": "buffer_stop"}}, {"type": "node", "id": 456132308, "lat": 12.9764877, "lon": 77.5689709}, {"type": "node", "id": 456132314, "lat": 12.9753834, "lon": 77.5680151}, {"type": "node", "id": 456132318, "lat": 12.9756331, "lon": 77.5680463}, {"type": "node", "id": 456132321, "lat": 12.9762807, "lon": 77.5681452}, {"type": "node", "id": 456132324, "lat": 12.9786031, "lon": 77.5687062}, {"type": "node", "id": 456132329, "lat": 12.9792246, "lon": 77.5688956}, {"type": "node", "id": 456132334, "lat": 12.9811831, "lon": 77.5701646}, {"type": "node", "id": 456132346, "lat": 12.9738419, "lon": 77.5675489}, {"type": "node", "id": 456132351, "lat": 12.9729289, "lon": 77.5673222}, {"type": "node", "id": 456132353, "lat": 12.9717536, "lon": 77.566739}, {"type": "node", "id": 456132357, "lat": 12.9813546, "lon": 77.5687312}, {"type": "node", "id": 456132363, "lat": 12.9806573, "lon": 77.5685173}, {"type": "node", "id": 456132365, "lat": 12.9802191, "lon": 77.5683989}, {"type": "node", "id": 456132366, "lat": 12.9794374, "lon": 77.5682372}, {"type": "node", "id": 456132368, "lat": 12.9769142, "lon": 77.5677949}, {"type": "node", "id": 456132370, "lat": 12.9763578, "lon": 77.5677093, "tags": {"railway": "switch"}}, {"type": "node", "id": 456132380, "lat": 12.9752363, "lon": 77.5679633}, {"type": "node", "id": 456132383, "lat": 12.9743354, "lon": 77.5681783, "tags": {"railway": "switch"}}, {"type": "node", "id": 456132384, "lat": 12.9747279, "lon": 77.568318, "tags": {"railway": "level_crossing"}}, {"type": "node", "id": 456132385, "lat": 12.9753907, "lon": 77.5685351}, {"type": "node", "id": 456132386, "lat": 12.9756448, "lon": 77.5685892}, {"type": "node", "id": 456132387, "lat": 12.9794409, "lon": 77.5692874}, {"type": "node", "id": 456132388, "lat": 12.9797806, "lon": 77.5693777}, {"type": "node", "id": 456132391, "lat": 12.9796427, "lon": 77.5692649}, {"type": "node", "id": 456132393, "lat": 12.9794011, "lon": 77.5692085}, {"type": "node", "id": 456132395, "lat": 12.9775453, "lon": 77.5687679}, {"type": "node", "id": 456132398, "lat": 12.9749176, "lon": 77.568282}, {"type": "node", "id": 456132405, "lat": 12.9796253, "lon": 77.5690652}, {"type": "node", "id": 456132412, "lat": 12.974514, "lon": 77.5669052, "tags": {"railway": "buffer_stop"}}, {"type": "node", "id": 456132413, "lat": 12.9797921, "lon": 77.5679042}, {"type": "node", "id": 456132414, "lat": 12.9805606, "lon": 77.5681759, "tags": {"railway": "switch"}}, {"type": "node", "id": 456132415, "lat": 12.9819602, "lon": 77.5688573, "tags": {"railway": "switch"}}, {"type": "node", "id": 456132429, "lat": 12.9809316, "lon": 77.5683337, "tags": {"railway": "switch"}}, {"type": "node", "id": 457966789, "lat": 12.9415222, "lon": 77.5157036, "tags": {"highway": "bus_stop", "loc_name": "BANGALORE UNIVERSITY", "name": "Sports Authority of India"}}, {"type": "node", "id": 458134628, "lat": 12.9618378, "lon": 77.5216743, "tags": {"bench": "yes", "bus": "yes", "covered": "yes", "highway": "bus_stop", "loc_name": "MARUTHI NAGARA", "name": "Maruthi Nagara", "name:en": "Maruthi Nagara", "name:kn": "\u0cae\u0cbe\u0cb0\u0cc1\u0ca4\u0cbf \u0ca8\u0c97\u0cb0", "network": "BMTC", "operator": "BMTC", "public_transport": "platform", "shelter": "yes"}}, {"type": "node", "id": 458151712, "lat": 12.9736313, "lon": 77.5302829, "tags": {"bus": "yes", "highway": "bus_stop", "loc_name": "Vijayanagara", "name": "Saraswathi Nagara", "name:kn": "\u0cb8\u0cb0\u0cb8\u0ccd\u0cb5\u0ca4\u0cbf \u0ca8\u0c97\u0cb0", "public_transport": "platform"}}, {"type": "node", "id": 493514791, "lat": 12.9282578, "lon": 77.5849537}, {"type": "node", "id": 493514792, "lat": 12.9284249, "lon": 77.584066}, {"type": "node", "id": 493514793, "lat": 12.9279706, "lon": 77.5836709}, {"type": "node", "id": 493556432, "lat": 12.9176076, "lon": 77.5774567, "tags": {"bus": "yes", "name": "Sangam Circle", "name:en": "Sangam Circle", "name:kn": "\u0cb8\u0c82\u0c97\u0cae \u0cb5\u0cc3\u0ca4\u0ccd\u0ca4", "network": "BMTC", "operator": "BMTC", "public_transport": "stop_position"}}, {"type": "node", "id": 493556458, "lat": 12.91767, "lon": 77.5774638, "tags": {"bus": "yes", "highway": "bus_stop", "name": "Sangam Circle", "name:en": "Sangam Circle", "name:kn": "\u0cb8\u0c82\u0c97\u0cae \u0cb5\u0cc3\u0ca4\u0ccd\u0ca4", "network": "BMTC", "operator": "BMTC", "public_transport": "platform"}}, {"type": "node", "id": 517874467, "lat": 12.9530434, "lon": 77.5737413, "tags": {"highway": "bus_stop", "name": "Mahila Samaja", "name:kn": "\u0cae\u0cb9\u0cbf\u0cb3\u0cbe \u0cb8\u0cae\u0cbe\u0c9c"}}, {"type": "node", "id": 560642468, "lat": 12.9364154, "lon": 77.518236, "tags": {"highway": "traffic_signals", "name": "Rajarajeshwarinagara Gate", "name:en": "Rajarajeshwarinagara Gate", "name:kn": "\u0cb0\u0cbe\u0c9c\u0cb0\u0cbe\u0c9c\u0cc7\u0cb6\u0ccd\u0cb5\u0cb0\u0cbf \u0ca8\u0c97\u0cb0 \u0ca6\u0ccd\u0cb5\u0cbe\u0cb0", "network": "BMTC", "operator": "BMTC", "traffic_signals": "signal"}}, {"type": "node", "id": 568278367, "lat": 12.9876916, "lon": 77.5777773}, {"type": "node", "id": 568278436, "lat": 12.9845888, "lon": 77.5753929}, {"type": "node", "id": 568344350, "lat": 12.9744489, "lon": 77.5487278}, {"type": "node", "id": 568344356, "lat": 12.9743179, "lon": 77.5475645}, {"type": "node", "id": 568344479, "lat": 12.9779727, "lon": 77.5911088, "tags": {"code": "VDSA", "local_ref": "2", "name": "Dr. B. R. Ambedkar Station, Vidhana Soudha", "name:etymology:wikidata": "Q231690", "name:kn": "\u0cb5\u0cbf\u0ca7\u0cbe\u0ca8 \u0cb8\u0ccc\u0ca7", "network": "Namma Metro", "note": "Contributors are requested to not edit the \"network\" and the \"operator\" tags. (2023/11/08)", "operator": "Bangalore Metro Rail Corporation Limited", "public_transport": "stop_position", "public_transport:version": "2", "railway": "stop", "source": "http://www.bmrc.co.in/English/Network.htm", "subway": "yes", "to": "Challaghatta", "wheelchair": "yes"}}, {"type": "node", "id": 568344482, "lat": 12.9776261, "lon": 77.5906246}, {"type": "node", "id": 568344486, "lat": 12.9774668, "lon": 77.5903103}, {"type": "node", "id": 568344489, "lat": 12.9730134, "lon": 77.5815531}, {"type": "node", "id": 568344493, "lat": 12.9729807, "lon": 77.5811489}, {"type": "node", "id": 568344496, "lat": 12.9733066, "lon": 77.5803872}, {"type": "node", "id": 568344522, "lat": 12.9758317, "lon": 77.5651602}, {"type": "node", "id": 568344536, "lat": 12.9749216, "lon": 77.5522132}, {"type": "node", "id": 568344674, "lat": 12.9741757, "lon": 77.5445572}, {"type": "node", "id": 568344675, "lat": 12.9741358, "lon": 77.5440739}, {"type": "node", "id": 568344676, "lat": 12.9732386, "lon": 77.5394049}, {"type": "node", "id": 568344677, "lat": 12.9730979, "lon": 77.5389007}, {"type": "node", "id": 568344678, "lat": 12.9725915, "lon": 77.5382076}, {"type": "node", "id": 568344679, "lat": 12.972, "lon": 77.5378241}, {"type": "node", "id": 568344680, "lat": 12.9688614, "lon": 77.5367153}, {"type": "node", "id": 568344749, "lat": 12.965844, "lon": 77.5353741}, {"type": "node", "id": 568344750, "lat": 12.9612203, "lon": 77.5333598}, {"type": "node", "id": 568344775, "lat": 12.9605831, "lon": 77.5331364}, {"type": "node", "id": 568344776, "lat": 12.960157, "lon": 77.5330913}, {"type": "node", "id": 568344777, "lat": 12.9575852, "lon": 77.534128}, {"type": "node", "id": 568345044, "lat": 12.9557194, "lon": 77.5346636}, {"type": "node", "id": 568345045, "lat": 12.955013, "lon": 77.5349689}, {"type": "node", "id": 568345046, "lat": 12.9535492, "lon": 77.5364109}, {"type": "node", "id": 568345184, "lat": 12.9520466, "lon": 77.5370399, "tags": {"code": "DJNR", "name": "Deepanjali Nagar", "name:kn": "\u0ca6\u0cc0\u0caa\u0cbe\u0c82\u0c9c\u0cb2\u0cbf \u0ca8\u0c97\u0cb0", "network": "Namma Metro", "note": "Contributors are requested to not edit the \"network\" and the \"operator\" tags. (2023/11/08)", "operator": "Bangalore Metro Rail Corporation Limited", "platforms": "2", "public_transport": "stop_position", "public_transport:version": "2", "railway": "stop", "source": "http://www.bmrc.co.in/English/Network.htm", "subway": "yes", "wheelchair": "yes", "wikidata": "Q39046388", "wikipedia": "en:Deepanjali Nagar metro station"}}, {"type": "node", "id": 568345185, "lat": 12.951556, "lon": 77.5372034}, {"type": "node", "id": 568345211, "lat": 12.9500166, "lon": 77.5371611}, {"type": "node", "id": 568345218, "lat": 12.9491907, "lon": 77.536344}, {"type": "node", "id": 568345231, "lat": 12.948934, "lon": 77.5360304}, {"type": "node", "id": 568345244, "lat": 12.9482851, "lon": 77.5349885}, {"type": "node", "id": 568345254, "lat": 12.9475653, "lon": 77.5326658}, {"type": "node", "id": 568345526, "lat": 12.9466619, "lon": 77.5300896, "tags": {"code": "MYRD", "name": "Mysore Road", "name:kn": "\u0cae\u0cc8\u0cb8\u0cc2\u0cb0\u0cc1 \u0cb0\u0cb8\u0ccd\u0ca4\u0cc6", "name:ta": "\u0bae\u0bc8\u0b9a\u0bc2\u0bb0\u0bcd \u0b9a\u0bbe\u0bb2\u0bc8", "network": "Namma Metro", "note": "Contributors are requested to not edit the \"network\" and the \"operator\" tags. (2023/11/08)", "operator": "Bangalore Metro Rail Corporation Limited", "public_transport": "stop_position", "public_transport:version": "2", "railway": "stop", "source": "http://www.bmrc.co.in/English/Network.htm", "subway": "yes", "wheelchair": "yes", "wikidata": "Q23838580", "wikipedia": "en:Mysore Road metro station"}}, {"type": "node", "id": 568348158, "lat": 12.9692985, "lon": 77.5747008}, {"type": "node", "id": 568348163, "lat": 12.9559439, "lon": 77.5736692}, {"type": "node", "id": 568351331, "lat": 12.9494821, "lon": 77.5737242}, {"type": "node", "id": 568351335, "lat": 12.9485442, "lon": 77.5743602}, {"type": "node", "id": 568351337, "lat": 12.9483066, "lon": 77.5789767}, {"type": "node", "id": 568351340, "lat": 12.9480478, "lon": 77.5796115}, {"type": "node", "id": 568351342, "lat": 12.9475898, "lon": 77.5799532}, {"type": "node", "id": 568351345, "lat": 12.938262, "lon": 77.5800772, "tags": {"code": "SECE", "name": "South End Circle", "name:kn": "\u0ca4\u0cbf.\u0ca8\u0c82.\u0cb6\u0ccd\u0cb0\u0cc0 \u0cb5\u0cc3\u0ca4\u0ccd\u0ca4", "network": "Namma Metro", "note": "Contributors are requested to not edit the \"network\" and the \"operator\" tags. (2023/11/08)", "operator": "Bangalore Metro Rail Corporation Limited", "public_transport": "stop_position", "public_transport:version": "2", "railway": "stop", "source": "http://www.bmrc.co.in/English/Network.htm", "subway": "yes", "wheelchair": "yes"}}, {"type": "node", "id": 568351351, "lat": 12.9359696, "lon": 77.5800942}, {"type": "node", "id": 568360597, "lat": 12.9834986, "lon": 77.5720037}, {"type": "node", "id": 568360598, "lat": 12.9817925, "lon": 77.5719563}, {"type": "node", "id": 570758311, "lat": 12.9811205, "lon": 77.5702186}, {"type": "node", "id": 570758312, "lat": 12.9812722, "lon": 77.5703532}, {"type": "node", "id": 617540170, "lat": 12.9378692, "lon": 77.533544, "tags": {"highway": "bus_stop", "name": "Veerabhadra Nagara", "name:en": "Veerabhadra Nagara", "name:kn": "\u0cb5\u0cc0\u0cb0\u0cad\u0ca6\u0ccd\u0cb0 \u0ca8\u0c97\u0cb0", "network": "BMTC", "operator": "BMTC", "public_transport": "platform"}}, {"type": "node", "id": 663551360, "lat": 12.9750422, "lon": 77.5851813}, {"type": "node", "id": 679993205, "lat": 12.9803456, "lon": 77.5707614}, {"type": "node", "id": 679993208, "lat": 12.9764103, "lon": 77.5671709}, {"type": "node", "id": 679993213, "lat": 12.9786583, "lon": 77.5707888}, {"type": "node", "id": 679993222, "lat": 12.9803055, "lon": 77.5678384}, {"type": "node", "id": 679993231, "lat": 12.9703848, "lon": 77.5670875}, {"type": "node", "id": 679993240, "lat": 12.9753968, "lon": 77.5699253}, {"type": "node", "id": 679993246, "lat": 12.9804132, "lon": 77.5697568}, {"type": "node", "id": 679993254, "lat": 12.9774771, "lon": 77.5699495}, {"type": "node", "id": 679993255, "lat": 12.9703104, "lon": 77.5680602}, {"type": "node", "id": 679993258, "lat": 12.9692339, "lon": 77.5673376}, {"type": "node", "id": 679993274, "lat": 12.9720942, "lon": 77.5672008}, {"type": "node", "id": 679993282, "lat": 12.9739741, "lon": 77.5669774}, {"type": "node", "id": 679993283, "lat": 12.9806426, "lon": 77.5698746}, {"type": "node", "id": 679993287, "lat": 12.979836, "lon": 77.5709365}, {"type": "node", "id": 679993292, "lat": 12.9796968, "lon": 77.5695279}, {"type": "node", "id": 679993294, "lat": 12.9797775, "lon": 77.5678062}, {"type": "node", "id": 679993298, "lat": 12.9689563, "lon": 77.5674974}, {"type": "node", "id": 679993307, "lat": 12.9727533, "lon": 77.5670849}, {"type": "node", "id": 679993314, "lat": 12.9772722, "lon": 77.5707335}, {"type": "node", "id": 679993316, "lat": 12.9708114, "lon": 77.5681852}, {"type": "node", "id": 679993319, "lat": 12.9813511, "lon": 77.5682175}, {"type": "node", "id": 679993326, "lat": 12.9823273, "lon": 77.568213}, {"type": "node", "id": 679993330, "lat": 12.9758317, "lon": 77.5688735}, {"type": "node", "id": 679993332, "lat": 12.971969, "lon": 77.5675147}, {"type": "node", "id": 679993340, "lat": 12.9800865, "lon": 77.5708531}, {"type": "node", "id": 679993343, "lat": 12.9799517, "lon": 77.5695894}, {"type": "node", "id": 679993363, "lat": 12.968936, "lon": 77.5679768}, {"type": "node", "id": 679993369, "lat": 12.9702156, "lon": 77.5673932}, {"type": "node", "id": 680016075, "lat": 12.9747469, "lon": 77.5683433, "tags": {"noexit": "yes"}}, {"type": "node", "id": 680016078, "lat": 12.9792479, "lon": 77.5688628}, {"type": "node", "id": 680016081, "lat": 12.9786141, "lon": 77.5683023}, {"type": "node", "id": 680016082, "lat": 12.9758504, "lon": 77.5688224}, {"type": "node", "id": 680016085, "lat": 12.9792993, "lon": 77.5692728}, {"type": "node", "id": 680016087, "lat": 12.9756033, "lon": 77.5686002}, {"type": "node", "id": 680016090, "lat": 12.9798707, "lon": 77.5688961}, {"type": "node", "id": 680016093, "lat": 12.9759215, "lon": 77.5678211}, {"type": "node", "id": 680016094, "lat": 12.979254, "lon": 77.5688483}, {"type": "node", "id": 680016097, "lat": 12.9793645, "lon": 77.5685851}, {"type": "node", "id": 680016100, "lat": 12.9800754, "lon": 77.5695385}, {"type": "node", "id": 680016102, "lat": 12.9805774, "lon": 77.5697507, "tags": {"railway": "switch"}}, {"type": "node", "id": 680016109, "lat": 12.9762212, "lon": 77.5678509}, {"type": "node", "id": 680016110, "lat": 12.9751643, "lon": 77.568649}, {"type": "node", "id": 680016115, "lat": 12.9753944, "lon": 77.5685579}, {"type": "node", "id": 680016116, "lat": 12.9800495, "lon": 77.5692078, "tags": {"noexit": "yes"}}, {"type": "node", "id": 680016118, "lat": 12.9789504, "lon": 77.5684035}, {"type": "node", "id": 680016119, "lat": 12.9797802, "lon": 77.5694723}, {"type": "node", "id": 680016120, "lat": 12.9757231, "lon": 77.5679499}, {"type": "node", "id": 680016122, "lat": 12.9760086, "lon": 77.5678251}, {"type": "node", "id": 680016126, "lat": 12.9787262, "lon": 77.5686768}, {"type": "node", "id": 680018991, "lat": 12.9789558, "lon": 77.5683381}, {"type": "node", "id": 680018992, "lat": 12.9797349, "lon": 77.5683191}, {"type": "node", "id": 680018994, "lat": 12.9804471, "lon": 77.5684176}, {"type": "node", "id": 680018996, "lat": 12.9762521, "lon": 77.5675229}, {"type": "node", "id": 680019000, "lat": 12.9794144, "lon": 77.5685144}, {"type": "node", "id": 680019001, "lat": 12.9799769, "lon": 77.5688935}, {"type": "node", "id": 680019004, "lat": 12.97893, "lon": 77.5682995}, {"type": "node", "id": 680019007, "lat": 12.9800443, "lon": 77.5682263}, {"type": "node", "id": 680019011, "lat": 12.9803097, "lon": 77.5684411}, {"type": "node", "id": 680019014, "lat": 12.9800238, "lon": 77.5682876}, {"type": "node", "id": 680019015, "lat": 12.9794438, "lon": 77.5681923}, {"type": "node", "id": 680019018, "lat": 12.9761546, "lon": 77.5677717}, {"type": "node", "id": 680019020, "lat": 12.9793231, "lon": 77.5684922}, {"type": "node", "id": 680019021, "lat": 12.9767138, "lon": 77.5677855}, {"type": "node", "id": 680019024, "lat": 12.9761699, "lon": 77.5676004}, {"type": "node", "id": 680019025, "lat": 12.9785288, "lon": 77.5681943}, {"type": "node", "id": 680019030, "lat": 12.9764834, "lon": 77.5675555}, {"type": "node", "id": 680019031, "lat": 12.9758796, "lon": 77.5675277}, {"type": "node", "id": 680019034, "lat": 12.9808257, "lon": 77.5685895}, {"type": "node", "id": 680019036, "lat": 12.9799804, "lon": 77.5688734}, {"type": "node", "id": 680019038, "lat": 12.9767684, "lon": 77.5677074}, {"type": "node", "id": 680019039, "lat": 12.9762356, "lon": 77.5677658, "tags": {"noexit": "yes"}}, {"type": "node", "id": 680019041, "lat": 12.9808596, "lon": 77.5685462}, {"type": "node", "id": 680019045, "lat": 12.9763698, "lon": 77.5677274}, {"type": "node", "id": 683067632, "lat": 12.9586322, "lon": 77.5354185}, {"type": "node", "id": 683067753, "lat": 12.9643631, "lon": 77.5462106}, {"type": "node", "id": 683067778, "lat": 12.9640303, "lon": 77.5438254}, {"type": "node", "id": 683067877, "lat": 12.9589697, "lon": 77.5357698}, {"type": "node", "id": 683352655, "lat": 12.9475769, "lon": 77.5801087, "tags": {"bench": "yes", "bus": "yes", "departures_board": "realtime", "highway": "bus_stop", "name": "Lalbagh West Gate, V V Puram", "name:en": "Lalbagh West Gate, V V Puram", "network": "BMTC", "network:wikidata": "Q3345039", "operator": "BMTC", "passenger_information_display": "yes", "public_transport": "platform", "shelter": "yes", "wheelchair": "limited"}}, {"type": "node", "id": 683352664, "lat": 12.9531016, "lon": 77.583614, "tags": {"highway": "bus_stop", "name": "Krumbigal Road", "name:en": "Krumbigal Road", "name:kn": "\u0c95\u0ccd\u0cb0\u0cc1\u0c82\u0cac\u0cbf\u0c97\u0cb2\u0ccd \u0cb0\u0cb8\u0ccd\u0ca4\u0cc6", "network": "BMTC", "operator": "BMTC", "public_transport": "platform"}}, {"type": "node", "id": 686220698, "lat": 12.9688356, "lon": 77.5597589}, {"type": "node", "id": 693261217, "lat": 12.9862556, "lon": 77.5767399}, {"type": "node", "id": 693261224, "lat": 12.9877165, "lon": 77.5777338}, {"type": "node", "id": 693274947, "lat": 12.9838962, "lon": 77.5734331}, {"type": "node", "id": 693274950, "lat": 12.9833853, "lon": 77.572532}, {"type": "node", "id": 693274951, "lat": 12.9843699, "lon": 77.5748591}, {"type": "node", "id": 693274953, "lat": 12.9836664, "lon": 77.573079}, {"type": "node", "id": 693274955, "lat": 12.9835844, "lon": 77.5728161}, {"type": "node", "id": 693274957, "lat": 12.9846431, "lon": 77.5753824}, {"type": "node", "id": 693274963, "lat": 12.9836938, "lon": 77.5729891}, {"type": "node", "id": 693274964, "lat": 12.9852127, "lon": 77.575985}, {"type": "node", "id": 693274966, "lat": 12.9839104, "lon": 77.5736092}, {"type": "node", "id": 693274968, "lat": 12.9843004, "lon": 77.5746788}, {"type": "node", "id": 693274970, "lat": 12.9829761, "lon": 77.5720428}, {"type": "node", "id": 693296245, "lat": 12.9855328, "lon": 77.5700243}, {"type": "node", "id": 693296256, "lat": 12.9838783, "lon": 77.5694525, "tags": {"railway": "switch"}}, {"type": "node", "id": 699559604, "lat": 12.9279169, "lon": 77.5838783}, {"type": "node", "id": 699576755, "lat": 12.917279, "lon": 77.5780173}, {"type": "node", "id": 699576758, "lat": 12.9170846, "lon": 77.5739711}, {"type": "node", "id": 699576761, "lat": 12.9023765, "lon": 77.5734387}, {"type": "node", "id": 699576762, "lat": 12.9131419, "lon": 77.5731936}, {"type": "node", "id": 699576766, "lat": 12.9171915, "lon": 77.5783373}, {"type": "node", "id": 699576767, "lat": 12.908955, "lon": 77.5729632}, {"type": "node", "id": 699576769, "lat": 12.9066441, "lon": 77.5732362}, {"type": "node", "id": 699576770, "lat": 12.917387, "lon": 77.5742651}, {"type": "node", "id": 699576774, "lat": 12.9034829, "lon": 77.5732659}, {"type": "node", "id": 699576775, "lat": 12.9147097, "lon": 77.5735324}, {"type": "node", "id": 699576782, "lat": 12.9110064, "lon": 77.5729032}, {"type": "node", "id": 699576783, "lat": 12.917148, "lon": 77.5788522}, {"type": "node", "id": 699576784, "lat": 12.8960361, "lon": 77.57014, "tags": {"alt_name": "Puttenahalli", "code": "PUTH", "name": "Yelachenahalli", "name:kn": "\u0caa\u0cc1\u0c9f\u0ccd\u0c9f\u0cc7\u0ca8\u0cb9\u0cb3\u0ccd\u0cb3\u0cbf", "network": "Namma Metro", "note": "Contributors are requested to not edit the \"network\" and the \"operator\" tags. (2023/11/08)", "operator": "Bangalore Metro Rail Corporation Limited", "public_transport": "stop_position", "public_transport:version": "2", "railway": "stop", "source": "http://www.bmrc.co.in/English/Network.htm", "subway": "yes", "wheelchair": "yes"}}, {"type": "node", "id": 699576789, "lat": 12.9176263, "lon": 77.5749269}, {"type": "node", "id": 699576793, "lat": 12.9175082, "lon": 77.5774272}, {"type": "node", "id": 699576795, "lat": 12.9175923, "lon": 77.5768943}, {"type": "node", "id": 699576797, "lat": 12.9053055, "lon": 77.5733704}, {"type": "node", "id": 699576798, "lat": 12.9174423, "lon": 77.5799101}, {"type": "node", "id": 699576799, "lat": 12.8996823, "lon": 77.5729151}, {"type": "node", "id": 699576801, "lat": 12.9168967, "lon": 77.5738819}, {"type": "node", "id": 699576802, "lat": 12.908457, "lon": 77.5730029}, {"type": "node", "id": 699576805, "lat": 12.9174354, "lon": 77.5776311}, {"type": "node", "id": 699576807, "lat": 12.9011752, "lon": 77.5733542}, {"type": "node", "id": 699576808, "lat": 12.9126774, "lon": 77.5730428}, {"type": "node", "id": 699684222, "lat": 12.9470179, "lon": 77.5309019}, {"type": "node", "id": 699684277, "lat": 12.9398137, "lon": 77.5234553, "tags": {"alt_name": "Nayandahalli Quarters", "bench": "yes", "bus": "yes", "covered": "yes", "highway": "bus_stop", "loc_name": "Mysore Road", "name": "BWSSB Quarters", "name:en": "BWSSB Quarters", "network": "BMTC", "operator": "BMTC", "public_transport": "platform", "shelter": "yes"}}, {"type": "node", "id": 699684331, "lat": 12.9561513, "lon": 77.5461656, "tags": {"bus": "yes", "highway": "bus_stop", "name": "Hosa Guddadahalli", "name:kn": "\u0cb9\u0cca\u0cb8 \u0c97\u0cc1\u0ca1\u0ccd\u0ca1\u0ca6\u0cb9\u0cb3\u0ccd\u0cb3\u0cbf", "public_transport": "platform"}}, {"type": "node", "id": 699684333, "lat": 12.9436734, "lon": 77.5262824, "tags": {"bus": "yes", "highway": "bus_stop", "name": "Nayandahalli", "name:en": "Nayandahalli", "name:kn": "\u0ca8\u0cbe\u0caf\u0c82\u0ca1\u0cb9\u0cb3\u0ccd\u0cb3\u0cbf", "network": "BMTC", "operator": "BMTC", "public_transport": "platform"}}, {"type": "node", "id": 699694038, "lat": 12.9502855, "lon": 77.5372921}, {"type": "node", "id": 699704112, "lat": 12.9297858, "lon": 77.5056548, "tags": {"bus": "yes", "highway": "bus_stop", "name": "Jayaram Das Factory", "name:en": "Jayaram Das Factory", "network": "BMTC", "operator": "BMTC", "public_transport": "platform"}}, {"type": "node", "id": 699704227, "lat": 12.9253978, "lon": 77.4995421, "tags": {"bench": "yes", "bin": "yes", "bus": "yes", "covered": "yes", "highway": "bus_stop", "loc_name": "Mysore Road", "name": "RV College", "name:en": "RV College", "name:kn": "\u0c86\u0cb0\u0ccd \u0cb5\u0cbf \u0c95\u0cbe\u0cb2\u0cc7\u0c9c\u0cc1", "network": "BMTC", "operator": "BMTC", "public_transport": "platform", "shelter": "yes"}}, {"type": "node", "id": 733507095, "lat": 12.9384714, "lon": 77.5288048, "tags": {"highway": "bus_stop", "loc_name": "PRAMODHA LAYOUT", "name": "Anjaneya Temple", "name:kn": "\u0c86\u0c82\u0c9c\u0ca8\u0cc7\u0caf \u0ca6\u0cc7\u0cb5\u0cb8\u0ccd\u0ca5\u0cbe\u0ca8"}}, {"type": "node", "id": 806588782, "lat": 12.9783651, "lon": 77.5681771, "tags": {"name": "Bangalore City Junction", "name:kn": "\u0cac\u0cc6\u0c82\u0c97\u0cb3\u0cc2\u0cb0\u0cc1 \u0ca8\u0c97\u0cb0", "public_transport": "stop_position", "railway": "stop", "ref": "SBC:7", "train": "yes"}}, {"type": "node", "id": 806588784, "lat": 12.9782669, "lon": 77.5689394, "tags": {"name": "Bangalore City Junction", "name:kn": "\u0cac\u0cc6\u0c82\u0c97\u0cb3\u0cc2\u0cb0\u0cc1 \u0ca8\u0c97\u0cb0", "public_transport": "stop_position", "railway": "stop", "ref": "SBC:4", "train": "yes"}}, {"type": "node", "id": 806588786, "lat": 12.9783166, "lon": 77.5692242, "tags": {"name": "Bangalore City Junction", "name:kn": "\u0cac\u0cc6\u0c82\u0c97\u0cb3\u0cc2\u0cb0\u0cc1 \u0ca8\u0c97\u0cb0", "public_transport": "stop_position", "railway": "stop", "ref": "SBC:2", "train": "yes"}}, {"type": "node", "id": 806588787, "lat": 12.9783553, "lon": 77.5682244, "tags": {"name": "Bangalore City Junction", "public_transport": "stop_position", "railway": "stop", "ref": "SBC:6", "train": "yes"}}, {"type": "node", "id": 806588788, "lat": 12.9784008, "lon": 77.5678774, "tags": {"name": "Bangalore City Junction", "name:kn": "\u0cac\u0cc6\u0c82\u0c97\u0cb3\u0cc2\u0cb0\u0cc1 \u0ca8\u0c97\u0cb0", "public_transport": "stop_position", "railway": "stop", "ref": "SBC:10", "train": "yes"}}, {"type": "node", "id": 806588789, "lat": 12.9784045, "lon": 77.568007, "tags": {"name": "Bangalore City Junction", "name:kn": "\u0cac\u0cc6\u0c82\u0c97\u0cb3\u0cc2\u0cb0\u0cc1 \u0ca8\u0c97\u0cb0", "public_transport": "stop_position", "railway": "stop", "ref": "SBC:9", "train": "yes"}}, {"type": "node", "id": 806588796, "lat": 12.9783992, "lon": 77.568046, "tags": {"name": "Bangalore City Junction", "name:kn": "\u0cac\u0cc6\u0c82\u0c97\u0cb3\u0cc2\u0cb0\u0cc1 \u0ca8\u0c97\u0cb0 \u0cb0\u0cc8\u0cb2\u0cc1 \u0ca8\u0cbf\u0cb2\u0ccd\u0ca6\u0cbe\u0ca3", "public_transport": "stop_position", "railway": "stop", "ref": "SBC:8", "train": "yes"}}, {"type": "node", "id": 806588798, "lat": 12.9782835, "lon": 77.5685839, "tags": {"name": "Bangalore City Junction", "name:kn": "\u0cac\u0cc6\u0c82\u0c97\u0cb3\u0cc2\u0cb0\u0cc1 \u0ca8\u0c97\u0cb0", "public_transport": "stop_position", "railway": "stop", "ref": "SBC:5", "train": "yes"}}, {"type": "node", "id": 939097359, "lat": 12.9030228, "lon": 77.5617802}, {"type": "node", "id": 953638201, "lat": 12.9423156, "lon": 77.548584, "tags": {"bench": "no", "bus": "yes", "highway": "bus_stop", "name": "Muneshwara Block", "name:kn": "\u0cae\u0cc1\u0ca8\u0cc7\u0cb6\u0ccd\u0cb5\u0cb0 \u0cac\u0ccd\u0cb2\u0cbe\u0c95\u0ccd", "public_transport": "platform", "shelter": "no"}}, {"type": "node", "id": 953687118, "lat": 12.9326884, "lon": 77.5452951, "tags": {"highway": "bus_stop", "name": "Hosakerehalli Cross", "name:kn": "\u0cb9\u0cca\u0cb8\u0c95\u0cc6\u0cb0\u0cc6\u0cb9\u0cb3\u0ccd\u0cb3\u0cbf \u0c95\u0ccd\u0cb0\u0cbe\u0cb8\u0ccd"}}, {"type": "node", "id": 953688689, "lat": 12.9386882, "lon": 77.5535885, "tags": {"highway": "bus_stop", "name": "SBM Colony", "shelter": "yes"}}, {"type": "node", "id": 954610757, "lat": 12.941781, "lon": 77.5558894, "tags": {"alt_name": "Apex Bank,Banashankari 1St Stage Hanumantha Nagara", "highway": "bus_stop", "name": "Apex Bank", "name:en": "Apex Bank", "name:kn": "\u0c8f\u0caa\u0cc6\u0c95\u0ccd\u0cb8\u0ccd \u0cac\u0ccd\u0caf\u0cbe\u0c82\u0c95\u0ccd", "network": "BMTC", "operator": "BMTC", "public_transport": "platform"}}, {"type": "node", "id": 954619918, "lat": 12.9433335, "lon": 77.5581671, "tags": {"alt_name": "Maruthi Circle, Hanumantha Nagara", "bench": "yes", "covered": "yes", "highway": "bus_stop", "name": "Maruthi Circle", "name:en": "Maruthi Circle", "name:kn": "\u0cae\u0cbe\u0cb0\u0cc1\u0ca4\u0cbf \u0cb5\u0cc3\u0ca4\u0ccd\u0ca4", "network": "BMTC", "operator": "BMTC", "public_transport": "platform", "shelter": "yes"}}, {"type": "node", "id": 954620241, "lat": 12.9435401, "lon": 77.5618941, "tags": {"alt_name": "Sri Krishna Traders", "highway": "bus_stop", "name": "Subramanya Swamy Temple", "name:en": "Subramanya Swamy Temple", "name:kn": "\u0cb8\u0cc1\u0cac\u0ccd\u0cb0\u0cae\u0ca3\u0ccd\u0caf \u0cb8\u0ccd\u0cb5\u0cbe\u0cae\u0cbf \u0ca6\u0cc7\u0cb5\u0cb8\u0ccd\u0ca5\u0cbe\u0ca8", "network": "BMTC", "operator": "BMTC", "public_transport": "platform"}}, {"type": "node", "id": 954621288, "lat": 12.9437945, "lon": 77.5642273, "tags": {"highway": "bus_stop", "loc_name": "Hanumantha Nagara", "name": "Ganesha Bhavan", "name:en": "Ganesha Bhavan", "name:kn": "\u0c97\u0ca3\u0cc7\u0cb6 \u0cad\u0cb5\u0ca8", "network": "BMTC", "operator": "BMTC", "public_transport": "platform"}}, {"type": "node", "id": 954627609, "lat": 12.9432005, "lon": 77.5450571, "tags": {"highway": "bus_stop", "name": "Avalahalli Cross, Girinagar Cross"}}, {"type": "node", "id": 954627990, "lat": 12.9420196, "lon": 77.552003, "tags": {"bus": "yes", "highway": "bus_stop", "name": "Nagendra Block,Banashankari 3Rd Stage", "public_transport": "platform"}}, {"type": "node", "id": 1054687321, "lat": 12.9588588, "lon": 77.5167104, "tags": {"alt_name": "Manasa Nagara", "bin": "no", "bus": "yes", "departures_board": "no", "highway": "bus_stop", "loc_name": "Outer Ring Road", "name": "Nagarbhavi Village", "name:en": "Nagarbhavi Village", "name:kn": "\u0ca8\u0cbe\u0c97\u0cb0\u0cad\u0cbe\u0cb5\u0cbf \u0c97\u0ccd\u0cb0\u0cbe\u0cae", "network": "BMTC", "network:wikidata": "Q3345039", "network:wikipedia": "hi:\u092c\u0947\u0902\u0917\u0932\u094b\u0930 \u092e\u0939\u093e\u0928\u0917\u0930 \u092a\u0930\u093f\u0935\u0939\u0928 \u0928\u093f\u0917\u092e", "operator": "BMTC", "public_transport": "platform"}}, {"type": "node", "id": 1054687629, "lat": 12.9569358, "lon": 77.5161259, "tags": {"bus": "yes", "highway": "bus_stop", "name": "Nagarabhavi Village", "name:kn": "\u0ca8\u0cbe\u0c97\u0cb0\u0cad\u0cbe\u0cb5\u0cbf \u0c97\u0ccd\u0cb0\u0cbe\u0cae", "public_transport": "platform"}}, {"type": "node", "id": 1054687718, "lat": 12.947085, "lon": 77.5270139}, {"type": "node", "id": 1054687777, "lat": 12.9583156, "lon": 77.5093107, "tags": {"bus": "yes", "highway": "bus_stop", "loc_name": "N.G.E.F.LAYOUT", "name": "Nrupatunga Nagar", "name:kn": "\u0ca8\u0cc3\u0caa\u0ca4\u0cc1\u0c82\u0c97 \u0ca8\u0c97\u0cb0", "public_transport": "platform"}}, {"type": "node", "id": 1054687798, "lat": 12.9521436, "lon": 77.520418, "tags": {"bus": "yes", "highway": "bus_stop", "name": "Nagarabhavi 1st Stage 3rd Block", "name:en": "Nagarabhavi 1st Stage 3rd Block", "network": "BMTC", "operator": "BMTC", "public_transport": "platform"}}, {"type": "node", "id": 1054687802, "lat": 12.9516696, "lon": 77.5212224, "tags": {"bench": "yes", "bus": "yes", "covered": "yes", "highway": "bus_stop", "name": "Nagarabhavi 1st Stage 3rd Block", "name:en": "Nagarabhavi 1st Stage 3rd Block", "network": "BMTC", "operator": "BMTC", "public_transport": "platform", "shelter": "yes"}}, {"type": "node", "id": 1054687808, "lat": 12.9458104, "lon": 77.5263685}, {"type": "node", "id": 1070314207, "lat": 12.917235, "lon": 77.5738847, "tags": {"bus": "yes", "highway": "bus_stop", "name": "Banashankari TTMC", "public_transport": "platform"}}, {"type": "node", "id": 1070314214, "lat": 12.9166305, "lon": 77.5730685, "tags": {"highway": "bus_stop", "name": "Banashankari Bus Station (Towards Kadirenahalli)", "public_transport": "platform"}}, {"type": "node", "id": 1070314231, "lat": 12.9167244, "lon": 77.5738299}, {"type": "node", "id": 1070314236, "lat": 12.9175634, "lon": 77.5732782, "tags": {"bench": "yes", "bus": "yes", "fixme": "Parent relations need to be changed to include corresponding platform node in KBS", "highway": "bus_stop", "name": "Banashankari TTMC", "name:kn": "\u0cac\u0ca8\u0cb6\u0c82\u0c95\u0cb0\u0cbf", "network": "BMTC", "network:wikidata": "Q3345039", "operator": "BMTC", "public_transport": "platform", "shelter": "yes"}}, {"type": "node", "id": 1070314237, "lat": 12.9152186, "lon": 77.5736205, "tags": {"code": "BSNK", "name": "Banashankari", "name:kn": "\u0cac\u0ca8\u0cb6\u0c82\u0c95\u0cb0\u0cbf", "network": "Namma Metro", "note": "Contributors are requested to not edit the \"network\" and the \"operator\" tags. (2023/11/08)", "operator": "Bangalore Metro Rail Corporation Limited", "public_transport": "stop_position", "public_transport:version": "2", "railway": "stop", "source": "http://www.bmrc.co.in/English/Network.htm", "subway": "yes", "wheelchair": "yes"}}, {"type": "node", "id": 1085530276, "lat": 12.9643587, "lon": 77.5614856, "tags": {"alt_name": "Hopcoms", "bench": "yes", "bus": "yes", "covered": "yes", "highway": "bus_stop", "loc_name": "Binni Pete", "name": "Binnypet", "name:en": "Binnypet", "name:kn": "\u0cac\u0cbf\u0ca8\u0ccd\u0ca8\u0caa\u0cc7\u0c9f\u0cc6", "network": "BMTC", "operator": "BMTC", "public_transport": "platform", "shelter": "yes"}}, {"type": "node", "id": 1087823607, "lat": 12.9745014, "lon": 77.5842326, "tags": {"alt_name": "Central College", "code": "VSWA", "name": "Sir M. Visvesvaraya Stn., Central College", "name:kn": "\u0cb5\u0cbf\u0cb6\u0ccd\u0cb5\u0cc7\u0cb6\u0ccd\u0cb5\u0cb0\u0caf\u0ccd\u0caf", "network": "Namma Metro", "note": "Contributors are requested to not edit the \"network\" and the \"operator\" tags. (2023/11/08)", "operator": "Bangalore Metro Rail Corporation Limited", "platforms": "2", "public_transport": "stop_position", "public_transport:version": "2", "railway": "stop", "source": "http://www.bmrc.co.in/English/Network.htm", "subway": "yes", "wheelchair": "yes"}}, {"type": "node", "id": 1087824270, "lat": 12.9761897, "lon": 77.5878889}, {"type": "node", "id": 1108008962, "lat": 12.9677004, "lon": 77.5450862, "tags": {"bus": "yes", "highway": "bus_stop", "loc_name": "VIJAYANAGARA", "name": "Pipeline RPC layout", "public_transport": "platform"}}, {"type": "node", "id": 1148858377, "lat": 12.9000062, "lon": 77.5730137}, {"type": "node", "id": 1148858382, "lat": 12.8986418, "lon": 77.5665904, "tags": {"highway": "bus_stop", "name": "Kashinagara", "name:kn": "\u0c95\u0cbe\u0cb6\u0cbf\u0ca8\u0c97\u0cb0"}}, {"type": "node", "id": 1278191603, "lat": 12.9681601, "lon": 77.5518081}, {"type": "node", "id": 1285970677, "lat": 12.958835, "lon": 77.5006817, "tags": {"highway": "bus_stop", "name": "Mallathahalli", "name:kn": "\u0cae\u0cb2\u0ccd\u0cb2\u0ca4\u0ccd\u0ca4\u0cb9\u0cb3\u0ccd\u0cb3\u0cbf"}}, {"type": "node", "id": 1285970770, "lat": 12.923572, "lon": 77.493973, "tags": {"check_date:crossing:barrier": "2023-05-28", "crossing:barrier": "full", "railway": "level_crossing"}}, {"type": "node", "id": 1307680256, "lat": 12.9303421, "lon": 77.5533292, "tags": {"highway": "bus_stop", "loc_name": "43A bus stop", "toilets:wheelchair": "no", "wheelchair": "no"}}, {"type": "node", "id": 1323690429, "lat": 12.9576092, "lon": 77.5736663, "tags": {"bus": "yes", "highway": "bus_stop", "name": "Makkala Koota", "name:en": "Makkala Koota", "name:kn": "\u0cae\u0c95\u0ccd\u0c95\u0cb3 \u0c95\u0cc2\u0c9f", "network": "BMTC", "operator": "BMTC", "public_transport": "platform", "wheelchair": "no"}}, {"type": "node", "id": 1326430789, "lat": 12.8977428, "lon": 77.585959, "tags": {"highway": "bus_stop", "loc_name": "J.P.NAGARA 7TH PHASE", "name": "Shobha Tulip JP Nagara", "name:en": "Shobha Tulip JP Nagara", "network": "BMTC", "operator": "BMTC", "public_transport": "platform", "wheelchair": "limited"}}, {"type": "node", "id": 1331946775, "lat": 12.9054868, "lon": 77.5857678, "tags": {"bus": "yes", "name": "Nandini Hotel JP Nagara", "name:en": "Nandini Hotel JP Nagara", "network": "BMTC", "operator": "BMTC", "public_transport": "stop_position"}}, {"type": "node", "id": 1383042530, "lat": 12.948072, "lon": 77.5430925, "tags": {"highway": "bus_stop", "loc_name": "BYATARAYANAPURA", "name": "Timber Yard Layout"}}, {"type": "node", "id": 1388142920, "lat": 12.914587, "lon": 77.5471118, "tags": {"bus": "yes", "highway": "bus_stop", "loc_name": "Chikkalasandra", "name": "Ramanjaneya Layout Cross", "public_transport": "platform"}}, {"type": "node", "id": 1388143410, "lat": 12.9140778, "lon": 77.5499424, "tags": {"bus": "yes", "highway": "bus_stop", "loc_name": "Chikkalasandra", "name": "Mahesh Medicals", "public_transport": "platform"}}, {"type": "node", "id": 1437223296, "lat": 12.9465345, "lon": 77.5800377, "tags": {"code": "LBGH", "name": "Lalbagh", "name:hi": "\u0932\u093e\u0932\u092c\u093e\u0917\u093c", "name:kn": "\u0cb2\u0cbe\u0cb2\u0ccd \u0cac\u0cbe\u0c97\u0ccd", "network": "Namma Metro", "note": "Contributors are requested to not edit the \"network\" and the \"operator\" tags. (2023/11/08)", "operator": "Bangalore Metro Rail Corporation Limited", "platforms": "2", "public_transport": "stop_position", "public_transport:version": "2", "railway": "stop", "source": "http://www.bmrc.co.in/English/Network.htm", "subway": "yes", "wheelchair": "yes"}}, {"type": "node", "id": 1442068029, "lat": 12.9367107, "lon": 77.5837112, "tags": {"alt_name": "Madiwala Lake road", "highway": "bus_stop", "name": "Madavan Park, Jayanagara 3Rd Block"}}, {"type": "node", "id": 1442068036, "lat": 12.9432815, "lon": 77.5853342, "tags": {"bench": "yes", "bus": "yes", "departures_board": "no", "highway": "bus_stop", "loc_name": "JAYANAGARA 1ST BLOCK", "name": "Ashoka Pillar", "name:en": "Ashoka Pillar", "name:kn": "\u0c85\u0cb6\u0ccb\u0c95 \u0cb8\u0ccd\u0ca5\u0c82\u0cad", "network": "BMTC", "network:wikidata": "Q3345039", "operator": "BMTC", "public_transport": "platform", "shelter": "yes", "wheelchair": "no"}}, {"type": "node", "id": 1442068037, "lat": 12.9437023, "lon": 77.5846389, "tags": {"bus": "yes", "departures_board": "no", "highway": "bus_stop", "name": "Ashoka Pillar", "name:kn": "\u0c85\u0cb6\u0ccb\u0c95 \u0caa\u0cbf\u0cb2\u0ccd\u0cb2\u0cb0\u0ccd", "public_transport": "platform", "shelter": "no"}}, {"type": "node", "id": 1464908663, "lat": 12.9360201, "lon": 77.573808, "tags": {"highway": "bus_stop", "name": "Tata Silk Farm", "name:en": "Tata Silk Farm", "network": "BMTC", "operator": "BMTC", "public_transport": "platform", "shelter": "yes"}}, {"type": "node", "id": 1464922039, "lat": 12.929282, "lon": 77.5737367, "tags": {"bench": "yes", "bus": "yes", "covered": "yes", "highway": "bus_stop", "loc_name": "BANASHANKARI 2ND STAGE", "name": "MM industries", "name:en": "MM industries", "network": "BMTC", "operator": "BMTC", "public_transport": "platform", "shelter": "yes"}}, {"type": "node", "id": 1466724591, "lat": 12.9416092, "lon": 77.559347, "tags": {"bus": "yes", "highway": "bus_stop", "name": "Nirmala Stores, Hanumantha Nagara", "public_transport": "platform"}}, {"type": "node", "id": 1473082161, "lat": 12.9754592, "lon": 77.5746028}, {"type": "node", "id": 1473227126, "lat": 12.9641311, "lon": 77.5748486}, {"type": "node", "id": 1473227133, "lat": 12.975905, "lon": 77.5659372}, {"type": "node", "id": 1473255017, "lat": 12.9442619, "lon": 77.5545923, "tags": {"bench": "yes", "bus": "yes", "covered": "yes", "highway": "bus_stop", "name": "Srinagara Bus Station", "name:en": "Srinagara Bus Station", "name:kn": "\u0cb8\u0ccd\u0cb0\u0cc0\u0ca8\u0c97\u0cb0 \u0cac\u0cb8\u0ccd \u0ca8\u0cbf\u0cb2\u0ccd\u0ca4\u0cbe\u0ca8", "network": "BMTC", "operator": "BMTC", "public_transport": "platform", "shelter": "yes"}}, {"type": "node", "id": 1473879998, "lat": 12.9172031, "lon": 77.5849405, "tags": {"bench": "yes", "bus": "yes", "covered": "yes", "highway": "bus_stop", "name": "Jayanagar 5th Block", "name:en": "Jayanagara 5th Block", "name:kn": "\u0c9c\u0caf\u0ca8\u0c97\u0cb0 \u0ceb\u0ca8\u0cc7 \u0cac\u0ccd\u0cb2\u0cbe\u0c95\u0ccd", "network": "BMTC", "operator": "BMTC", "public_transport": "platform", "shelter": "yes"}}, {"type": "node", "id": 1473995564, "lat": 12.9109432, "lon": 77.5787511, "tags": {"highway": "bus_stop", "lit": "yes", "loc_name": "Sarakki, Shakambarinagara", "name": "Indira Gandhi Circle, Shakambari Nagara", "name:kn": "\u0c87\u0c82\u0ca6\u0cbf\u0cb0\u0c97\u0cbe\u0c82\u0ca7\u0cbf \u0cb5\u0cc3\u0ca4\u0ccd\u0ca4"}}, {"type": "node", "id": 1473998140, "lat": 12.9170647, "lon": 77.5785453, "tags": {"bench": "yes", "bus": "yes", "covered": "yes", "highway": "bus_stop", "name": "Sangam Circle", "name:en": "Sangam Circle", "name:kn": "\u0cb8\u0c82\u0c97\u0cae \u0cb5\u0cc3\u0ca4\u0ccd\u0ca4", "network": "BMTC", "operator": "BMTC", "public_transport": "platform", "shelter": "yes"}}, {"type": "node", "id": 1474821305, "lat": 12.9844416, "lon": 77.5483635, "tags": {"name": "Rajajinagara Industrial Town", "name:en": "Rajajinagara Industrial Town", "name:kn": "\u0cb0\u0cbe\u0c9c\u0cbe\u0c9c\u0cbf\u0ca8\u0c97\u0cb0", "network": "BMTC", "operator": "BMTC", "public_transport": "platform"}}, {"type": "node", "id": 1474821314, "lat": 12.9819588, "lon": 77.5492029, "tags": {"bus": "yes", "highway": "bus_stop", "name": "Industrial Area Rajajiangara", "name:en": "Industrial Area Rajajiangara", "network": "BMTC", "operator": "BMTC", "public_transport": "platform"}}, {"type": "node", "id": 1474827877, "lat": 12.9740655, "lon": 77.5513914, "tags": {"highway": "bus_stop", "loc_name": "Magadi Road", "name": "Prasanna Talkies", "name:en": "Prasanna Talkies", "name:kn": "\u0caa\u0ccd\u0cb0\u0cb8\u0ca8\u0ccd\u0ca8 \u0c9a\u0cbf\u0ca4\u0ccd\u0cb0\u0cae\u0c82\u0ca6\u0cbf\u0cb0", "network": "BMTC", "operator": "BMTC", "public_transport": "platform"}}, {"type": "node", "id": 1474827886, "lat": 12.9738809, "lon": 77.5418392, "tags": {"bus": "yes", "highway": "bus_stop", "loc_name": "VIJAYANAGARA", "name": "Manu Vana", "name:kn": "\u0cae\u0ca8\u0cc1\u0cb5\u0ca8", "public_transport": "platform"}}, {"type": "node", "id": 1474835640, "lat": 12.9734849, "lon": 77.5384944, "tags": {"bus": "yes", "highway": "bus_stop", "name": "Vijayanagar", "name:kn": "\u0cb5\u0cbf\u0c9c\u0caf\u0ca8\u0c97\u0cb0", "public_transport": "platform"}}, {"type": "node", "id": 1474835884, "lat": 12.9677402, "lon": 77.5360222, "tags": {"bench": "yes", "bin": "yes", "bus": "yes", "covered": "yes", "highway": "bus_stop", "loc_name": "VIJAYANAGARA", "name": "Maruti Mandira", "name:en": "Maruti Mandira", "name:kn": "\u0cae\u0cbe\u0cb0\u0cc1\u0ca4\u0cbf \u0cae\u0c82\u0ca6\u0cbf\u0cb0", "network": "BMTC", "operator": "BMTC", "public_transport": "platform", "shelter": "yes"}}, {"type": "node", "id": 1474854780, "lat": 12.9600015, "lon": 77.5317178, "tags": {"bus": "yes", "highway": "bus_stop", "loc_name": "VIJAYANAGARA", "name": "Income Tax Layout", "name:en": "Income Tax Layout", "network": "BMTC", "operator": "BMTC", "public_transport": "platform"}}, {"type": "node", "id": 1474854781, "lat": 12.9481302, "lon": 77.5349754, "tags": {"bus": "yes", "highway": "bus_stop", "loc_name": "Mysore Road", "name": "BHEL Gate", "name:en": "BHEL Gate", "network": "BMTC", "operator": "BMTC", "public_transport": "platform"}}, {"type": "node", "id": 1474854800, "lat": 12.9537543, "lon": 77.5363876, "tags": {"bus": "yes", "highway": "bus_stop", "name": "Deepanjalinagara", "name:en": "Deepanjalinagara", "name:kn": "\u0ca6\u0cc0\u0caa\u0cbe\u0c82\u0c9c\u0cb2\u0cbf \u0ca8\u0c97\u0cb0", "network": "BMTC", "operator": "BMTC", "public_transport": "platform"}}, {"type": "node", "id": 1474854807, "lat": 12.9355816, "lon": 77.5184637, "tags": {"highway": "bus_stop", "name": "Rajarajeshwarinagara Gate", "name:en": "Rajarajeshwarinagara Gate", "name:kn": "\u0cb0\u0cbe\u0c9c\u0cb0\u0cbe\u0c9c\u0cc7\u0cb6\u0ccd\u0cb5\u0cb0\u0cbf \u0ca8\u0c97\u0cb0 \u0ca6\u0ccd\u0cb5\u0cbe\u0cb0", "network": "BMTC", "operator": "BMTC", "public_transport": "platform"}}, {"type": "node", "id": 1487973946, "lat": 12.9362992, "lon": 77.5123942}, {"type": "node", "id": 1487973967, "lat": 12.9364332, "lon": 77.5125759}, {"type": "node", "id": 1511677052, "lat": 12.954513, "lon": 77.5224516, "tags": {"highway": "bus_stop", "loc_name": "CHANDRA LAYOUT 1ST STAGE", "name": "Siddaganga School", "name:kn": "\u0cb8\u0cbf\u0ca6\u0ccd\u0ca6\u0c97\u0c82\u0c97\u0cbe \u0cb6\u0cbe\u0cb2\u0cc6"}}, {"type": "node", "id": 1512515625, "lat": 12.9647216, "lon": 77.5344115}, {"type": "node", "id": 1512515627, "lat": 12.9646144, "lon": 77.5346556}, {"type": "node", "id": 1512515628, "lat": 12.9659855, "lon": 77.535199}, {"type": "node", "id": 1512515631, "lat": 12.9663193, "lon": 77.5342297}, {"type": "node", "id": 1512515635, "lat": 12.9648047, "lon": 77.5342862}, {"type": "node", "id": 1512515636, "lat": 12.9656479, "lon": 77.534147}, {"type": "node", "id": 1512572147, "lat": 12.965621, "lon": 77.5304054, "tags": {"highway": "bus_stop", "loc_name": "VIJAYANAGARA", "name": "Vinayaka Layout", "name:kn": "\u0cb5\u0cbf\u0ca8\u0cbe\u0caf\u0c95 \u0cac\u0ca1\u0cbe\u0cb5\u0ca3\u0cc6"}}, {"type": "node", "id": 1512865124, "lat": 12.9567218, "lon": 77.534422}, {"type": "node", "id": 1513872849, "lat": 12.9541816, "lon": 77.5359456}, {"type": "node", "id": 1513872861, "lat": 12.9539229, "lon": 77.5356872}, {"type": "node", "id": 1517886988, "lat": 12.9706816, "lon": 77.5248635, "tags": {"bus": "yes", "highway": "bus_stop", "loc_name": "MODALAPALYA CIRCLE", "name": "Moodalapalya", "name:kn": "\u0cae\u0cc2\u0ca1\u0cb2\u0caa\u0cbe\u0cb3\u0ccd\u0caf", "public_transport": "platform"}}, {"type": "node", "id": 1521036512, "lat": 12.9757998, "lon": 77.5605585, "tags": {"highway": "bus_stop", "name": "Magadi Road 5th Cross", "name:kn": "\u0cae\u0cbe\u0c97\u0ca1\u0cbf \u0cb0\u0cb8\u0ccd\u0ca4\u0cc6 \u0ceb\u0ca8\u0cc7 \u0c85\u0ca1\u0ccd\u0ca1", "public_transport": "platform"}}, {"type": "node", "id": 1521343675, "lat": 12.9757116, "lon": 77.5567775, "tags": {"highway": "bus_stop", "name": "Magadi Road 10th Cross", "name:kn": "\u0cae\u0cbe\u0c97\u0ca1\u0cbf \u0cb0\u0cb8\u0ccd\u0ca4\u0cc6 \u0ce7\u0ce6\u0ca8\u0cc7 \u0c85\u0ca1\u0ccd\u0ca1", "public_transport": "platform"}}, {"type": "node", "id": 1522519253, "lat": 12.9411299, "lon": 77.5736696, "tags": {"bus": "yes", "highway": "bus_stop", "name": "Basavanagudi Police Station", "name:en": "Basavanagudi Police Station", "name:kn": "\u0cac\u0cb8\u0cb5\u0ca8\u0c97\u0cc1\u0ca1\u0cbf \u0caa\u0ccb\u0cb2\u0cbf\u0cb8\u0ccd \u0ca0\u0cbe\u0ca3\u0cc6", "network": "BMTC", "operator": "BMTC", "public_transport": "platform"}}, {"type": "node", "id": 1524381506, "lat": 12.9596689, "lon": 77.5744822}, {"type": "node", "id": 1524381509, "lat": 12.9505258, "lon": 77.573712, "tags": {"code": "NLC", "name": "National College", "name:kn": "\u0cb0\u0cbe\u0cb7\u0ccd\u0c9f\u0ccd\u0cb0\u0cc0\u0caf \u0c95\u0cbe\u0cb2\u0cc7\u0c9c\u0cc1", "network": "Namma Metro", "note": "Contributors are requested to not edit the \"network\" and the \"operator\" tags. (2023/11/08)", "operator": "Bangalore Metro Rail Corporation Limited", "platforms": "2", "public_transport": "stop_position", "public_transport:version": "2", "railway": "stop", "source": "http://www.bmrc.co.in/English/Network.htm", "subway": "yes", "wheelchair": "yes"}}, {"type": "node", "id": 1524381515, "lat": 12.9589628, "lon": 77.5742278}, {"type": "node", "id": 1524381523, "lat": 12.9608898, "lon": 77.5746822, "tags": {"code": "KRMT", "name": "Krishna Rajendra Market", "name:kn": "\u0c95\u0cc3\u0cb7\u0ccd\u0ca3\u0cb0\u0cbe\u0c9c\u0cc7\u0c82\u0ca6\u0ccd\u0cb0 \u0cae\u0cbe\u0cb0\u0cc1\u0c95\u0c9f\u0ccd\u0c9f\u0cc6", "network": "Namma Metro", "note": "Contributors are requested to not edit the \"network\" and the \"operator\" tags. (2023/11/08)", "operator": "Bangalore Metro Rail Corporation Limited", "platforms": "2", "public_transport": "stop_position", "public_transport:version": "2", "railway": "stop", "short_name": "K R Market", "source": "http://www.bmrc.co.in/English/Network.htm", "subway": "yes", "wheelchair": "yes", "wikidata": "Q24912918", "wikipedia": "en:Krishna Rajendra Market metro station"}}, {"type": "node", "id": 1547494069, "lat": 12.967471, "lon": 77.574589}, {"type": "node", "id": 1547494109, "lat": 12.9623025, "lon": 77.5748902}, {"type": "node", "id": 1547494119, "lat": 12.9656816, "lon": 77.5745388}, {"type": "node", "id": 1547494121, "lat": 12.9636316, "lon": 77.574918}, {"type": "node", "id": 1548300484, "lat": 12.966924, "lon": 77.5745737, "tags": {"code": "CKPE", "name": "Chickpete", "name:hi": "\u091a\u093f\u0915\u092a\u0947\u091f\u0947", "name:kn": "\u0c9a\u0cbf\u0c95\u0ccd\u0c95\u0caa\u0cc7\u0c9f\u0cc6", "network": "Namma Metro", "note": "Contributors are requested to not edit the \"network\" and the \"operator\" tags. (2023/11/08)", "operator": "Bangalore Metro Rail Corporation Limited", "public_transport": "stop_position", "public_transport:version": "2", "railway": "stop", "source": "http://www.bmrc.co.in/English/Network.htm", "subway": "yes", "wheelchair": "yes"}}, {"type": "node", "id": 1552140883, "lat": 12.9239853, "lon": 77.5405419, "tags": {"highway": "bus_stop", "loc_name": "HOSAKEREHALLI", "name": "Dattatraya Nagara Temple", "name:kn": "\u0ca6\u0ca4\u0ccd\u0ca4\u0cbe\u0ca4\u0ccd\u0cb0\u0cc7\u0caf \u0ca8\u0c97\u0cb0 \u0ca6\u0cc7\u0cb5\u0cb8\u0ccd\u0ca5\u0cbe\u0ca8"}}, {"type": "node", "id": 1559350752, "lat": 12.9586353, "lon": 77.5741322}, {"type": "node", "id": 1559350755, "lat": 12.9572009, "lon": 77.5736347}, {"type": "node", "id": 1560067666, "lat": 12.9758581, "lon": 77.5653792, "tags": {"code": "BRCS", "name": "Krantivira Sangolli Rayanna Railway Station", "name:kn": "\u0ca8\u0c97\u0cb0 \u0cb0\u0cc8\u0cb2\u0cc1 \u0ca8\u0cbf\u0cb2\u0ccd\u0ca6\u0cbe\u0ca3", "network": "Namma Metro", "note": "Contributors are requested to not edit the \"network\" and the \"operator\" tags. (2023/11/08)", "operator": "Bangalore Metro Rail Corporation Limited", "platforms": "2", "public_transport": "stop_position", "public_transport:version": "2", "railway": "stop", "source": "http://www.bmrc.co.in/English/Network.htm", "subway": "yes", "wheelchair": "yes", "wikidata": "Q39070950", "wikipedia": "en:City Railway Station metro station (Bangalore)"}}, {"type": "node", "id": 1560680172, "lat": 12.9737908, "lon": 77.5500453}, {"type": "node", "id": 1560680173, "lat": 12.9744183, "lon": 77.5488918}, {"type": "node", "id": 1560680174, "lat": 12.9738229, "lon": 77.5507393}, {"type": "node", "id": 1560680175, "lat": 12.9743037, "lon": 77.5514175}, {"type": "node", "id": 1560680176, "lat": 12.9740195, "lon": 77.5495751}, {"type": "node", "id": 1560680177, "lat": 12.9742069, "lon": 77.5492779}, {"type": "node", "id": 1560680178, "lat": 12.9737538, "lon": 77.5503893}, {"type": "node", "id": 1560681262, "lat": 12.979795, "lon": 77.5722839}, {"type": "node", "id": 1565099085, "lat": 12.9449727, "lon": 77.5275383}, {"type": "node", "id": 1565099087, "lat": 12.9618581, "lon": 77.5335932, "tags": {"code": "AGPP", "name": "Attiguppe", "name:kn": "\u0c85\u0ca4\u0ccd\u0ca4\u0cbf\u0c97\u0cc1\u0caa\u0ccd\u0caa\u0cc6 \u0cae\u0cc6\u0c9f\u0ccd\u0cb0\u0ccb", "network": "Namma Metro", "note": "Contributors are requested to not edit the \"network\" and the \"operator\" tags. (2023/11/08)", "operator": "Bangalore Metro Rail Corporation Limited", "public_transport": "stop_position", "public_transport:version": "2", "railway": "stop", "source": "http://www.bmrc.co.in/English/Network.htm", "subway": "yes", "wheelchair": "yes", "wikidata": "Q39046425", "wikipedia": "en:Attiguppe metro station"}}, {"type": "node", "id": 1565099088, "lat": 12.9709391, "lon": 77.5374285, "tags": {"code": "VJN", "name": "Vijayanagara", "name:kn": "\u0cb5\u0cbf\u0c9c\u0caf\u0ca8\u0c97\u0cb0", "network": "Namma Metro", "note": "Contributors are requested to not edit the \"network\" and the \"operator\" tags. (2023/11/08)", "operator": "Bangalore Metro Rail Corporation Limited", "public_transport": "stop_position", "public_transport:version": "2", "railway": "stop", "source": "http://www.bmrc.co.in/English/Network.htm", "subway": "yes", "wheelchair": "yes", "wikidata": "Q39046429", "wikipedia": "en:Vijayanagar metro station"}}, {"type": "node", "id": 1565099103, "lat": 12.9171582, "lon": 77.5791414}, {"type": "node", "id": 1565099104, "lat": 12.9213328, "lon": 77.5802892, "tags": {"code": "RVR", "name": "Rashtreeya Vidyalaya Road", "name:en": "Rashtreeya Vidyalaya Road", "name:kn": "\u0cb0\u0cbe\u0cb7\u0ccd\u0c9f\u0ccd\u0cb0\u0cc0\u0caf \u0cb5\u0cbf\u0ca6\u0ccd\u0caf\u0cbe\u0cb2\u0caf \u0cb0\u0cb8\u0ccd\u0ca4\u0cc6", "network": "Namma Metro", "note": "Contributors are requested to not edit the \"network\" and the \"operator\" tags. (2023/11/08)", "operator": "Bangalore Metro Rail Corporation Limited", "public_transport": "stop_position", "public_transport:version": "2", "railway": "stop", "source": "http://www.bmrc.co.in/English/Network.htm", "subway": "yes", "wheelchair": "yes"}}, {"type": "node", "id": 1565099106, "lat": 12.9173135, "lon": 77.579732}, {"type": "node", "id": 1565099112, "lat": 12.9176861, "lon": 77.580118}, {"type": "node", "id": 1565099119, "lat": 12.9074812, "lon": 77.5731495, "tags": {"code": "JPN", "name": "Jaya Prakash Nagar", "name:kn": "\u0c9c\u0caf\u0caa\u0ccd\u0cb0\u0c95\u0cbe\u0cb6 \u0ca8\u0cbe\u0cb0\u0cbe\u0caf\u0ca3 \u0ca8\u0c97\u0cb0", "network": "Namma Metro", "note": "Contributors are requested to not edit the \"network\" and the \"operator\" tags. (2023/11/08)", "operator": "Bangalore Metro Rail Corporation Limited", "public_transport": "stop_position", "public_transport:version": "2", "railway": "stop", "short_name": "J P Nagar", "source": "http://www.bmrc.co.in/English/Network.htm", "subway": "yes", "wheelchair": "yes"}}, {"type": "node", "id": 1565099131, "lat": 12.9295069, "lon": 77.5801653, "tags": {"code": "JYN", "name": "Jayanagar", "name:hi": "\u091c\u092f\u093e\u0928\u0917\u0930", "name:kn": "\u0c9c\u0caf\u0ca8\u0c97\u0cb0", "name:te": "\u0c1c\u0c2f\u0c28\u0c17\u0c30\u0c4d", "network": "Namma Metro", "note": "Contributors are requested to not edit the \"network\" and the \"operator\" tags. (2023/11/08)", "operator": "Bangalore Metro Rail Corporation Limited", "public_transport": "stop_position", "public_transport:version": "2", "railway": "stop", "source": "http://www.bmrc.co.in/English/Network.htm", "subway": "yes", "wheelchair": "yes"}}, {"type": "node", "id": 1565099134, "lat": 12.9172296, "lon": 77.5795342}, {"type": "node", "id": 1565099138, "lat": 12.8977588, "lon": 77.5716465}, {"type": "node", "id": 1565099143, "lat": 12.9741737, "lon": 77.5456189, "tags": {"code": "HSLI", "name": "Sri Balagangadharanatha Swamiji Stn., Hosahalli", "name:kn": "\u0cb6\u0ccd\u0cb0\u0cc0 \u0cac\u0cbe\u0cb2\u0c97\u0c82\u0c97\u0cbe\u0ca7\u0cb0\u0ca8\u0cbe\u0ca5 \u0cae\u0cc6\u0c9f\u0ccd\u0cb0\u0ccb", "network": "Namma Metro", "note": "Contributors are requested to not edit the \"network\" and the \"operator\" tags. (2023/11/08)", "operator": "Bangalore Metro Rail Corporation Limited", "platforms": "2", "public_transport": "stop_position", "public_transport:version": "2", "railway": "stop", "source": "http://www.bmrc.co.in/English/Network.htm", "subway": "yes", "wheelchair": "yes", "wikidata": "Q23838583", "wikipedia": "en:Hosahalli metro station"}}, {"type": "node", "id": 1565099153, "lat": 12.8967948, "lon": 77.5708245}, {"type": "node", "id": 1565150399, "lat": 12.9533407, "lon": 77.5365873}, {"type": "node", "id": 1565150402, "lat": 12.9531515, "lon": 77.536701}, {"type": "node", "id": 1565150405, "lat": 12.9532588, "lon": 77.5366429}, {"type": "node", "id": 1568922532, "lat": 12.9636018, "lon": 77.5844925, "tags": {"bus": "yes", "highway": "bus_stop", "name": "Town Hall", "name:en": "Town Hall", "name:kn": "\u0cae\u0cb9\u0cbe\u0ca8\u0c97\u0cb0 \u0caa\u0cbe\u0cb2\u0cbf\u0c95\u0cc6", "network": "BMTC", "operator": "BMTC", "public_transport": "platform"}}, {"type": "node", "id": 1575610024, "lat": 12.9749168, "lon": 77.4999947, "tags": {"highway": "bus_stop", "name": "Veeranna Palya"}}, {"type": "node", "id": 1575617896, "lat": 12.9730628, "lon": 77.5808769}, {"type": "node", "id": 1575617899, "lat": 12.9751329, "lon": 77.5761213}, {"type": "node", "id": 1575617901, "lat": 12.9752435, "lon": 77.5757114}, {"type": "node", "id": 1576912319, "lat": 12.9299725, "lon": 77.5057921}, {"type": "node", "id": 1576912321, "lat": 12.9358029, "lon": 77.5135063}, {"type": "node", "id": 1576912322, "lat": 12.9132335, "lon": 77.485942}, {"type": "node", "id": 1576912324, "lat": 12.9104975, "lon": 77.4842419}, {"type": "node", "id": 1576912332, "lat": 12.9129277, "lon": 77.4855423}, {"type": "node", "id": 1576912335, "lat": 12.9325419, "lon": 77.5084517}, {"type": "node", "id": 1576912338, "lat": 12.9209189, "lon": 77.4934017}, {"type": "node", "id": 1576912340, "lat": 12.9211223, "lon": 77.4935286}, {"type": "node", "id": 1576912342, "lat": 12.9213628, "lon": 77.4936949}, {"type": "node", "id": 1576912344, "lat": 12.9174184, "lon": 77.490686}, {"type": "node", "id": 1576912345, "lat": 12.9355454, "lon": 77.512825}, {"type": "node", "id": 1576912353, "lat": 12.9230443, "lon": 77.496839}, {"type": "node", "id": 1576912356, "lat": 12.9363917, "lon": 77.5190245}, {"type": "node", "id": 1576912358, "lat": 12.9189942, "lon": 77.4915169}, {"type": "node", "id": 1576912360, "lat": 12.9165478, "lon": 77.4901348}, {"type": "node", "id": 1576912362, "lat": 12.9103182, "lon": 77.4833364}, {"type": "node", "id": 1576912366, "lat": 12.9366362, "lon": 77.5196666, "tags": {"code": "RRRN", "name": "Rajarajeshwari Nagar", "name:kn": "\u0cb0\u0cbe\u0c9c\u0cb0\u0cbe\u0c9c\u0cc7\u0cb6\u0ccd\u0cb5\u0cb0\u0cbf \u0ca8\u0c97\u0cb0", "network": "Namma Metro", "note": "Contributors are requested to not edit the \"network\" and the \"operator\" tags. (2023/11/08)", "operator": "Bangalore Metro Rail Corporation Limited", "public_transport": "stop_position", "railway": "stop", "subway": "yes"}}, {"type": "node", "id": 1576912374, "lat": 12.9400848, "lon": 77.5240969}, {"type": "node", "id": 1576912377, "lat": 12.9312394, "lon": 77.5065682}, {"type": "node", "id": 1576912379, "lat": 12.9388705, "lon": 77.5228544}, {"type": "node", "id": 1576912382, "lat": 12.9326653, "lon": 77.5085803}, {"type": "node", "id": 1576912384, "lat": 12.92346, "lon": 77.4975874}, {"type": "node", "id": 1576912391, "lat": 12.9232522, "lon": 77.4972909}, {"type": "node", "id": 1576912392, "lat": 12.9127687, "lon": 77.4853752}, {"type": "node", "id": 1576912401, "lat": 12.9108685, "lon": 77.4846201}, {"type": "node", "id": 1576912404, "lat": 12.9125922, "lon": 77.4852492}, {"type": "node", "id": 1576912406, "lat": 12.9286462, "lon": 77.5034353}, {"type": "node", "id": 1576912408, "lat": 12.9142275, "lon": 77.487301}, {"type": "node", "id": 1576912411, "lat": 12.9290597, "lon": 77.5039146}, {"type": "node", "id": 1576912414, "lat": 12.91565, "lon": 77.4890965}, {"type": "node", "id": 1576912416, "lat": 12.9297291, "lon": 77.5055432}, {"type": "node", "id": 1576912420, "lat": 12.9281756, "lon": 77.5030169}, {"type": "node", "id": 1576912437, "lat": 12.9416608, "lon": 77.525127, "tags": {"alt_name": "Pantarapalya", "code": "NYHM", "name": "Pantharapalya - Nayandahalli", "name:kn": "\u0caa\u0c82\u0ca4\u0cb0\u0caa\u0cbe\u0cb3\u0ccd\u0caf - \u0ca8\u0cbe\u0caf\u0c82\u0ca1\u0cb9\u0cb3\u0ccd\u0cb3\u0cbf", "network": "Namma Metro", "note": "Contributors are requested to not edit the \"network\" and the \"operator\" tags. (2023/11/08)", "old_name": "Nayandahalli", "operator": "Bangalore Metro Rail Corporation Limited", "public_transport": "stop_position", "railway": "stop", "subway": "yes"}}, {"type": "node", "id": 1576912441, "lat": 12.9351281, "lon": 77.5115524}, {"type": "node", "id": 1576912445, "lat": 12.9277312, "lon": 77.5025341}, {"type": "node", "id": 1576912449, "lat": 12.9169158, "lon": 77.4904548}, {"type": "node", "id": 1576912450, "lat": 12.9265292, "lon": 77.5009374}, {"type": "node", "id": 1576912452, "lat": 12.9215568, "lon": 77.4939167}, {"type": "node", "id": 1576912459, "lat": 12.9162052, "lon": 77.489703}, {"type": "node", "id": 1576912462, "lat": 12.9294623, "lon": 77.505068}, {"type": "node", "id": 1576912463, "lat": 12.9239667, "lon": 77.4980924}, {"type": "node", "id": 1576912465, "lat": 12.9195589, "lon": 77.4920534}, {"type": "node", "id": 1576912467, "lat": 12.9411822, "lon": 77.5248621}, {"type": "node", "id": 1576912470, "lat": 12.9122301, "lon": 77.4850722}, {"type": "node", "id": 1576912474, "lat": 12.9394256, "lon": 77.5234942}, {"type": "node", "id": 1576912476, "lat": 12.9150235, "lon": 77.4883209}, {"type": "node", "id": 1576912485, "lat": 12.9362351, "lon": 77.5165502}, {"type": "node", "id": 1576912487, "lat": 12.9360102, "lon": 77.5142394}, {"type": "node", "id": 1576912489, "lat": 12.9314486, "lon": 77.5068417}, {"type": "node", "id": 1576912491, "lat": 12.9250594, "lon": 77.4992082}, {"type": "node", "id": 1576912493, "lat": 12.9362743, "lon": 77.5183635}, {"type": "node", "id": 1576912495, "lat": 12.9389489, "lon": 77.5229778}, {"type": "node", "id": 1576912497, "lat": 12.9346992, "lon": 77.5107598}, {"type": "node", "id": 1576912509, "lat": 12.9103355, "lon": 77.4838578}, {"type": "node", "id": 1576912510, "lat": 12.9378843, "lon": 77.5214636}, {"type": "node", "id": 1576912511, "lat": 12.9362907, "lon": 77.5172477}, {"type": "node", "id": 1576912514, "lat": 12.9372049, "lon": 77.5209059}, {"type": "node", "id": 1576912517, "lat": 12.9111538, "lon": 77.4847578}, {"type": "node", "id": 1576912520, "lat": 12.9104009, "lon": 77.4840568}, {"type": "node", "id": 1576912523, "lat": 12.938153, "lon": 77.5217637}, {"type": "node", "id": 1576912535, "lat": 12.9328269, "lon": 77.5087501}, {"type": "node", "id": 1576912536, "lat": 12.918592, "lon": 77.4912563}, {"type": "node", "id": 1576912538, "lat": 12.9369532, "lon": 77.5205792}, {"type": "node", "id": 1576912539, "lat": 12.9202183, "lon": 77.4928438}, {"type": "node", "id": 1576912540, "lat": 12.9199621, "lon": 77.4925756}, {"type": "node", "id": 1576912541, "lat": 12.913508, "lon": 77.4863108}, {"type": "node", "id": 1576912542, "lat": 12.9227353, "lon": 77.4960835}, {"type": "node", "id": 1576912544, "lat": 12.9375428, "lon": 77.5211697}, {"type": "node", "id": 1576912545, "lat": 12.9302992, "lon": 77.5060051}, {"type": "node", "id": 1576912559, "lat": 12.9218914, "lon": 77.4944424}, {"type": "node", "id": 1576912563, "lat": 12.9384214, "lon": 77.5221858}, {"type": "node", "id": 1576912564, "lat": 12.9260424, "lon": 77.5002864}, {"type": "node", "id": 1576912566, "lat": 12.9409313, "lon": 77.5247066}, {"type": "node", "id": 1576912568, "lat": 12.915393, "lon": 77.488822}, {"type": "node", "id": 1576912569, "lat": 12.9310983, "lon": 77.5064287}, {"type": "node", "id": 1576912570, "lat": 12.9158176, "lon": 77.489274}, {"type": "node", "id": 1576945781, "lat": 12.9425861, "lon": 77.5257428}, {"type": "node", "id": 1576945784, "lat": 12.9420299, "lon": 77.525377}, {"type": "node", "id": 1577747843, "lat": 12.8949932, "lon": 77.5692191}, {"type": "node", "id": 1577747978, "lat": 12.8919891, "lon": 77.5661453}, {"type": "node", "id": 1577748002, "lat": 12.8953693, "lon": 77.5695482}, {"type": "node", "id": 1577748011, "lat": 12.8939458, "lon": 77.5682123}, {"type": "node", "id": 1615691775, "lat": 12.9630301, "lon": 77.5050255, "tags": {"bus": "yes", "name": "Ambedkar Institute of Technology", "name:en": "Ambedkar Institute of Technology", "network": "BMTC", "operator": "BMTC", "public_transport": "stop_position"}}, {"type": "node", "id": 1621293889, "lat": 12.949205, "lon": 77.5737799}, {"type": "node", "id": 1621293890, "lat": 12.9484758, "lon": 77.5745575}, {"type": "node", "id": 1621293891, "lat": 12.9569783, "lon": 77.5736139}, {"type": "node", "id": 1621293892, "lat": 12.948781, "lon": 77.5740209}, {"type": "node", "id": 1621293893, "lat": 12.9493575, "lon": 77.5737449}, {"type": "node", "id": 1621293894, "lat": 12.9486042, "lon": 77.5742416}, {"type": "node", "id": 1621300968, "lat": 12.9483819, "lon": 77.575181}, {"type": "node", "id": 1621300975, "lat": 12.9178572, "lon": 77.5802171}, {"type": "node", "id": 1621300992, "lat": 12.9481888, "lon": 77.5793871}, {"type": "node", "id": 1621300993, "lat": 12.9396168, "lon": 77.5800672}, {"type": "node", "id": 1621300994, "lat": 12.9477264, "lon": 77.5798809}, {"type": "node", "id": 1621300996, "lat": 12.9478968, "lon": 77.5797726}, {"type": "node", "id": 1621301001, "lat": 12.9184579, "lon": 77.5803148}, {"type": "node", "id": 1621301003, "lat": 12.9179686, "lon": 77.5802551}, {"type": "node", "id": 1621301005, "lat": 12.9482861, "lon": 77.5763652}, {"type": "node", "id": 1621301007, "lat": 12.9483549, "lon": 77.575457}, {"type": "node", "id": 1621301009, "lat": 12.9484256, "lon": 77.5748298}, {"type": "node", "id": 1621301011, "lat": 12.9483278, "lon": 77.5757287}, {"type": "node", "id": 1621301027, "lat": 12.9483046, "lon": 77.5760185}, {"type": "node", "id": 1621301031, "lat": 12.9482687, "lon": 77.579173}, {"type": "node", "id": 1625434225, "lat": 12.9314381, "lon": 77.5063746, "tags": {"crossing:barrier": "full", "railway": "level_crossing"}}, {"type": "node", "id": 1632709324, "lat": 12.9650342, "lon": 77.5746054}, {"type": "node", "id": 1632709719, "lat": 12.9645284, "lon": 77.5747378}, {"type": "node", "id": 1632815594, "lat": 12.9639785, "lon": 77.5766596, "tags": {"bus": "yes", "highway": "bus_stop", "name": "Krishnarajendra Market", "public_transport": "platform", "short_name": "K R Market", "wheelchair": "no"}}, {"type": "node", "id": 1635323067, "lat": 12.9274161, "lon": 77.4951526, "tags": {"highway": "bus_stop", "name": "Dubasi Palya", "name:kn": "\u0ca6\u0cc1\u0cac\u0cbe\u0cb8\u0cbf \u0caa\u0cbe\u0cb3\u0ccd\u0caf"}}, {"type": "node", "id": 1636731010, "lat": 12.980429, "lon": 77.571995}, {"type": "node", "id": 1636731013, "lat": 12.980043, "lon": 77.5721454}, {"type": "node", "id": 1661806667, "lat": 12.9433213, "lon": 77.5366913, "tags": {"highway": "bus_stop", "loc_name": "Avalahalli", "name": "Avalahalli New BDA Layout"}}, {"type": "node", "id": 1739362330, "lat": 12.9639001, "lon": 77.5842677, "tags": {"bench": "yes", "bin": "yes", "bus": "yes", "check_date:bench": "2022-09-25", "covered": "yes", "highway": "bus_stop", "name": "Town Hall", "name:en": "Town Hall", "name:kn": "\u0cae\u0cb9\u0cbe\u0ca8\u0c97\u0cb0 \u0caa\u0cbe\u0cb2\u0cbf\u0c95\u0cc6", "network": "BMTC", "operator": "BMTC", "public_transport": "platform", "shelter": "yes"}}, {"type": "node", "id": 1741234403, "lat": 12.9292591, "lon": 77.5641724, "tags": {"highway": "bus_stop", "loc_name": "Tyagarajanagar,BANASHANKARI 2ND STAGE", "name": "Indira Nursing Home", "public_transport": "platform"}}, {"type": "node", "id": 1741240140, "lat": 12.9245175, "lon": 77.5647659, "tags": {"highway": "bus_stop", "loc_name": "BSK 2nd Stage - BDA Complex Stop", "name": "BDA Complex"}}, {"type": "node", "id": 1741258860, "lat": 12.9262173, "lon": 77.5698786, "tags": {"highway": "bus_stop", "name": "Post Office Stop", "name:kn": "\u0c85\u0c82\u0c9a\u0cc6 \u0c95\u0c9b\u0cc7\u0cb0\u0cbf", "public_transport": "platform"}}, {"type": "node", "id": 1742442132, "lat": 12.9179204, "lon": 77.5734137}, {"type": "node", "id": 1742442133, "lat": 12.9171132, "lon": 77.5734166}, {"type": "node", "id": 1742442134, "lat": 12.9181288, "lon": 77.5725811}, {"type": "node", "id": 1742442135, "lat": 12.9171338, "lon": 77.5727362}, {"type": "node", "id": 1742442136, "lat": 12.9171373, "lon": 77.5725733}, {"type": "node", "id": 1778901278, "lat": 12.9719567, "lon": 77.5290443, "tags": {"highway": "bus_stop", "loc_name": "VIJAYANAGARA", "name": "Saraswathi Nagar, Police Chowky"}}, {"type": "node", "id": 1778949338, "lat": 12.9585853, "lon": 77.5357223, "tags": {"alt_name": "Hampinagara RPC Layout", "bus": "yes", "highway": "bus_stop", "name": "Hampinagara Bus Stand", "name:en": "Hampinagara Bus Stand", "name:kn": "\u0cb9\u0c82\u0caa\u0cbf\u0ca8\u0c97\u0cb0 \u0cac\u0cb8\u0ccd \u0ca8\u0cbf\u0cb2\u0ccd\u0ca6\u0cbe\u0ca3", "public_transport": "platform"}}, {"type": "node", "id": 1780334097, "lat": 12.948174, "lon": 77.5347744}, {"type": "node", "id": 1780334098, "lat": 12.9497616, "lon": 77.5369484}, {"type": "node", "id": 1780334115, "lat": 12.9506392, "lon": 77.5373769}, {"type": "node", "id": 1780334129, "lat": 12.9508561, "lon": 77.537387}, {"type": "node", "id": 1780334131, "lat": 12.9511939, "lon": 77.5373429}, {"type": "node", "id": 1780473771, "lat": 12.9689802, "lon": 77.5593862, "tags": {"railway": "level_crossing"}}, {"type": "node", "id": 1780473772, "lat": 12.9693837, "lon": 77.5562418}, {"type": "node", "id": 1782180090, "lat": 12.9569707, "lon": 77.5638441, "tags": {"designation": "Rama Mandir Chamarajpet", "highway": "bus_stop", "loc_name": "Rama Mandir Chamarajapete", "name": "Rama Mandira Chamarajapet", "name:en": "Rama Mandira Chamarajapet", "network": "BMTC", "operator": "BMTC", "public_transport": "platform", "wheelchair": "no"}}, {"type": "node", "id": 1806969494, "lat": 12.970623, "lon": 77.5662423, "tags": {"highway": "bus_stop", "loc_name": "COTTONPET", "name": "Binny Mill", "name:en": "Binny Mill", "name:kn": "\u0cac\u0cbf\u0ca8\u0ccd\u0ca8\u0cbf \u0cae\u0cbf\u0cb2\u0ccd", "network": "BMTC", "operator": "BMTC", "public_transport": "platform", "wheelchair": "limited"}}, {"type": "node", "id": 1809622906, "lat": 12.9785071, "lon": 77.5427848, "tags": {"highway": "bus_stop", "loc_name": "Magadi Road", "name": "Dasarahalli", "name:kn": "\u0ca6\u0cbe\u0cb8\u0cb0\u0cb9\u0cb3\u0ccd\u0cb3\u0cbf"}}, {"type": "node", "id": 1809694363, "lat": 12.9682338, "lon": 77.5285165, "tags": {"highway": "bus_stop", "loc_name": "VIJAYANAGARA", "name": "GKW Layout"}}, {"type": "node", "id": 1809698937, "lat": 12.9676629, "lon": 77.5362837, "tags": {"bus": "yes", "local_ref": "VIJAYANAGARA", "name": "Maruthi Mandira", "name:en": "Maruthi Mandira", "name:kn": "\u0cae\u0cbe\u0cb0\u0cc1\u0ca4\u0cbf \u0cae\u0c82\u0ca6\u0cbf\u0cb0", "network": "BMTC", "operator": "BMTC", "public_transport": "stop_position", "wheelchair": "limited"}}, {"type": "node", "id": 1809724440, "lat": 12.9699014, "lon": 77.5320623, "tags": {"highway": "bus_stop", "loc_name": "VIJAYANAGARA", "name": "Marenahalli", "name:kn": "\u0cae\u0cb0\u0cc6\u0ca8\u0cb9\u0cb3\u0ccd\u0cb3\u0cbf"}}, {"type": "node", "id": 1809760719, "lat": 12.9645656, "lon": 77.5550387, "tags": {"bus": "yes", "highway": "bus_stop", "loc_name": "J.J.NAGARA", "name": "Jagajeevanram Nagara", "name:kn": "\u0c9c\u0c97\u0c9c\u0cc0\u0cb5\u0ca8\u0cb0\u0cbe\u0cae \u0ca8\u0c97\u0cb0", "public_transport": "platform"}}, {"type": "node", "id": 1812680510, "lat": 12.9185388, "lon": 77.5597183, "tags": {"highway": "bus_stop", "name": "Padmanabha Nagar (12B Stop)", "name:kn": "\u0caa\u0ca6\u0ccd\u0cae\u0ca8\u0cbe\u0cad\u0ca8\u0c97\u0cb0"}}, {"type": "node", "id": 1820408685, "lat": 12.9756535, "lon": 77.5568745}, {"type": "node", "id": 1820408686, "lat": 12.9755689, "lon": 77.5542442}, {"type": "node", "id": 1820408687, "lat": 12.9752935, "lon": 77.5527639}, {"type": "node", "id": 1820408688, "lat": 12.9755787, "lon": 77.5546484}, {"type": "node", "id": 1820408689, "lat": 12.975608, "lon": 77.5553564, "tags": {"code": "MIRD", "name": "Magadi Road", "name:kn": "\u0cae\u0cbe\u0c97\u0ca1\u0cbf \u0cb0\u0cb8\u0ccd\u0ca4\u0cc6", "network": "Namma Metro", "note": "Contributors are requested to not edit the \"network\" and the \"operator\" tags. (2023/11/08)", "operator": "Bangalore Metro Rail Corporation Limited", "platforms": "2", "public_transport": "stop_position", "public_transport:version": "2", "railway": "stop", "source": "http://www.bmrc.co.in/English/Network.htm", "subway": "yes", "wheelchair": "yes", "wikidata": "Q23838569", "wikipedia": "en:Magadi Road metro station"}}, {"type": "node", "id": 1820408690, "lat": 12.9757685, "lon": 77.559672}, {"type": "node", "id": 1820408691, "lat": 12.9753929, "lon": 77.5529758}, {"type": "node", "id": 1820408692, "lat": 12.9755571, "lon": 77.5538177}, {"type": "node", "id": 1820408693, "lat": 12.9757606, "lon": 77.5585374}, {"type": "node", "id": 1820408694, "lat": 12.9754608, "lon": 77.5531555}, {"type": "node", "id": 1820408696, "lat": 12.9756979, "lon": 77.5575517}, {"type": "node", "id": 1820408697, "lat": 12.9751733, "lon": 77.5525761}, {"type": "node", "id": 1820408698, "lat": 12.9756026, "lon": 77.5623185}, {"type": "node", "id": 1820408699, "lat": 12.9757464, "lon": 77.5603759}, {"type": "node", "id": 1820408701, "lat": 12.9755937, "lon": 77.5626742}, {"type": "node", "id": 1820408705, "lat": 12.9756402, "lon": 77.5634133}, {"type": "node", "id": 1820408706, "lat": 12.9755288, "lon": 77.5535363}, {"type": "node", "id": 1820408707, "lat": 12.9756176, "lon": 77.5556391}, {"type": "node", "id": 1820408708, "lat": 12.9756992, "lon": 77.5611258}, {"type": "node", "id": 1820408709, "lat": 12.9755052, "lon": 77.5533754}, {"type": "node", "id": 1820408710, "lat": 12.9757071, "lon": 77.5577569}, {"type": "node", "id": 1820408711, "lat": 12.9756678, "lon": 77.5617293}, {"type": "node", "id": 1820408713, "lat": 12.9756783, "lon": 77.5572138}, {"type": "node", "id": 1820408714, "lat": 12.9756385, "lon": 77.5564974}, {"type": "node", "id": 1820408715, "lat": 12.9756099, "lon": 77.562966}, {"type": "node", "id": 1820408716, "lat": 12.9756205, "lon": 77.5559117}, {"type": "node", "id": 1820408717, "lat": 12.9756257, "lon": 77.5562067}, {"type": "node", "id": 1820408718, "lat": 12.9750661, "lon": 77.5524125}, {"type": "node", "id": 1820408719, "lat": 12.9755941, "lon": 77.5549444}, {"type": "node", "id": 1820408721, "lat": 12.9757201, "lon": 77.5606269}, {"type": "node", "id": 1820408723, "lat": 12.9757646, "lon": 77.5600596}, {"type": "node", "id": 1820408727, "lat": 12.9757776, "lon": 77.5591932}, {"type": "node", "id": 1820408729, "lat": 12.9757384, "lon": 77.558182}, {"type": "node", "id": 1820408731, "lat": 12.9757802, "lon": 77.558929}, {"type": "node", "id": 1820410900, "lat": 12.9756889, "lon": 77.5636781, "tags": {"highway": "bus_stop", "name": "1st Cross Magadi Road", "name:en": "1st Cross Magadi Road", "name:kn": "\u0cae\u0cbe\u0c97\u0ca1\u0cbf \u0cb0\u0cb8\u0ccd\u0ca4\u0cc6 \u0ce7\u0ca8\u0cc7 \u0c85\u0ca1\u0ccd\u0ca1", "network": "BMTC", "operator": "BMTC", "public_transport": "platform"}}, {"type": "node", "id": 1820411782, "lat": 12.9756577, "lon": 77.5603926, "tags": {"bus": "yes", "highway": "bus_stop", "name": "5th Cross Magadi Road", "name:en": "5th Cross Magadi Road", "name:kn": "\u0cae\u0cbe\u0c97\u0ca1\u0cbf \u0cb0\u0cb8\u0ccd\u0ca4\u0cc6 \u0ceb\u0ca8\u0cc7 \u0c85\u0ca1\u0ccd\u0ca1", "network": "BMTC", "network:wikidata": "Q3345039", "operator": "BMTC", "public_transport": "platform", "wheelchair": "limited"}}, {"type": "node", "id": 1820411843, "lat": 12.9755367, "lon": 77.5564866, "tags": {"bench": "yes", "covered": "yes", "highway": "bus_stop", "name": "10th Cross Magadi Road", "name:en": "10th Cross Magadi Road", "name:kn": "\u0cae\u0cbe\u0c97\u0ca1\u0cbf \u0cb0\u0cb8\u0ccd\u0ca4\u0cc6 \u0ce7\u0ce6\u0ca8\u0cc7 \u0c85\u0ca1\u0ccd\u0ca1", "network": "BMTC", "operator": "BMTC", "public_transport": "platform", "shelter": "yes"}}, {"type": "node", "id": 1820425367, "lat": 12.974073, "lon": 77.5509453, "tags": {"bus": "yes", "highway": "bus_stop", "loc_name": "Magadi Road", "name": "Prasanna Talkies", "name:kn": "\u0caa\u0ccd\u0cb0\u0cb8\u0ca8\u0ccd\u0ca8 \u0c9a\u0cbf\u0ca4\u0ccd\u0cb0\u0cae\u0c82\u0ca6\u0cbf\u0cb0", "public_transport": "platform"}}, {"type": "node", "id": 1820435756, "lat": 12.9746245, "lon": 77.5490047, "tags": {"bus": "yes", "highway": "bus_stop", "loc_name": "VIDYARANYA NAGARA", "name": "Toll Gate", "public_transport": "platform"}}, {"type": "node", "id": 1835344435, "lat": 12.9084977, "lon": 77.538512, "tags": {"bus": "yes", "highway": "bus_stop", "name": "Arehalli", "name:en": "Arehalli", "name:kn": "\u0c85\u0cb0\u0cc7\u0cb9\u0cb3\u0ccd\u0cb3\u0cbf", "network": "BMTC", "network:wikidata": "Q3345039", "operator": "BMTC", "public_transport": "platform"}}, {"type": "node", "id": 1835344726, "lat": 12.9115581, "lon": 77.5582157, "tags": {"alt_name": "Prarthana School,Padmanabha Nagara", "highway": "bus_stop", "name": "Prarthana School", "name:en": "Prarthana School", "name:kn": "\u0caa\u0ccd\u0cb0\u0cbe\u0cb0\u0ccd\u0ca5\u0ca8\u0cbe \u0cb6\u0cbe\u0cb2\u0cc6", "network": "BMTC", "operator": "BMTC", "public_transport": "platform"}}, {"type": "node", "id": 1835344839, "lat": 12.9158217, "lon": 77.5693057, "tags": {"bench": "yes", "covered": "yes", "highway": "bus_stop", "loc_name": "BANASHANKRI 2ND STAGE", "name": "Yarab Nagara", "name:en": "Yarab Nagara", "network": "BMTC", "operator": "BMTC", "public_transport": "platform", "shelter": "yes"}}, {"type": "node", "id": 1835344951, "lat": 12.9296555, "lon": 77.5147243, "tags": {"alt_name": "RR School", "bench": "no", "covered": "no", "highway": "bus_stop", "loc_name": "RAJESHWARI NAGARA", "name": "Raja Rajeshwari School", "name:en": "Raja Rajeshwari School", "name:kn": "\u0cb0\u0cbe\u0c9c\u0cb0\u0cbe\u0c9c\u0cc7\u0cb6\u0ccd\u0cb5\u0cb0\u0cbf \u0cb6\u0cbe\u0cb2\u0cc6", "network": "BMTC", "operator": "BMTC", "public_transport": "platform", "shelter": "no"}}, {"type": "node", "id": 1835530182, "lat": 12.9067912, "lon": 77.5122943, "tags": {"highway": "bus_stop", "loc_name": "SRINIVASAPURA", "name": "Glass House Halage Vaderahalli", "name:en": "Glass House Halage Vaderahalli", "network": "BMTC", "operator": "BMTC", "public_transport": "platform"}}, {"type": "node", "id": 1835530191, "lat": 12.9078152, "lon": 77.5094358, "tags": {"bus": "yes", "highway": "bus_stop", "name": "BHEL Concrode Layout", "public_transport": "platform"}}, {"type": "node", "id": 1835530545, "lat": 12.9195676, "lon": 77.5115655, "tags": {"highway": "bus_stop", "name": "Pattanagere", "name:kn": "\u0caa\u0c9f\u0ccd\u0c9f\u0ca3\u0c97\u0cc6\u0cb0\u0cc6"}}, {"type": "node", "id": 1835530763, "lat": 12.9269842, "lon": 77.5111944, "tags": {"highway": "bus_stop", "loc_name": "RAJESHWARI NAGARA", "name": "Raja Rajeshwari Temple", "name:en": "Raja Rajeshwari Temple", "name:kn": "\u0cb0\u0cbe\u0c9c\u0cb0\u0cbe\u0c9c\u0cc7\u0cb6\u0ccd\u0cb5\u0cb0\u0cbf", "network": "BMTC", "operator": "BMTC", "public_transport": "platform"}}, {"type": "node", "id": 1836940132, "lat": 12.9433354, "lon": 77.5658489, "tags": {"highway": "bus_stop", "name": "Hanumantha Nagara Ward Office"}}, {"type": "node", "id": 1836940205, "lat": 12.9495184, "lon": 77.5799728, "tags": {"bus": "yes", "name": "Lalbagh West Gate, V V Puram", "name:en": "Lalbagh West Gate, V V Puram", "network": "BMTC", "operator": "BMTC", "public_transport": "stop_position"}},