{"version": 0.6, "generator": "Overpass API 0.7.62.8 e802775f", "osm3s": {"timestamp_osm_base": "2026-01-11T13:49:15Z", "copyright": "The data included in this document is from www.openstreetmap.org. The data is made available under ODbL."}, "elements": [{"type": "node", "id": 6532251947, "lat": 17.2650146, "lon": 78.3913285}, {"type": "node", "id": 6532353268, "lat": 17.2064934, "lon": 78.4762739, "tags": {"addr:district": "Ranga Reddy", "addr:full": "Beside Petrol Bunk, Thukkuguda Main Road , Maheshwaram mandal", "addr:postcode": "501359", "addr:state": "Telangana", "amenity": "hospital", "name": "Lakshmi Hospital", "source": "OpenGovernmentData"}}, {"type": "node", "id": 6532359624, "lat": 17.2651172, "lon": 78.3888899}, {"type": "node", "id": 6532359626, "lat": 17.2649415, "lon": 78.3888369}, {"type": "node", "id": 6532359627, "lat": 17.2649042, "lon": 78.3889724}, {"type": "node", "id": 6532359628, "lat": 17.2650799, "lon": 78.3890254}, {"type": "node", "id": 6537086759, "lat": 17.2599543, "lon": 78.3840267, "tags": {"addr:district": "Ranga Reddy", "addr:full": "Road No.7, Madhura Nagar, Shamshabad.", "addr:postcode": "501218", "addr:state": "Telangana", "amenity": "hospital", "name": "Trident Hospital", "source": "OpenGovernmentData"}}, {"type": "node", "id": 6548867226, "lat": 17.2602591, "lon": 78.3846268, "tags": {"addr:city": "Hyderabad", "addr:full": "MADHURA NAGAR COLONY, NEAR ICICI BANK,SHAMSHABAD", "addr:postcode": "501218", "addr:state": "Telangana", "amenity": "hospital", "contact:phone": "8413225666; 9502288555", "name": "LIMS HOSPITAL", "operator:type": "Private", "source": "OpenGovernmentData"}}, {"type": "node", "id": 8141436209, "lat": 17.2651956, "lon": 78.3915395}, {"type": "node", "id": 8141436210, "lat": 17.2655864, "lon": 78.3911718}, {"type": "node", "id": 8141436211, "lat": 17.2654054, "lon": 78.3909609}, {"type": "way", "id": 695655536, "nodes": [6532359628, 6532359627, 6532359626, 6532359624, 6532359628], "tags": {"addr:district": "Ranga Reddy", "addr:full": "320-112/3/1, Beside Central Bank Of India, R. B Nagar,Shamshabad.", "addr:postcode": "501218", "addr:state": "Telangana", "amenity": "hospital", "building": "yes", "name": "Vijaya Lakshmi Hospital", "source": "OpenGovernmentData"}}, {"type": "way", "id": 874573425, "nodes": [6532251947, 8141436211, 8141436210, 8141436209, 6532251947], "tags": {"addr:district": "Ranga Reddy", "addr:full": "National Highway7, Shamshabad, Near RGI Airport.", "addr:postcode": "501218", "addr:state": "Telangana", "amenity": "hospital", "name": "Indira Hospital", "source": "OpenGovernmentData"}}]}