{"version": 0.6, "generator": "Overpass API 0.7.62.8 e802775f", "osm3s": {"timestamp_osm_base": "2026-01-15T19:03:15Z", "copyright": "The data included in this document is from www.openstreetmap.org. The data is made available under ODbL."}, "elements": [{"type": "node", "id": 1904801034, "lat": 51.2313699, "lon": 4.3914904}, {"type": "node", "id": 2419217006, "lat": 51.2291184, "lon": 4.3859185}, {"type": "node", "id": 2419217007, "lat": 51.2291408, "lon": 4.3836092}, {"type": "node", "id": 2419217022, "lat": 51.2299233, "lon": 4.3859492}, {"type": "node", "id": 2419217026, "lat": 51.2299649, "lon": 4.3836136}, {"type": "node", "id": 6282250792, "lat": 51.2307073, "lon": 4.3914694}, {"type": "node", "id": 6282250793, "lat": 51.2307264, "lon": 4.3901727}, {"type": "node", "id": 6282250794, "lat": 51.2313905, "lon": 4.3902108}, {"type": "node", "id": 13307050951, "lat": 51.2291362, "lon": 4.3840878}, {"type": "way", "id": 233554259, "nodes": [2419217026, 2419217007, 13307050951, 2419217006, 2419217022, 2419217026], "tags": {"addr:housenumber": "66", "addr:street": "Willem Van Haechtlaan", "amenity": "school", "name": "School aan de Stroom", "website": "https://www.schoolaandestroom.be"}}, {"type": "way", "id": 670854787, "nodes": [1904801034, 6282250792, 6282250793, 6282250794, 1904801034], "tags": {"addr:city": "Antwerpen Linkeroever", "addr:housenumber": "1", "addr:postcode": "2050", "addr:street": "Goethestraat", "amenity": "school", "name": "Sint-Anna Goethe"}}]}