{"version": 0.6, "generator": "Overpass API 0.7.62.8 e802775f", "osm3s": {"timestamp_osm_base": "2026-01-12T01:56:51Z", "copyright": "The data included in this document is from www.openstreetmap.org. The data is made available under ODbL."}, "elements": [{"type": "node", "id": 665132280, "lat": 17.4293162, "lon": 78.533452, "tags": {"addr:district": "Hyderabad", "addr:full": "12-5-30, Whith House, Moulali Road, Tarnaka", "addr:postcode": "500017", "addr:state": "Telangana", "amenity": "hospital", "contact:phone": "040 2700 7272 ; 9000991535", "name": "Innova Children's Heart Hospital", "source": "OpenGovernmentData", "website": "https://www.innovahospitals.in/"}}, {"type": "node", "id": 665132281, "lat": 17.4290954, "lon": 78.5333362, "tags": {"amenity": "hospital", "name": "Apollo Clinic"}}, {"type": "node", "id": 902311398, "lat": 17.4556983, "lon": 78.4984034, "tags": {"addr:street": "Vikrampuri", "amenity": "hospital", "emergency": "yes", "name": "Oxygen Hospital"}}, {"type": "node", "id": 1435322433, "lat": 17.4512881, "lon": 78.5354859, "tags": {"amenity": "hospital", "emergency": "yes", "name": "L.K. Diagnostic"}}, {"type": "node", "id": 1435322445, "lat": 17.4513853, "lon": 78.5352525, "tags": {"addr:district": "Hyderabad", "addr:full": "4-159 & 4-172, Near Raghavendra Theatre, Maruthi Nagar, Malkajgiri", "addr:postcode": "500047", "addr:state": "Telangana", "amenity": "hospital", "emergency": "yes", "name": "L.K. Hospitals", "source": "OpenGovernmentData"}}, {"type": "node", "id": 1438252866, "lat": 17.451435, "lon": 78.5311968, "tags": {"amenity": "hospital", "emergency": "yes", "name": "Dental Hospital"}}, {"type": "node", "id": 2583708951, "lat": 17.4255371, "lon": 78.5306786, "tags": {"amenity": "hospital", "name": "Tarnaka Flyover;TGSRTC Hospital", "place": "locality"}}, {"type": "node", "id": 2583734761, "lat": 17.4241623, "lon": 78.5297591}, {"type": "node", "id": 2583734762, "lat": 17.4250792, "lon": 78.529218}, {"type": "node", "id": 2583734763, "lat": 17.4264175, "lon": 78.5308078}, {"type": "node", "id": 2583734764, "lat": 17.4264585, "lon": 78.5310653}, {"type": "node", "id": 2583734772, "lat": 17.4253171, "lon": 78.5317868}, {"type": "node", "id": 2583734773, "lat": 17.4255961, "lon": 78.5324775}, {"type": "node", "id": 2791962057, "lat": 17.4365665, "lon": 78.4831508}, {"type": "node", "id": 2791962060, "lat": 17.4366445, "lon": 78.4831897}, {"type": "node", "id": 2791962076, "lat": 17.4374173, "lon": 78.4833935}, {"type": "node", "id": 2791962080, "lat": 17.4376017, "lon": 78.4829348}, {"type": "node", "id": 2791962082, "lat": 17.4376589, "lon": 78.4834667}, {"type": "node", "id": 2791962088, "lat": 17.4377234, "lon": 78.4821876}, {"type": "node", "id": 2791962095, "lat": 17.4378995, "lon": 78.4814901}, {"type": "node", "id": 3182207744, "lat": 17.4364397, "lon": 78.482699}, {"type": "node", "id": 3182218374, "lat": 17.4378433, "lon": 78.4815322}, {"type": "node", "id": 3182222862, "lat": 17.4370821, "lon": 78.4833077}, {"type": "node", "id": 3387296810, "lat": 17.4824476, "lon": 78.5527351}, {"type": "node", "id": 3387296811, "lat": 17.48284, "lon": 78.5528812}, {"type": "node", "id": 3387296812, "lat": 17.4827799, "lon": 78.5530589}, {"type": "node", "id": 3387296813, "lat": 17.4823875, "lon": 78.5529129}, {"type": "node", "id": 3387370912, "lat": 17.4762089, "lon": 78.5629604}, {"type": "node", "id": 3387370913, "lat": 17.4762324, "lon": 78.5631948}, {"type": "node", "id": 3387370914, "lat": 17.4765437, "lon": 78.563271}, {"type": "node", "id": 3387370915, "lat": 17.4765269, "lon": 78.5630336}, {"type": "node", "id": 3506878894, "lat": 17.44165, "lon": 78.5218514, "tags": {"addr:district": "Hyderabad", "addr:full": "Sai Ranga Towers, North Lallaguda, Tukaram Gate", "addr:postcode": "500026", "addr:state": "Telangana", "amenity": "hospital", "building": "yes", "email": "meenahospital@yahoo.com", "name": "Meena Hospital", "phone": "040 2773 0674", "source": "OpenGovernmentData", "website": "www.meenahospital.in"}}, {"type": "node", "id": 3533084115, "lat": 17.4289946, "lon": 78.5120703, "tags": {"addr:district": "Hyderabad", "addr:full": "H. No: 11-4-523, Near Gandhi Statue and Chilkalguda Bus Stop, Chilkalguda, Secunderabad", "addr:postcode": "500025", "addr:state": "Telangana", "amenity": "hospital", "contact:email": "info@lifespring.in", "contact:phone": "+91 7893851613", "healthcare": "hospital", "name": "Life Spring Hospitals", "source": "OpenGovernmentData"}}, {"type": "node", "id": 3598267888, "lat": 17.4631717, "lon": 78.4904751, "tags": {"amenity": "hospital", "emergency": "no", "name": "Janapareddy Hospital"}}, {"type": "node", "id": 3614774687, "lat": 17.4685801, "lon": 78.4895471}, {"type": "node", "id": 3614774696, "lat": 17.468604, "lon": 78.4894077}, {"type": "node", "id": 3614774839, "lat": 17.4688871, "lon": 78.4896576}, {"type": "node", "id": 3614774844, "lat": 17.4688958, "lon": 78.4896067}, {"type": "node", "id": 3614774894, "lat": 17.4690011, "lon": 78.4896791}, {"type": "node", "id": 3614774908, "lat": 17.4690338, "lon": 78.4894888}, {"type": "node", "id": 3616927598, "lat": 17.4692052, "lon": 78.5649072}, {"type": "node", "id": 3616927631, "lat": 17.4692827, "lon": 78.5647678}, {"type": "node", "id": 3616927643, "lat": 17.4693068, "lon": 78.5649694}, {"type": "node", "id": 3616927674, "lat": 17.4693843, "lon": 78.5648299}, {"type": "node", "id": 3617223289, "lat": 17.4502067, "lon": 78.5350026}, {"type": "node", "id": 3617223292, "lat": 17.4502139, "lon": 78.5349168}, {"type": "node", "id": 3617223522, "lat": 17.450312, "lon": 78.5350123}, {"type": "node", "id": 3617223525, "lat": 17.4503191, "lon": 78.5349265}, {"type": "node", "id": 3617224045, "lat": 17.4507987, "lon": 78.5340616}, {"type": "node", "id": 3617224055, "lat": 17.4509845, "lon": 78.533685}, {"type": "node", "id": 3617224234, "lat": 17.4512422, "lon": 78.5338443}, {"type": "node", "id": 3618963151, "lat": 17.4414164, "lon": 78.4973343}, {"type": "node", "id": 3618963164, "lat": 17.4414973, "lon": 78.4967979}, {"type": "node", "id": 3618963914, "lat": 17.4420799, "lon": 78.4974727}, {"type": "node", "id": 3618963919, "lat": 17.4421843, "lon": 78.4969024}, {"type": "node", "id": 3619549990, "lat": 17.4349313, "lon": 78.5065075}, {"type": "node", "id": 3619550003, "lat": 17.4350139, "lon": 78.5067982}, {"type": "node", "id": 3619550048, "lat": 17.4354726, "lon": 78.5063385}, {"type": "node", "id": 3619550068, "lat": 17.4355552, "lon": 78.5066292}, {"type": "node", "id": 3624691519, "lat": 17.4404466, "lon": 78.4859754}, {"type": "node", "id": 3624691532, "lat": 17.4405578, "lon": 78.4862098}, {"type": "node", "id": 3624691538, "lat": 17.4406209, "lon": 78.4858919}, {"type": "node", "id": 3624691563, "lat": 17.440743, "lon": 78.4861721}, {"type": "node", "id": 3624692073, "lat": 17.4414062, "lon": 78.4865667}, {"type": "node", "id": 3624692074, "lat": 17.4414088, "lon": 78.486353}, {"type": "node", "id": 3624692083, "lat": 17.441446, "lon": 78.4863535}, {"type": "node", "id": 3624692084, "lat": 17.4414467, "lon": 78.4862911}, {"type": "node", "id": 3624692091, "lat": 17.4414996, "lon": 78.4862918}, {"type": "node", "id": 3624692092, "lat": 17.4415005, "lon": 78.4862205}, {"type": "node", "id": 3624692297, "lat": 17.4415609, "lon": 78.4865688}, {"type": "node", "id": 3624692298, "lat": 17.4415627, "lon": 78.4864147}, {"type": "node", "id": 3624692313, "lat": 17.4417456, "lon": 78.4864172}, {"type": "node", "id": 3624692314, "lat": 17.441748, "lon": 78.4862238}, {"type": "node", "id": 3655193068, "lat": 17.4401606, "lon": 78.4976879}, {"type": "node", "id": 3655193075, "lat": 17.4402251, "lon": 78.4974368}, {"type": "node", "id": 3655193099, "lat": 17.4403352, "lon": 78.4977372}, {"type": "node", "id": 3655193114, "lat": 17.4403997, "lon": 78.497486}, {"type": "node", "id": 3658594189, "lat": 17.4476651, "lon": 78.5091106}, {"type": "node", "id": 3658594191, "lat": 17.4477135, "lon": 78.5087658}, {"type": "node", "id": 3658594202, "lat": 17.4478774, "lon": 78.5091563}, {"type": "node", "id": 3658594206, "lat": 17.4479283, "lon": 78.5089814}, {"type": "node", "id": 3658594220, "lat": 17.448006, "lon": 78.5088077}, {"type": "node", "id": 3661096838, "lat": 17.4408248, "lon": 78.4866798}, {"type": "node", "id": 3661096839, "lat": 17.4409176, "lon": 78.4866454}, {"type": "node", "id": 3661096840, "lat": 17.4409469, "lon": 78.4868859}, {"type": "node", "id": 3661096845, "lat": 17.4410723, "lon": 78.4870252}, {"type": "node", "id": 3661096847, "lat": 17.441099, "lon": 78.4870611}, {"type": "node", "id": 3661096850, "lat": 17.4412698, "lon": 78.4872101}, {"type": "node", "id": 3661096852, "lat": 17.4413694, "lon": 78.4871434}, {"type": "node", "id": 3661096853, "lat": 17.4414378, "lon": 78.4869656}, {"type": "node", "id": 3661096854, "lat": 17.4414445, "lon": 78.4871434}, {"type": "node", "id": 3661096855, "lat": 17.4415045, "lon": 78.4869447}, {"type": "node", "id": 3661096856, "lat": 17.4415051, "lon": 78.4869642}, {"type": "node", "id": 3661096857, "lat": 17.4415132, "lon": 78.4866978}, {"type": "node", "id": 3661096858, "lat": 17.4415209, "lon": 78.4869449}, {"type": "node", "id": 3681791850, "lat": 17.4376497, "lon": 78.4827504}, {"type": "node", "id": 4146007084, "lat": 17.4387847, "lon": 78.4987364}, {"type": "node", "id": 4146007191, "lat": 17.438834, "lon": 78.4985547}, {"type": "node", "id": 4146007201, "lat": 17.4388915, "lon": 78.4987682}, {"type": "node", "id": 4146007203, "lat": 17.4389407, "lon": 78.4985865}, {"type": "node", "id": 4146349126, "lat": 17.4394356, "lon": 78.5049106}, {"type": "node", "id": 4146349129, "lat": 17.4394931, "lon": 78.5044654}, {"type": "node", "id": 4146349142, "lat": 17.439641, "lon": 78.5047977}, {"type": "node", "id": 4146349144, "lat": 17.4396667, "lon": 78.5049434}, {"type": "node", "id": 4146349145, "lat": 17.4396805, "lon": 78.504492}, {"type": "node", "id": 4146349146, "lat": 17.4396847, "lon": 78.5048039}, {"type": "node", "id": 4146479964, "lat": 17.4399864, "lon": 78.4977331}, {"type": "node", "id": 4146479965, "lat": 17.4400065, "lon": 78.4976718}, {"type": "node", "id": 4146479975, "lat": 17.4401054, "lon": 78.497776}, {"type": "node", "id": 4146479976, "lat": 17.4401255, "lon": 78.4977148}, {"type": "node", "id": 4146661495, "lat": 17.4402051, "lon": 78.5049218}, {"type": "node", "id": 4146661496, "lat": 17.4402935, "lon": 78.5041986}, {"type": "node", "id": 4146661497, "lat": 17.440712, "lon": 78.5049879}, {"type": "node", "id": 4146661498, "lat": 17.4408053, "lon": 78.5042691}, {"type": "node", "id": 4366549489, "lat": 17.4377225, "lon": 78.521976, "tags": {"amenity": "hospital", "healthcare": "hospital", "name:en": "South Central Railway Central Hospital Lallaguda"}}, {"type": "node", "id": 4614088290, "lat": 17.4410398, "lon": 78.4869976, "tags": {"highway": "emergency_access_point", "name": "Accidents & Emergency"}}, {"type": "node", "id": 4614088291, "lat": 17.4411875, "lon": 78.4869617}, {"type": "node", "id": 4614088292, "lat": 17.4413415, "lon": 78.4871156}, {"type": "node", "id": 4614088293, "lat": 17.4411634, "lon": 78.4869376}, {"type": "node", "id": 4614088294, "lat": 17.4409721, "lon": 78.4867034}, {"type": "node", "id": 4715099192, "lat": 17.4439091, "lon": 78.5043433, "tags": {"addr:district": "Hyderabad", "addr:full": "241, Uma Plaza, Road No. 9, West Maredpally, Secunderabad", "addr:postcode": "500026", "addr:state": "Telangana", "alt_name": "Pushpagiri Vitreo Retinal Institute", "amenity": "hospital", "contact:email": "pvri.india@gmail.com", "contact:phone": "040-27804949/5959", "healthcare": "hospital", "name": "Pushpagiri Eye Institute", "shop": "optician", "source": "OpenGovernmentData", "website": "https://pvri.org"}}, {"type": "node", "id": 5773420134, "lat": 17.446158, "lon": 78.5383502, "tags": {"addr:district": "Hyderabad", "addr:full": "10-191/2, Vasanthpuri Colony, Malkajgiri", "addr:postcode": "500047", "addr:state": "Telangana", "amenity": "hospital", "name": "Anukrushna Hospitals", "source": "OpenGovernmentData"}}, {"type": "node", "id": 6177956183, "lat": 17.4571109, "lon": 78.5465732, "tags": {"addr:city": "hyderabad", "addr:housenumber": "25-40/63", "addr:postcode": "500047", "addr:street": "Rajus Dental Clinic, H no 25-40/63, Opposite Andhra Bank,   East anandbagh Main Road, Malkajgiri, Hyderabad", "amenity": "hospital", "emergency": "yes", "healthcare": "hospital", "healthcare:speciality": "dentist", "name": "RAJUS DENTAL", "operator": "Mohan Raju", "phone": "+916303771301", "source": "Dental Clinic", "website": "https://rajusdental.com/"}}, {"type": "node", "id": 6185287784, "lat": 17.4417011, "lon": 78.4973943}, {"type": "node", "id": 6442939706, "lat": 17.4371236, "lon": 78.4833183}, {"type": "node", "id": 6479951769, "lat": 17.4553191, "lon": 78.5008281, "tags": {"addr:district": "Hyderabad", "addr:full": "Plot C 17, Vikrampuri Colony, Secunderabad", "addr:state": "Telangana", "amenity": "hospital", "contact:tollfree": "1801 2122", "fax": "040 27899090", "healthcare:speciality": "General Pediatrics;Neonatology;Pediatric Neurology;Anasthesia and Pain Management;Pediatric Gastroenterology;Pediatric Nephrology;Hematology & Oncology;ENT;Psychiatry;Pediatric Cardiology;Speech & Language Therapy;Physiotherapy and Rehabilitation Unit etc", "medical_system": "Allopathic", "name": "Rainbow Hospital for Women and Children, Secunderabad", "operator:type": "private", "phone": "040 27895050;040 27896060", "source": "OpenGovernmentData", "website": "https://www.rainbowhospitals.in/"}}, {"type": "node", "id": 6480099631, "lat": 17.4760702, "lon": 78.5640143, "tags": {"addr:district": "Hyderabad", "addr:full": "1-7-43-457/206, Near Asian Radhika Multiplex, Maheshnagar, ECIL Post, Kapra", "addr:postcode": "500062", "addr:state": "Telangana", "amenity": "hospital", "name": "Aruna Hospital", "source": "OpenGovernmentData"}}, {"type": "node", "id": 6481937416, "lat": 17.458369, "lon": 78.5378788, "tags": {"addr:district": "Hyderabad", "addr:full": "24-112/1, Anandbagh 'X' Roads, Malkajgiri", "addr:postcode": "500047", "addr:state": "Telangana", "amenity": "hospital", "name": "ADR Hospital", "source": "OpenGovernmentData"}}, {"type": "node", "id": 6482100116, "lat": 17.4878467, "lon": 78.5647274, "tags": {"addr:district": "Hyderabad", "addr:full": "1-1-211, Sai Priya Colony, Beside Old Municipal Kapra Office, Kapra", "addr:postcode": "500062", "addr:state": "Telangana", "amenity": "hospital", "contact:phone": "040-64621340", "name": "New Life Line Multi Specialty Hospital", "source": "OpenGovernmentData"}}, {"type": "node", "id": 6484699042, "lat": 17.447062, "lon": 78.5082445, "tags": {"addr:district": "Hyderabad", "addr:full": "Road No.4, West Marredpally, Secunderabad", "addr:postcode": "500026", "addr:state": "Telangana", "amenity": "hospital", "email": "geethahospitals@gmail.com", "fax": "040 27716287", "name": "Geetha Multi Speciality Hospital", "phone": "040-27800703; 040-27801272; 040-27802138", "source": "OpenGovernmentData", "website": "https://www.geethahospitals.com/"}}, {"type": "node", "id": 6484867650, "lat": 17.4593374, "lon": 78.5004204, "tags": {"addr:district": "Hyderabad", "addr:full": "Plot No A-7, Vikrampuri Colony, Karkhana", "addr:postcode": "500009", "addr:state": "Telangana", "amenity": "hospital", "name": "Nest Children's Hospital", "source": "OpenGovernmentData"}}, {"type": "node", "id": 6484884147, "lat": 17.4396489, "lon": 78.4991692, "tags": {"addr:district": "Hyderabad", "addr:full": "9-1-192, St. Marys Road, Secunderabad", "addr:postcode": "500003", "addr:state": "Telangana", "amenity": "hospital", "email": "info@mamatafertility.com", "healthcare": "hospital", "name": "Mamata Fertility Hospital", "old_name": "Infertility Institute and Research Centre Pvt. Ltd (IIRC)", "phone": "040-45678899; 040-27701414; 040-27700150; 040-27719471", "source": "OpenGovernmentData", "website": "https://www.mamatafertility.com/"}}, {"type": "node", "id": 6484905715, "lat": 17.4738034, "lon": 78.5692647, "tags": {"addr:district": "Hyderabad", "addr:full": "D.No. 1-7-226, Kamala Nagar, Opposite Water Tank, ECIL Post", "addr:postcode": "500062", "addr:state": "Telangana", "amenity": "hospital", "name": "Soorya Orthopaedic Hospital", "source": "OpenGovernmentData"}}, {"type": "node", "id": 6485002885, "lat": 17.4769771, "lon": 78.5627764, "tags": {"addr:district": "Hyderabad", "addr:full": "100, Anupuram, E.C.I.L Post.", "addr:postcode": "500062", "addr:state": "Telangana", "amenity": "hospital", "name": "Thatha Hospital", "source": "OpenGovernmentData"}}, {"type": "node", "id": 6485236733, "lat": 17.4500557, "lon": 78.5115261, "tags": {"addr:district": "Hyderabad", "addr:full": "Plot No 23 & 24, Sanjeev Hosping Colony East Marredpally", "addr:postcode": "500026", "addr:state": "Telangana", "amenity": "hospital", "name": "Tanvi Eye Center", "source": "OpenGovernmentData"}}, {"type": "node", "id": 6485435755, "lat": 17.4837017, "lon": 78.5373142, "tags": {"addr:district": "Hyderabad", "addr:full": "Plot No: 610, Defence Colony, Neredmet 'X' Roads, Secunderabad", "addr:postcode": "500094", "addr:state": "Telangana", "amenity": "hospital", "name": "Meda Hospital Pvt. Ltd", "source": "OpenGovernmentData"}}, {"type": "node", "id": 6485663642, "lat": 17.4409578, "lon": 78.5020941, "tags": {"addr:district": "Hyderabad", "addr:full": "Plot No. 43, Opp. St Mary's Church, S.D Road", "addr:postcode": "500003", "addr:state": "Telangana", "amenity": "hospital", "healthcare": "hospital", "name": "Madhava Nursing Home", "source": "OpenGovernmentData"}}, {"type": "node", "id": 6485873602, "lat": 17.4350761, "lon": 78.5028817, "tags": {"addr:district": "Hyderabad", "addr:full": "9-4-269, Regimental Bazar, Opp Main Gate", "addr:postcode": "500025", "addr:state": "Telangana", "amenity": "hospital", "healthcare": "hospital", "name": "Saluja Hospital", "source": "OpenGovernmentData"}}, {"type": "node", "id": 6486059355, "lat": 17.4810002, "lon": 78.5334009, "tags": {"addr:district": "Hyderabad", "addr:full": "35-601/1, G K Colony, Sainikpuri", "addr:postcode": "500094", "addr:state": "Telangana", "amenity": "hospital", "name": "Rishab Eye Centre", "source": "OpenGovernmentData"}}, {"type": "node", "id": 6486935781, "lat": 17.4255423, "lon": 78.5340929, "tags": {"addr:district": "Hyderabad", "addr:full": "401 to 404, 4th Floor, Tara Tycoon Tower, Opp. Aradhana Theatre, Tarnaka", "addr:postcode": "500017", "addr:state": "Telangana", "amenity": "hospital", "name": "Anand Vitreo Retina Institute Pvt Ltd", "source": "OpenGovernmentData"}}, {"type": "node", "id": 6486941192, "lat": 17.4775643, "lon": 78.5529341, "tags": {"addr:district": "Hyderabad", "addr:full": "Plot No.7, Pragathinagar, Officers Colony, Sainatupuram, Saibaba Temple Road, Besides Karur Vysya Bank", "addr:postcode": "500062", "addr:state": "Telangana", "amenity": "hospital", "name": "Vanaja Hospitals", "source": "OpenGovernmentData"}}, {"type": "node", "id": 6487033522, "lat": 17.4812995, "lon": 78.5563056, "tags": {"addr:district": "Hyderabad", "addr:full": "Plot No.4, Thyagaraya Nagar, Dr. A.S. Rao Nagar, Secunderabad", "addr:postcode": "500062", "addr:state": "Telangana", "amenity": "hospital", "contact:email": "geetanjali_ivf@yahoo.com", "name": "Geetanjali Test Tube Baby Centre", "phone": "040-27127676", "source": "OpenGovernmentData", "website": "https://www.geetanjaliivf.com"}}, {"type": "node", "id": 6487281382, "lat": 17.4502892, "lon": 78.5099416, "tags": {"addr:district": "Secunderabad", "addr:full": "1st & 2nd Floor, Gude\u2019s Plaza, Above ICICI Bank, #77, Seshachala Colony, East Marredpally main Road", "addr:postcode": "500026", "addr:state": "Telangana", "amenity": "hospital", "name": "NephroPlus Dialysis Centre", "phone": "040-40063765", "source": "OpenGovernmentData", "website": "https://www.nephroplus.com/"}}, {"type": "node", "id": 6487647064, "lat": 17.4825166, "lon": 78.5510686, "tags": {"addr:district": "Hyderabad", "addr:full": "Sainikpuri, Secunderabad", "addr:postcode": "500094", "addr:state": "Telangana", "amenity": "hospital", "name": "Bhavan's Sarada Devi Hospital", "source": "OpenGovernmentData"}}, {"type": "node", "id": 6487654694, "lat": 17.4549634, "lon": 78.5087728, "tags": {"addr:district": "Hyderabad", "addr:full": "Plot No. 18, Indrapuri Railway Colony, West Marredpally", "addr:postcode": "500026", "addr:state": "Telangana", "amenity": "hospital", "fax": "040 27712131", "name": "Sree Maruthi Nursing Home", "source": "OpenGovernmentData"}}, {"type": "node", "id": 6487670042, "lat": 17.4565491, "lon": 78.5014417, "tags": {"addr:district": "Hyderabad", "addr:full": "E-30,31 Vikrampuri Colony", "addr:postcode": "500003", "addr:state": "Telangana", "amenity": "hospital", "fax": "27814173", "name": "Parvathi Multispeciality Hospital", "source": "OpenGovernmentData"}}, {"type": "node", "id": 6487685466, "lat": 17.5028854, "lon": 78.5132843, "tags": {"addr:district": "Hyderabad", "addr:full": "8-84, Temple Road, Alwal", "addr:postcode": "500010", "addr:state": "Telangana", "amenity": "hospital", "name": "Sundari Maternity and General Hospital", "source": "OpenGovernmentData"}}, {"type": "node", "id": 6487879316, "lat": 17.4751261, "lon": 78.5394748, "tags": {"addr:district": "Hyderabad", "addr:full": "29-75/6E, Kakatiya Nagar, Near Old Police Station, Neredmet, Secunderabad", "addr:postcode": "500056", "addr:state": "Telangana", "amenity": "hospital", "name": "Sriya Hospital", "source": "OpenGovernmentData", "website": "http://www.sriyahospital.com"}}, {"type": "node", "id": 6487901010, "lat": 17.4951472, "lon": 78.5130295, "tags": {"addr:district": "Hyderabad", "addr:full": "Next To Hanuman Temple Main Road Lothkunta (Alwal) ad", "addr:postcode": "500015", "addr:state": "Telangana", "amenity": "hospital", "name": "Jayaprada Hospital", "source": "OpenGovernmentData"}}, {"type": "node", "id": 6488677506, "lat": 17.4747705, "lon": 78.5678552, "tags": {"addr:district": "Hyderabad", "addr:full": "1-7-100, Kamala Nagar, ECIL 'X' Road", "addr:postcode": "500062", "addr:state": "Telangana", "amenity": "hospital", "name": "Raghavendra Hospital", "source": "OpenGovernmentData"}}, {"type": "node", "id": 6489613991, "lat": 17.4571396, "lon": 78.5631077, "tags": {"addr:district": "Hyderabad", "addr:full": "APHB Colony, Meerpet, Moula-Ali", "addr:postcode": "500040", "addr:state": "Telangana", "amenity": "hospital", "name": "M S Reddy Lions Eye Hospital", "source": "OpenGovernmentData"}}, {"type": "node", "id": 6490857331, "lat": 17.4281006, "lon": 78.5170508, "tags": {"addr:district": "Hyderabad", "addr:full": "11-1-15, Seethaphalmandi", "addr:postcode": "500061", "addr:state": "Telangana", "amenity": "hospital", "healthcare": "hospital", "name": "Krishna Maternity And Nursing Home", "source": "OpenGovernmentData"}}, {"type": "node", "id": 6491348622, "lat": 17.4364471, "lon": 78.4961886, "tags": {"addr:district": "Hyderabad", "addr:full": "H.No. 7-1-684 & 685/A, Market Street, Secunderabad", "addr:postcode": "500003", "addr:state": "Telangana", "amenity": "hospital", "name": "Aravind Nursing Home", "source": "OpenGovernmentData"}}, {"type": "node", "id": 6491359724, "lat": 17.49926, "lon": 78.5129283, "tags": {"addr:district": "Hyderabad", "addr:full": "Behind Satya Petrol Pump, Alwal", "addr:postcode": "500010", "addr:state": "Telangana", "amenity": "hospital", "name": "G.N.R. Multispeciality Hospital", "source": "OpenGovernmentData"}}, {"type": "node", "id": 6494135269, "lat": 17.4711657, "lon": 78.5050875, "tags": {"addr:district": "Hyderabad", "addr:full": "Plot No-136, S. P. Colony , Trimulgherry", "addr:postcode": "500015", "addr:state": "Telangana", "amenity": "hospital", "name": "Pratibha Maternity Home", "source": "OpenGovernmentData"}}, {"type": "node", "id": 6494422626, "lat": 17.4458107, "lon": 78.504999, "tags": {"addr:city": "Hyderabad", "addr:district": "Rangareddy", "addr:full": "10-2-256, West Maredpally", "addr:postcode": "500026", "addr:state": "Telangana", "amenity": "hospital", "contact:phone": "04066329777; 27800716", "email": "secunderabadnursinghome@gmail.com", "fax": "27800717", "name": "SECUNDERABAD NURSING HOME", "operator:type": "private", "phone": "04040061181", "source": "OpenGovernmentData"}}, {"type": "node", "id": 6494810755, "lat": 17.4404883, "lon": 78.4978656, "tags": {"addr:district": "Hyderabad", "addr:full": "Door No 8-1-5/7, Janak Plaza, Clock Tower, Secunderabad", "addr:postcode": "500003", "addr:state": "Telangana", "amenity": "hospital", "fax": "0877 27801920", "health_facility:type": "Separate Divisions for Each Speciality;State Of The Art Operation Theatres;Post Op Lounge with Beds;Advanced Eye Care Equipment;Complete Range of Optical Frames and Lenses;Exclusive Childrens Eye Care;24 7 Pharmacy;Ambulance Services", "healthcare": "hospital", "healthcare:speciality": "Cataract Services;Refractive Surgery;Cornea Services;Glaucoma Services;Retina Services;Paediatric Ophthalmology and Squint Services;Oculoplasty Services;UVEITIS;Neuro Ophthalmology;Vision Rehabilitation Services;Computer Vision Syndrome Clinic", "medical_system": "Allopathic", "name": "Vasan Healthcare Private Limited, Secunderabad", "name:te": "\u0c35\u0c3e\u0c38\u0c28\u0c4d \u0c39\u0c46\u0c32\u0c4d\u0c24\u0c4d \u0c15\u0c47\u0c30\u0c4d \u0c2a\u0c4d\u0c30\u0c48\u0c35\u0c47\u0c1f\u0c4d \u0c32\u0c3f\u0c2e\u0c3f\u0c1f\u0c46\u0c21\u0c4d \u0c38\u0c3f\u0c15\u0c3f\u0c02\u0c26\u0c4d\u0c30\u0c3e\u0c2c\u0c3e\u0c26\u0c4d", "operator:type": "private", "phone": "040 30957400", "source": "OpenGovernmentData", "website": "https://vasaneye.com/"}}, {"type": "node", "id": 6494829945, "lat": 17.4936174, "lon": 78.5127834, "tags": {"addr:district": "Hyderabad", "addr:full": "5-Saraswathi Nagar,Lothkunta", "addr:postcode": "500015", "addr:state": "Telangana", "amenity": "hospital", "name": "Devi Maternity Home", "source": "OpenGovernmentData"}}, {"type": "node", "id": 6495079282, "lat": 17.4466174, "lon": 78.5360288, "tags": {"addr:district": "Hyderabad", "addr:full": "9-120, North Venkateswara Nagar, Sairam Theatre, Malkagiri", "addr:postcode": "500047", "addr:state": "Telangana", "amenity": "hospital", "name": "Santoshi Maternity Hospital", "source": "OpenGovernmentData"}}, {"type": "node", "id": 6496708723, "lat": 17.459459, "lon": 78.5576695, "tags": {"addr:district": "Hyderabad", "addr:full": "Plot No: 350/5&6, M S Manson, Jawhar Nagar Colony, Moula Ali", "addr:postcode": "500040", "addr:state": "Telangana", "amenity": "hospital", "name": "Life Spring Maternity Hospital", "phone": "970134 6524", "source": "OpenGovernmentData", "website": "https://www.lifespring.in/home.php"}}, {"type": "node", "id": 6496852838, "lat": 17.4825173, "lon": 78.5374282, "tags": {"addr:district": "Hyderabad", "addr:full": "Sajini plaza, 1st floor, 37-90/2, defence colony, Neredmet 'X' Roads, secunderabad", "addr:postcode": "500094", "addr:state": "Telangana", "amenity": "hospital", "email": "universaldentalhyd@yahoo.com", "health_facility:type": "Implantology;Correction of Irregular Teeth Braces ;Gum Surgery;Advance Root Canal Therapy;Fixed Partial Dentures;Veneering;Dental Lasers", "healthcare:speciality": "Cosmetic Dentistry; Dentistry; Orthodontics", "medical_system": "Allopathic", "name": "Universal Superspeciality Dental Hospital", "operator:type": "private", "phone": "040 27111100;040 27111101", "source": "OpenGovernmentData", "website": "https://universaldentalhospital.com/"}}, {"type": "node", "id": 6496903933, "lat": 17.4782302, "lon": 78.5558448, "tags": {"addr:district": "Hyderabad", "addr:full": "MIG, B-10, Dr. A.S. Rao Nagar Road, ECIL Main Road", "addr:postcode": "500062", "addr:state": "Telangana", "amenity": "hospital", "phone": "040 27122230", "source": "OpenGovernmentData"}}, {"type": "node", "id": 6496940849, "lat": 17.4348983, "lon": 78.5429897, "tags": {"addr:district": "Hyderabad", "addr:full": "Lalapet,Tarnaka", "addr:postcode": "500017", "addr:state": "Telangana", "amenity": "hospital", "name": "Manjary Multispeciality Hospital", "source": "OpenGovernmentData"}}, {"type": "node", "id": 6496953497, "lat": 17.4465502, "lon": 78.5133715, "tags": {"addr:district": "Hyderabad", "addr:full": "10-3-32/9/32, Near Tagore's Home Junior College, East Marredpally", "addr:postcode": "500026", "addr:state": "Telangana", "amenity": "hospital", "name": "Taraporewalla Nursing Home", "source": "OpenGovernmentData"}}, {"type": "node", "id": 6496960846, "lat": 17.4478066, "lon": 78.508915, "tags": {"addr:district": "Hyderabad", "addr:full": "10-3-4, Entrenchment Road, East Marredpally, Opp Playground, Secunderabad,", "addr:postcode": "500026", "addr:state": "Telangana", "amenity": "hospital", "email": "info@shenoyhospitals.com", "name": "Shenoy Nursing Home", "phone": "040 4151 9999", "source": "OpenGovernmentData", "website": "https://www.shenoyhospitals.com/"}}, {"type": "node", "id": 6497294673, "lat": 17.4416577, "lon": 78.4908745, "tags": {"addr:district": "Hyderabad", "addr:full": "Plot Number 111, Karan Centre, S. D. Road, Landmark: Near Grand Solitaire Annex Hotel & Near Minerva Complex", "addr:postcode": "500003", "addr:state": "Telangana", "amenity": "hospital", "healthcare": "hospital", "name": "BSR ENT & Eye Nursing Home", "source": "OpenGovernmentData"}}, {"type": "node", "id": 6497360893, "lat": 17.4938323, "lon": 78.5398865, "tags": {"addr:district": "Hyderabad", "addr:full": "250, Opp Kandiguda Church, Hastinapuri Colony, Sainikpuri", "addr:postcode": "500094", "addr:state": "Telangana", "amenity": "hospital", "name": "Srinivasa Hospital", "source": "OpenGovernmentData"}}, {"type": "node", "id": 6497611600, "lat": 17.43595, "lon": 78.5425988, "tags": {"addr:district": "Hyderabad", "addr:full": "12-1-371/1, Lalapet, Secunderabad", "addr:postcode": "500017", "addr:state": "Telangana", "amenity": "hospital", "name": "Sri Santosh Hospital", "source": "OpenGovernmentData"}}, {"type": "node", "id": 6498031548, "lat": 17.4381142, "lon": 78.5049681, "tags": {"addr:district": "Hyderabad", "addr:full": "10-3-72, St. John's Road, Opp Keyes High School, Chilakalguda, Secunderabad", "addr:postcode": "500025", "addr:state": "Telangana", "amenity": "hospital", "healthcare": "hospital", "name": "Shubhodaya Nursing Home", "source": "OpenGovernmentData"}}, {"type": "node", "id": 6498040562, "lat": 17.4620995, "lon": 78.5006364, "tags": {"addr:district": "Hyderabad", "addr:full": "59-1-2A, 1st Floor , Beside Police Station, Karkhana", "addr:postcode": "500009", "addr:state": "Telangana", "amenity": "hospital", "name": "Shekars Ent Hospital", "source": "OpenGovernmentData"}}, {"type": "node", "id": 6498046738, "lat": 17.4779001, "lon": 78.5626893, "tags": {"addr:district": "Hyderabad", "addr:full": "1-1-265/286, Srinivasa Nagar Colony, Dr A S Rao Nagar, Ecil, Kapra", "addr:postcode": "500062", "addr:state": "Telangana", "amenity": "hospital", "name": "Shreyas Hospital", "source": "OpenGovernmentData"}}, {"type": "node", "id": 6503106727, "lat": 17.4606974, "lon": 78.4904668, "tags": {"addr:district": "Hyderabad", "addr:full": "26/A, Sikh Road, Sikh Village, Near Diamond Point, Secunderabad", "addr:postcode": "500009", "addr:state": "Telangana", "amenity": "hospital", "contact:mobile": "9246276141", "email": "admin@janapareddy.co.in", "fax": "040 40147476", "health_facility:type": "Operation Theatre;Neonatal Intensive Care Unite;Neonatal Transport Team;Pediatric Intensive Care Unite;Emergency Care;In Patient Rooms;Lab;Pharmacy;Equipment and Facilities", "healthcare:speciality": "multi specialty", "medical_system": "Allopathic", "name": "Bloom Hospitals - Unit of Janapareddy Hospitals.", "operator:type": "private", "phone": "040 40147474;040 401474745;040 401474746", "source": "OpenGovernmentData", "website": "http://www.janapareddy.co.in"}}, {"type": "node", "id": 6503384572, "lat": 17.4660729, "lon": 78.4832785, "tags": {"addr:district": "Hyderabad", "addr:full": "Plot No-2, H No-2-12-149, Breg Syed Road,Bapuji Nagar Bowenpally, Cantonment", "addr:postcode": "500009", "addr:state": "Telangana", "amenity": "hospital", "name": "Lifespring Hospital", "source": "OpenGovernmentData"}}, {"type": "node", "id": 6503394122, "lat": 17.4820222, "lon": 78.5525036, "tags": {"addr:district": "Hyderabad", "addr:full": "Beside ICICI Bank, Sainikpuri, A.S. Rao Nagar", "addr:state": "Telangana", "amenity": "hospital", "contact:mobile": "097018 88488", "email": "asraonagar@ankurahospital.com", "healthcare:speciality": "Neonatology;Pediatric Critical Care;Paediatric Emergency;Paediatric Surgery;Pediatric Dentistry;Paediatric Neurology;Paediatric Cardiology;Paediatric Endocrinology", "medical_system": "Allopathic", "name": "Ankura Children's Hospital", "operator:type": "private", "phone": "040 49699999", "source": "OpenGovernmentData", "website": "https://ankurahospital.com"}}, {"type": "node", "id": 6503410509, "lat": 17.4713934, "lon": 78.4849957, "tags": {"addr:district": "Hyderabad", "addr:full": "7-A, Panchasheela Enclave, near ICRISAT Colony Phase 2, Hashmathpet", "addr:postcode": "500009", "addr:state": "Telangana", "amenity": "hospital", "name": "SKM Multi Speciality Hospital", "source": "OpenGovernmentData"}}, {"type": "node", "id": 6503446084, "lat": 17.4727007, "lon": 78.5713568, "tags": {"addr:district": "Hyderabad", "addr:full": "Plot Number 43, EC Extension, ECIL 'X' Roads", "addr:postcode": "500062", "addr:state": "Telangana", "amenity": "hospital", "contact:email": "info@xeniahospitals.com", "contact:mobile": "9000681166", "fax": "040 27134666", "healthcare:speciality": "Internal Medicine;Neurology;Gastroenterology;Anesthesiology;Cardiology;Trauma Care;Neurophysiology;Plastic Surgery", "medical_system": "Allopathic", "name": "Xenia Multi Speciality Hospital", "operator:type": "private", "phone": "040 27144000;040 27144777", "source": "OpenGovernmentData", "website": "www.xeniahospitals.in"}}, {"type": "node", "id": 6503669088, "lat": 17.4748831, "lon": 78.5709384, "tags": {"addr:district": "Hyderabad", "addr:full": "A-12, Electronic Complex, Beside SBI, Kushaiguda, ECIL 'X' Roads", "addr:postcode": "500062", "addr:state": "Telangana", "amenity": "hospital", "contact:email": "info@tulasihospials.com", "contact:mobile": "+91 9505108108", "name": "Tulasi Hospitals", "source": "OpenGovernmentData", "website": "http://thulasihospitals.com"}}, {"type": "node", "id": 6505307085, "lat": 17.4759595, "lon": 78.4837787, "tags": {"addr:district": "Hyderabad", "addr:full": "Plot No 8, Main Road, Old Bowenpally", "addr:postcode": "500011", "addr:state": "Telangana", "amenity": "hospital", "name": "Ramya Nursing Home", "source": "OpenGovernmentData"}}, {"type": "node", "id": 6505447806, "lat": 17.4776666, "lon": 78.5630205, "tags": {"addr:district": "Hyderabad", "addr:full": "D.No.1-1-256/7, Srinivas Nagar Colony, Kapra Circle, Kesara Mandal, A.S.Rao Nagar", "addr:postcode": "500062", "addr:state": "Telangana", "amenity": "hospital", "medical_system": "Allopathic", "name": "Vasan Eye Care", "operator:type": "private", "phone": "040 39890600", "source": "OpenGovernmentData", "website": "https://vasaneye.com/"}}, {"type": "node", "id": 6505503898, "lat": 17.45035, "lon": 78.5034782, "tags": {"addr:district": "Hyderabad", "addr:full": "Street No:4, Road No:7, New Muncipal Park, West Maredpally", "addr:postcode": "500026", "addr:state": "Telangana", "amenity": "hospital", "name": "Lions Patny Hospital", "source": "OpenGovernmentData"}}, {"type": "node", "id": 6505550308, "lat": 17.503255, "lon": 78.5095681, "tags": {"addr:district": "Hyderabad", "addr:full": "1-10-11/6, New Police Station Bus Stop, Temple Alwal, Alwal", "addr:postcode": "500010", "addr:state": "Telangana", "amenity": "hospital", "email": "prashamsahospital@gmail.com", "name": "Prashamsha Hospital", "phone": "040 27970458; 040 27961858", "source": "OpenGovernmentData", "website": "www.prashamsahospital.com"}}, {"type": "node", "id": 6505570504, "lat": 17.4591328, "lon": 78.5007772, "tags": {"addr:district": "Hyderabad", "addr:full": "H.No.3-7-218 & 219, Behind Satyam Computer, ( Dc Greens )Kharkhana, Rangapaddy", "addr:postcode": "500015", "addr:state": "Telangana", "amenity": "hospital", "fax": "040 66318453", "name": "Soumya Multispeciality Hospital", "source": "OpenGovernmentData"}}, {"type": "node", "id": 6505613357, "lat": 17.4261322, "lon": 78.5324286, "tags": {"addr:district": "Hyderabad", "addr:full": "12-13-64, Beside Tarnaka Flyover, Tarnaka", "addr:postcode": "500017", "addr:state": "Telangana", "amenity": "hospital", "email": "info@surakshachildhospital.com", "emergency_telephone_code": "040 27016600;040 27016611;040 27016622", "fax": "040 2701 6623", "health_facility:type": "24 Hours Ambulance Services;Round The Clock Pharmacy;Imaging;Diagnostic Services;Antenatal Counselling;Neonatal and Paediatric Surgery;Neonatal Intensive Care Unit NICU ;Paediatric Intensive Care Unit PICU ;24 Hours Emergency Services;Out Patient Services", "healthcare:speciality": "multi specialty", "medical_system": "Allopathic", "name": "Suraksha Childrens Hospital", "operator:type": "private", "phone": "040 2706600;040 2706611;040 2706622", "source": "OpenGovernmentData", "website": "https://www.surakshachildrenshospital.com/"}}, {"type": "node", "id": 6505671806, "lat": 17.4811326, "lon": 78.5541297, "tags": {"addr:district": "Hyderabad", "addr:full": "205, Bhanu Enclave, Near City Union Bank, Dr. A. S. Rao Nagar", "addr:postcode": "500062", "addr:state": "Telangana", "amenity": "hospital", "fax": "27127919", "name": "Prema Eye Care Centre", "source": "OpenGovernmentData"}}, {"type": "node", "id": 6506106769, "lat": 17.4486471, "lon": 78.4849052, "tags": {"addr:district": "Hyderabad", "addr:full": "1-14-158/1, Opp Pearl Palace, Beside Idgah, Balamrai, Near Paradise", "addr:postcode": "500003", "addr:state": "Telangana", "amenity": "hospital", "name": "J S Mahaveer Hospital", "source": "OpenGovernmentData"}}, {"type": "node", "id": 6507570343, "lat": 17.4422795, "lon": 78.5043204, "tags": {"addr:district": "Hyderabad", "addr:full": "F-14, First Floor, Deepthi Apartments, Beside St.Ann's High School, S.P.Road", "addr:postcode": "500003", "addr:state": "Telangana", "amenity": "hospital", "contact:email": "contact@drgowd.com", "contact:mobile": "+91 8886664790", "contact:phone": "040 66338377; 040 66312447", "healthcare": "hospital", "name": "The Dental Venue Multi Speciality Hospital (unit of Dr.Gowd\u2019s)", "source": "OpenGovernmentData", "website": "https://www.drgowd.com/"}}, {"type": "node", "id": 6510472444, "lat": 17.4466871, "lon": 78.5027158, "tags": {"addr:district": "Hyderabad", "addr:full": "Plot No 185, Road No 1, Near Kennedy School, West Marredpally", "addr:postcode": "500026", "addr:state": "Telangana", "amenity": "hospital", "email": "saibaba_goud@hotmail.com", "name": "Sai Jyothi Eye Institute", "phone": "040 2771 9170 ; 040 27701686", "source": "OpenGovernmentData", "website": "http://www.saijyothieyeinstitute.com"}}, {"type": "node", "id": 6510820223, "lat": 17.4505451, "lon": 78.5032415, "tags": {"addr:district": "Hyderabad", "addr:full": "Beside Lions Club Hospital, West Marredpally,Secunderabad", "addr:postcode": "500026", "addr:state": "Telangana", "amenity": "hospital", "name": "Basant Sahney Hospitals", "source": "OpenGovernmentData"}}, {"type": "node", "id": 6513267731, "lat": 17.4504779, "lon": 78.5062201, "tags": {"addr:district": "Hyderabad", "addr:full": "10-1-254, Near Check Post, West Marredpally", "addr:postcode": "500026", "addr:state": "Telangana", "amenity": "hospital", "fax": "040 27716646", "name": "Lions Dundoo Eye Institute", "source": "OpenGovernmentData"}}, {"type": "node", "id": 6528301302, "lat": 17.5130968, "lon": 78.5541491, "tags": {"addr:district": "Hyderabad", "addr:full": "Main Road, Balaji Nagar", "addr:postcode": "500087", "addr:state": "Telangana", "amenity": "hospital", "emergency": "yes", "healthcare:speciality": "gynaecology;surgery;general;dermatology", "name": "Meenakshi Mother and Child Hospital"}}, {"type": "node", "id": 6530772004, "lat": 17.4524815, "lon": 78.5685701, "tags": {"addr:district": "Hyderabad", "addr:full": "3-5-85, Road No. 4, Krishna Nagar Colony, NFC Main Road, H B Colony, Moula Ali", "addr:postcode": "500040", "addr:state": "Telangana", "amenity": "hospital", "fixme": "Please verify the accurate position of the hospital as I have mapped the facility based on the address provided in Open Government Data", "name": "Dhanunjaya Nursing Home", "source": "OpenGovernmentData"}}, {"type": "node", "id": 6531328860, "lat": 17.5019044, "lon": 78.5405564, "tags": {"addr:district": "Hyderabad", "addr:full": "Near Sai Baba Temple, Bapuji Nagar Colony, Yapral", "addr:postcode": "500087", "addr:state": "Telangana", "amenity": "hospital", "fixme": "Please verify the accurate position of the hospital as I have mapped the facility based on the address provided in Open Government Data", "name": "Jain Multi Speciality Hospital", "source": "OpenGovernmentData"}}, {"type": "node", "id": 6531352585, "lat": 17.4273708, "lon": 78.5517687, "tags": {"addr:district": "Hyderabad", "addr:full": "Near St. Peter's School, Raghavendra Nagar, Nacharam", "addr:postcode": "500076", "addr:state": "Telangana", "amenity": "hospital", "healthcare": "hospital", "healthcare:speciality": "general", "name": "Chandamama Hospital", "operator": "xyz", "operator:type": "private", "source": "OpenGovernmentData;local knowledge"}}, {"type": "node", "id": 6536327470, "lat": 17.4455011, "lon": 78.5678539, "tags": {"addr:district": "Hyderabad", "addr:full": "M.V. Rama Rao Complex, Opposite Sai Towers, Mallapur Main Road", "addr:postcode": "500076", "addr:state": "Telangana", "amenity": "hospital", "name": "Aashritha Hospital", "source": "OpenGovernmentData"}}, {"type": "node", "id": 6548796448, "lat": 17.469289, "lon": 78.4862155, "tags": {"addr:city": "Hyderabad", "addr:full": "Plot No:. 27 & 28, Hasmathpet Road, Bowenpally Beside Reliance Fresh Super Market", "addr:postcode": "500011", "addr:state": "Telangana", "amenity": "hospital", "contact:phone": "04042306565;64595609", "name": "KRUTI HOSPITAL ADVANCED EYE & DENTAL CARE", "operator": "Private", "source": "OpenGovernmentData"}}, {"type": "node", "id": 6548823374, "lat": 17.4832707, "lon": 78.5523789, "tags": {"addr:city": "Hyderabad", "addr:full": "Plot No:. 42, 43, 45 &46, VIJAYAPURI COLONY, Opp CANARA BANK SAINIKPURI, NEAR PETROL PUMP, DR A S RAO NAGAR", "addr:postcode": "500062", "addr:state": "Telangana", "amenity": "hospital", "contact:phone": "040 27140022", "name": "MAYFLOWER HOSPITAL FOR WOMEN & CHILDREN", "operator:type": "private", "source": "OpenGovernmentData"}}, {"type": "node", "id": 6548826056, "lat": 17.4389273, "lon": 78.5060866, "tags": {"addr:city": "Hyderabad", "addr:full": "#10-3-167/A, Lane opp apollo hospitals, St.Johns road, Secunderabad", "addr:postcode": "500025", "addr:state": "Telangana", "amenity": "hospital", "contact:phone": "040-27830534, 040-27831534, +91-7207375534", "healthcare": "hospital", "name": "KASTURI MULTISPECIALITY HOSPITAL", "operator:type": "private", "source": "OpenGovernmentData", "website": "https://kasturihospitals.com/"}}, {"type": "node", "id": 6548874152, "lat": 17.473687, "lon": 78.571436, "tags": {"addr:city": "Hyderabad", "addr:full": "Plot No: 13, SVK Towers, Kushaiguda Main Road, Near A.S Rao Nagar, ECIL Cross Road, Secunderabad", "addr:postcode": "500062", "addr:state": "Telangana", "amenity": "hospital", "email": "info@soliseyecare.com", "name": "SOLIS EYE CARE HOSPITALS PVT LTD", "operator:type": "private", "phone": "040-40068855; 040-40028855", "source": "OpenGovernmentData", "website": "http://www.soliseyecare.com"}}, {"type": "node", "id": 6548910436, "lat": 17.4657813, "lon": 78.5389222, "tags": {"addr:city": "Hyderabad", "addr:full": "H.No: 30-1587/1, Plot No: 25, CHANDRAGIRI COLONY, KRUPA COMPLEX, BESIDE BOI, OLD SAFILGUDA, MEDCHAL- MALKAJGIRI", "addr:postcode": "500047", "addr:state": "Telangana", "amenity": "hospital", "contact:phone": "7794942714", "name": "SUDHA HOSPITAL", "operator:type": "private", "source": "OpenGovernmentData"}}, {"type": "node", "id": 6549172458, "lat": 17.426232, "lon": 78.5322033, "tags": {"addr:district": "Hyderabad", "addr:full": "Plot No: 12-13-67/2, Street No.5, Sadhashiva Nagar, Lane Adjacent to Sanman Hotel, Tarnaka", "addr:postcode": "500017", "addr:state": "Telangana", "amenity": "hospital", "contact:phone": "040 27007111", "name": "PADMVATI MEDICAL CENTRE", "operator:type": "private", "source": "OpenGovernmentData"}}, {"type": "node", "id": 6549206566, "lat": 17.470118, "lon": 78.5086575, "tags": {"addr:city": "Secunderabad", "addr:full": "MOTI VALLEY, BESIDE ACER MOTORS, TIRUMALAGIRI `X` ROAD", "addr:postcode": "500015", "addr:state": "Telangana", "amenity": "hospital", "contact:phone": "4060608899", "name": "STERLING HOSPITALS PVT LTD", "operator": "Private", "source": "OpenGovernmentData"}}, {"type": "node", "id": 6549215300, "lat": 17.45558, "lon": 78.4981728, "tags": {"addr:city": "Secunderabad", "addr:full": "Plot No: 90 P&T COLONY VIKRAMPURI KARKHANA", "addr:postcode": "500009", "addr:state": "Telangana", "amenity": "hospital", "contact:phone": "4027720777", "name": "NAVJEEVAN HOSPITAL", "operator": "Private", "source": "OpenGovernmentData"}}, {"type": "node", "id": 6549320016, "lat": 17.4714919, "lon": 78.5676406, "tags": {"addr:district": "Hyderabad", "addr:full": "1-7-181, KAMALA NAGAR, Opp. DAE Colony ('D' Sector Gate), KAPRA, ECIL", "addr:postcode": "500062", "addr:state": "Telangana", "amenity": "hospital", "contact:phone": "4027135842", "name": "ARC HOSPITAL", "operator:type": "private", "source": "OpenGovernmentData"}}, {"type": "node", "id": 6549322814, "lat": 17.5064398, "lon": 78.5160054, "tags": {"addr:district": "Secunderabad", "addr:full": "BUNGALOW NO-56, SURVEY NO- 606, GV REDDY COLONY, Opp: RYTHU BAZAAR, ALWAL", "addr:postcode": "500010", "addr:state": "Telangana", "amenity": "hospital", "contact:phone": "27862699", "name": "jubilee hospitals", "operator": "Private", "source": "OpenGovernmentData"}}, {"type": "node", "id": 6560362897, "lat": 17.4722792, "lon": 78.5170314, "tags": {"addr:district": "Hyderabad", "addr:full": "Military Hospital premises Trimulgherry", "addr:place": "Secunderabad", "addr:state": "Telangana", "amenity": "hospital", "name": "Military Hospital"}}, {"type": "node", "id": 6561171891, "lat": 17.4711388, "lon": 78.5078877, "tags": {"addr:district": "Hyderabad", "addr:full": "Rtc Colony, Trimulgherry", "addr:postcode": "500015", "addr:state": "Telangana", "amenity": "hospital", "name": "Vamshi Hospital - Trimulgherry", "source": "OpenGovernmentData"}}, {"type": "node", "id": 6562454569, "lat": 17.483593, "lon": 78.5580665, "tags": {"addr:district": "Hyderabad", "addr:full": "H.No. 19-66/11, Prashanth Nagar, Hi Tension Road, Dr. A.S. Rao Nagar, Kapra", "addr:postcode": "500062", "addr:state": "Telangana", "amenity": "hospital", "name": "Asha Hospital", "source": "OpenGovernmentData"}}, {"type": "node", "id": 6562751438, "lat": 17.5051697, "lon": 78.5071749, "tags": {"addr:district": "Hyderabad", "addr:full": "House No. 1-7-39/B, Plot No. 9, Main Road, Temple Alwal, Secunderabad", "addr:postcode": "5000010", "addr:state": "Telangana", "amenity": "hospital", "contact:phone": "+91 9652100844", "name": "Life Spring Maternity Hospital", "source": "OpenGovernmentData", "website": "https://www.lifespring.in/"}}, {"type": "node", "id": 6598094227, "lat": 17.4365449, "lon": 78.4831135}, {"type": "node", "id": 6598094228, "lat": 17.4365296, "lon": 78.4830679}, {"type": "node", "id": 6598094229, "lat": 17.4365091, "lon": 78.482978}, {"type": "node", "id": 6598094230, "lat": 17.4364899, "lon": 78.4828694}, {"type": "node", "id": 6811749163, "lat": 17.512371, "lon": 78.557713, "tags": {"addr:district": "Medchal Malkajgiri", "addr:full": "Balaji Nagar Road, Sainikpuri, Secunderabad", "addr:postcode": "500094", "addr:state": "Telangana", "amenity": "hospital", "contact:phone": "040 65143144", "name": "Sri Balaji Nagar Nursing Home", "source": "OpenGovernmentData"}}, {"type": "node", "id": 6811749169, "lat": 17.513357, "lon": 78.556607, "tags": {"addr:district": "Medchal Malkajgiri", "addr:full": "Sai Kamman Road, Near Shivalayam, Vishwa Karma Colony, Balaji Nagar, Secunderabad", "addr:postcode": "500094", "addr:state": "Telangana", "amenity": "hospital", "name": "Aditya Hospital", "source": "OpenGovernmentData"}}, {"type": "node", "id": 6868777710, "lat": 17.4274323, "lon": 78.5191123}, {"type": "node", "id": 6868777711, "lat": 17.4272453, "lon": 78.5190814}, {"type": "node", "id": 6868777712, "lat": 17.427219, "lon": 78.5192361}, {"type": "node", "id": 6868777713, "lat": 17.427429, "lon": 78.5192637}, {"type": "node", "id": 6935636792, "lat": 17.4324216, "lon": 78.5525978}, {"type": "node", "id": 7088814385, "lat": 17.4334334, "lon": 78.4873111}, {"type": "node", "id": 7088814386, "lat": 17.4333386, "lon": 78.4872987}, {"type": "node", "id": 7088814387, "lat": 17.4332882, "lon": 78.48757}, {"type": "node", "id": 7088814388, "lat": 17.4334008, "lon": 78.4875845}, {"type": "node", "id": 8151182017, "lat": 17.493969, "lon": 78.513036, "tags": {"addr:street": "Lothkunta", "amenity": "hospital", "name": "Sri sanjeevini", "name:en": "Sri sanjeevini multi speciality, sharadha dental clinic,sks eye care hospitals"}}, {"type": "node", "id": 8233048690, "lat": 17.4591866, "lon": 78.5007832, "tags": {"amenity": "hospital", "healthcare": "hospital"}}, {"type": "node", "id": 8233132093, "lat": 17.4376777, "lon": 78.5220997, "tags": {"amenity": "hospital", "healthcare": "hospital"}}, {"type": "node", "id": 8236632956, "lat": 17.4402772, "lon": 78.4975865, "tags": {"amenity": "hospital", "healthcare": "hospital"}}, {"type": "node", "id": 8759169871, "lat": 17.4753103, "lon": 78.4857756, "tags": {"addr:district": "Hyderabad", "addr:full": "Hasmathpet, Bowenpally, Secunderabad", "addr:postcode": "500009", "addr:state": "Telangana", "amenity": "hospital", "name": "SKS Hospital", "source": "Local Knowledge"}}, {"type": "node", "id": 8759181367, "lat": 17.4416653, "lon": 78.4860599, "tags": {"addr:district": "Hyderabad", "addr:full": "Mashallah Building, Paradise Circle, PG Road, Secunderabad", "addr:postcode": "500003", "addr:state": "Telangana", "amenity": "hospital", "name": "Navodaya Hospital", "source": "Local Knowledge"}}, {"type": "node", "id": 8759273395, "lat": 17.4419494, "lon": 78.4899303, "tags": {"addr:district": "Hyderabad", "addr:full": "Oxford Street, Sarojini Devi Road 2nd Floor CVK Park Square, Krishna Complex, Kalasiguda, Secunderabad", "addr:postcode": "500003", "addr:state": "Telangana", "amenity": "hospital", "name": "Oasis Fertility Centre", "source": "Local Knowledge"}}, {"type": "node", "id": 8759287302, "lat": 17.4444622, "lon": 78.5048595, "tags": {"addr:district": "Hyderabad", "addr:full": "Nehru Nagar Colony, West Marredpally, Secunderabad", "addr:postcode": "500026", "addr:state": "Telangana", "amenity": "hospital", "name": "Basant Sahney Hospital", "source": "Local Knowledge"}}, {"type": "node", "id": 8759738256, "lat": 17.4401505, "lon": 78.4936257, "tags": {"addr:district": "Hyderabad", "addr:full": "127, 4/3, SD Road, Rani Gunj, Secunderabad", "addr:postcode": "500003", "addr:state": "Telangana", "amenity": "hospital", "name": "Madhava Nursing Home", "source": "Local Knowledge"}}, {"type": "node", "id": 8760787195, "lat": 17.4557195, "lon": 78.4992805, "tags": {"addr:district": "Medchal", "addr:full": "Vikrampuri Colony, Karkhana, Secunderabad", "addr:postcode": "500009", "addr:state": "Telangana", "amenity": "hospital", "name": "Rainbow Children's Medicare Pvt Ltd", "source": "Local Knowledge"}}, {"type": "node", "id": 8760858403, "lat": 17.4384053, "lon": 78.5551261, "tags": {"addr:district": "Medchal", "addr:full": "44-617/12, IDA, behind Telephone Exchange, Nacharam, Secunderabad", "addr:postcode": "500076", "addr:state": "Telangana", "amenity": "hospital", "name": "Prasad Hospitals ,Nacharam", "source": "Local Knowledge"}}, {"type": "node", "id": 8763276400, "lat": 17.4867461, "lon": 78.5540117, "tags": {"addr:district": "Medchal", "addr:full": "Nethaji Nagar, Rukminipuri Colony, Kapra, Secunderabad", "addr:postcode": "500094", "addr:state": "Telangana", "amenity": "hospital", "name": "Nandini Hospital", "source": "Local Knowledge"}}, {"type": "node", "id": 8763411325, "lat": 17.5079988, "lon": 78.5022081, "tags": {"addr:district": "Medchal", "addr:full": "1-5-56/29,Plot No.29,Old Alwal,Near IG Statue, Secunderabad", "addr:postcode": "500010", "addr:state": "Telangana", "amenity": "hospital", "name": "Excel Hospitals", "source": "Local Knowledge"}}, {"type": "node", "id": 8941817855, "lat": 17.4475965, "lon": 78.5089418, "tags": {"addr:city": "East Marredpally", "addr:housenumber": "5A Ground Floor", "addr:postcode": "500026", "addr:street": "Main Rd", "amenity": "hospital", "description": "Senior Ayurvedic Doctor specializing in Gastric, Piles, Joint, Skin Complaints and other conditions.", "email": "office@ayurdoctor.in", "emergency": "no", "healthcare": "hospital", "healthcare:speciality": "ayurveda;Piles;general", "name": "Shakti Ayurvedic Clinic", "operator": "Dr Prashant Kumar", "operator:type": "private", "phone": "+91-9848574437", "website": "www.ayurdoctor.in"}}, {"type": "node", "id": 9355590863, "lat": 17.4801489, "lon": 78.5121788, "tags": {"amenity": "hospital", "healthcare": "hospital"}}, {"type": "node", "id": 9369549952, "lat": 17.4527375, "lon": 78.5648775, "tags": {"amenity": "hospital", "healthcare": "hospital", "name": "Rahul Meidials"}}, {"type": "node", "id": 9369555762, "lat": 17.4527443, "lon": 78.5647251, "tags": {"amenity": "hospital", "healthcare": "hospital", "name": "Nandini"}}, {"type": "node", "id": 9369819271, "lat": 17.4632492, "lon": 78.5615635, "tags": {"amenity": "hospital", "healthcare": "hospital", "name": "vijaya diagonistics"}}, {"type": "node", "id": 9369819272, "lat": 17.4622327, "lon": 78.5587486, "tags": {"amenity": "hospital", "healthcare": "hospital", "name": "Government uphc"}}, {"type": "node", "id": 9391261140, "lat": 17.4274216, "lon": 78.5517653, "tags": {"amenity": "hospital", "healthcare": "hospital"}}, {"type": "node", "id": 9903919151, "lat": 17.4287042, "lon": 78.5182344, "tags": {"amenity": "hospital", "healthcare": "hospital"}}, {"type": "node", "id": 9924565993, "lat": 17.4434504, "lon": 78.5461318, "tags": {"amenity": "hospital", "healthcare": "hospital", "name": "Railway hospital"}}, {"type": "node", "id": 10277755873, "lat": 17.4628046, "lon": 78.5619053, "tags": {"amenity": "hospital", "healthcare": "hospital"}}, {"type": "node", "id": 10277927480, "lat": 17.4359366, "lon": 78.5426952, "tags": {"amenity": "hospital", "healthcare": "hospital", "name": "hs"}}, {"type": "node", "id": 10836251320, "lat": 17.4510364, "lon": 78.5341953}, {"type": "node", "id": 10959100965, "lat": 17.4410992, "lon": 78.5720791, "tags": {"addr:city": "Hyderabad", "addr:postcode": "500076", "addr:street": "sv nagar", "amenity": "hospital", "healthcare": "hospital", "name": "Sri rama clinic"}}, {"type": "node", "id": 10969330843, "lat": 17.4388301, "lon": 78.54187, "tags": {"addr:district": "Hyderabad", "addr:place": "Lalapet", "addr:state": "Telangana", "addr:street": "Lane opposite Ram theatre", "addr:subdistrict": "Marredpally", "amenity": "hospital", "healthcare": "hospital", "name": "Community Health Centre, Lalapet", "operational_status": "operational", "operator:type": "government", "source": "OpenDataTelangana"}}, {"type": "node", "id": 11001513668, "lat": 17.4265349, "lon": 78.5192979, "tags": {"addr:district": "Hyderabad", "addr:place": "Trt Quarters", "addr:state": "Telangana", "addr:street": "Seethaphalmandi", "addr:subdistrict": "Musheerabad", "amenity": "hospital", "healthcare": "hospital", "name": "Community Health Centre, Seethaphalmandi", "operational_status": "operational", "operator:type": "government", "source": "OpenDataTelangana"}}, {"type": "node", "id": 11001544010, "lat": 17.4504805, "lon": 78.5321201, "tags": {"addr:district": "Medchal Malkajgiri", "addr:place": "Geetha Nagar Malkajgiri", "addr:state": "Telangana", "addr:street": "Geetha Nagar Malkajgiri", "addr:subdistrict": "Malkajgiri", "amenity": "hospital", "healthcare": "hospital", "name": "AREA HOSPITAL MALKAJGIRI", "operational_status": "operational", "operator:type": "government", "source": "OpenDataTelangana"}}, {"type": "node", "id": 12030609760, "lat": 17.4376477, "lon": 78.4822763}, {"type": "node", "id": 12536226054, "lat": 17.4754498, "lon": 78.5681603, "tags": {"amenity": "hospital", "name": "SK + Diagnostics"}}, {"type": "node", "id": 12890299914, "lat": 17.4319353, "lon": 78.5522966}, {"type": "node", "id": 12890299915, "lat": 17.4314769, "lon": 78.5531095}, {"type": "node", "id": 12890299916, "lat": 17.4319634, "lon": 78.5534108}, {"type": "node", "id": 13152123729, "lat": 17.4504161, "lon": 78.503069}, {"type": "node", "id": 13152123730, "lat": 17.4503955, "lon": 78.5030634}, {"type": "node", "id": 13152123731, "lat": 17.4503922, "lon": 78.5031109}, {"type": "node", "id": 13152123732, "lat": 17.4504153, "lon": 78.5031148}, {"type": "node", "id": 13152123733, "lat": 17.450419, "lon": 78.5030919}, {"type": "way", "id": 252285892, "nodes": [2583734761, 2583734762, 2583734763, 2583734764, 2583734773, 2583734772, 2583734761], "tags": {"amenity": "hospital", "emergency": "yes"}}, {"type": "way", "id": 274482470, "nodes": [3182218374, 2791962095, 2791962088, 12030609760, 3681791850, 2791962080, 2791962082, 2791962076, 6442939706, 3182222862, 2791962060, 2791962057, 6598094227, 6598094228, 6598094229, 6598094230, 3182207744, 3182218374], "tags": {"addr:district": "Hyderabad", "addr:full": "1-8-31/1, Minister Rd, Krishna Nagar Colony, Begumpet, Secunderabad", "addr:postcode": "500003", "addr:state": "Telangana", "addr:street": "Minister Road", "alt_name": "Krishna Institute Of Medical Sciences", "amenity": "hospital", "email": "assistance@kimshospitals.com", "emergency_telephone_code": "9849990401", "health_facility:type": "24 hours Ambulance service;Round the clock pharmacy;Diagnostic centreCritical and Intensive Care;Epilepsy Clinic;Fertility CentreHair TransplantObesity ClinicPalliative CareProstatic ClinicRehabilitation CentreStroke ClinicWellness Clinic", "healthcare": "hospital", "healthcare:speciality": "multi specialty", "medical_system": "Allopathic", "name": "KIMS Hospital", "operator:type": "private", "phone": "040 44885000;040 44885184", "source": "OpenGovernmentData", "website": "www.kimshospitals.com"}}, {"type": "way", "id": 331629144, "nodes": [3387296810, 3387296811, 3387296812, 3387296813, 3387296810], "tags": {"addr:district": "Hyderabad", "addr:full": "Plot No. A-2 & B-17, Rukminipuri Colony, Dr. A S Rao Nagar Main Road", "addr:postcode": "500062", "addr:state": "Telangana", "amenity": "hospital", "fax": "+91 9032920000; 040-27141079", "name": "Poulomi Hospital", "source": "OpenGovernmentData", "website": "https://poulomihospital.com"}}, {"type": "way", "id": 331633380, "nodes": [3387370912, 3387370913, 3387370914, 3387370915, 3387370912], "tags": {"amenity": "hospital", "name": "lucid diagnostics"}}, {"type": "way", "id": 355979902, "nodes": [3614774696, 3614774908, 3614774894, 3614774839, 3614774844, 3614774687, 3614774696], "tags": {"addr:district": "Hyderabad", "addr:full": "Manovikas Nagar, Secunderabad, Near Delhi Public School", "addr:postcode": "500009", "addr:state": "Telangana", "addr:subdistrict": "Secunderabad", "amenity": "hospital", "building": "yes", "contact:phone": "04027753385", "health_facility:type": "Others", "healthcare": "centre", "name": "Southern Regional Centre of Ali Yavar Jung National Institute for the Hearing Handicapped (AYJNIHH)", "source": "OpenGovernmentData"}}, {"type": "way", "id": 356200125, "nodes": [3616927674, 3616927643, 3616927598, 3616927631, 3616927674], "tags": {"addr:district": "Hyderabad", "addr:full": "Plot No. 25, Green Hills Colony, S.P Nagar", "addr:postcode": "500040", "addr:state": "Telangana", "amenity": "hospital", "contact:phone": "040 27131591; 9059098664; 9160900966", "healthcare": "hospital", "name": "Bhaskara Orthopaedic Centre", "source": "OpenGovernmentData"}}, {"type": "way", "id": 356248376, "nodes": [3617224234, 10836251320, 3617224045, 3617224055, 3617224234], "tags": {"amenity": "hospital", "healthcare": "hospital", "name": "Govt hospital"}}, {"type": "way", "id": 356249092, "nodes": [3617223525, 3617223522, 3617223289, 3617223292, 3617223525], "tags": {"addr:city": "Hyderabad", "addr:housenumber": "5-12", "addr:postcode": "500047", "addr:street": "Geetha nagar Malkajgiri", "amenity": "hospital", "building:levels": "1", "description": "Premium dental & orofacial clinic", "emergency": "yes", "healthcare": "hospital", "healthcare:speciality": "dentistry;emergency", "image": "https://www.ctomatodont.com/wp-content/uploads/2017/03/cropped-logo-transparent-192x192.png", "name": "Ctomatodont Dental Care", "operator": "Ctomatodont", "operator:type": "private", "website": "https://www.ctomatodont.com/"}}, {"type": "way", "id": 356439747, "nodes": [3618963919, 3618963914, 6185287784, 3618963151, 3618963164, 3618963919], "tags": {"addr:district": "Hyderabad", "addr:full": "Alexander Road", "addr:postcode": "500003", "addr:state": "Telangana", "amenity": "hospital", "fax": "040 27703999", "health_facility:type": "Surgical Suites;Trauma Center;Intensive Care Units;Surgical Observation Unit;Rehabilitation Services Department", "healthcare": "hospital", "healthcare:speciality": "multi specialty", "medical_system": "Allopathic", "name": "Yashoda Super Speciality Hospital - secunderabad", "operator:type": "private", "phone": "040 45674567", "source": "OpenGovernmentData", "website": "https://www.yashodahospitals.com/"}}, {"type": "way", "id": 356548444, "nodes": [3619550068, 3619550003, 3619549990, 3619550048, 3619550068], "tags": {"addr:city": "Hyderabad", "addr:full": "St. Johns Road, Opposite Railway Reservation Counter Lane, Beside Ramakrishna Hotel, Railway Colony, Chilakalguda, Secunderabad", "addr:postcode": "500025", "addr:state": "Telangana", "addr:street": "Station Road", "addr:unit": "1", "amenity": "hospital", "building": "yes", "building:levels": "3", "contact:phone": "040 27833388 ; 040 46460000", "healthcare": "hospital", "name": "SRIKARA HOSPITALS", "operator:type": "private", "source": "OpenGovernmentData", "website": "https://www.srikarahospitals.com/"}}, {"type": "way", "id": 357101267, "nodes": [3624692314, 3624692313, 3624692298, 3624692297, 3624692073, 3624692074, 3624692083, 3624692084, 3624692091, 3624692092, 3624692314], "tags": {"addr:district": "Hyderabad", "addr:full": "Penderghast Road, Opposite Parsi Dharamsala, Behind Paradise Hotel, Secunderabad", "addr:postcode": "500003", "addr:state": "Telangana", "amenity": "hospital", "building": "yes", "emergency_telephone_code": "8008102102", "fax": "040 27890091", "healthcare": "hospital", "healthcare:speciality": "Anesthesiology;Cardiac Anesthesia;Cardiology;Interventional Cardiology;Pediatric;Cardiothoracic;Surgery", "medical_system": "Allopathic", "name": "Sunshine Heart Institute", "operator:type": "private", "phone": "040 43444555;040 43444555", "source": "OpenGovernmentData", "website": "http://www.sunshineheartinstitute.com"}}, {"type": "way", "id": 357101676, "nodes": [3624691538, 3624691563, 3624691532, 3624691519, 3624691538], "tags": {"amenity": "hospital", "building": "hospital", "name": "Sunshine Hospitals Out Patient Care"}}, {"type": "way", "id": 360984466, "nodes": [3655193114, 3655193099, 3655193068, 3655193075, 3655193114], "tags": {"amenity": "hospital", "healthcare": "hospital", "name": "Healing touch hospital", "name:te": "\u0c39\u0c40\u0c32\u0c3f\u0c02\u0c17\u0c4d \u0c1f\u0c1a\u0c4d \u0c39\u0c3e\u0c38\u0c4d\u0c2a\u0c3f\u0c1f\u0c32\u0c4d"}}, {"type": "way", "id": 361374554, "nodes": [3658594220, 3658594206, 3658594202, 3658594189, 3658594191, 3658594220], "tags": {"amenity": "hospital", "emergency": "yes", "healthcare": "hospital", "name": "Shenoy Hospital", "operator": "Shenoy Multi-Speciality Hospitals", "operator:type": "private"}}, {"type": "way", "id": 361655217, "nodes": [3661096839, 4614088294, 3661096857, 3661096858, 3661096855, 3661096856, 3661096853, 3661096854, 3661096852, 4614088292, 3661096850, 3661096847, 4614088291, 4614088293, 3661096845, 4614088290, 3661096840, 3661096838, 3661096839], "tags": {"addr:district": "Hyderabad", "addr:full": "Penderghast Road, Opposite Parsi Dharamsala, Behind Paradise Hotel, Sappu Bagh Apaprtment, Jogani, Ramgopalpet", "addr:postcode": "500003", "addr:state": "Telangana", "amenity": "hospital", "building": "yes", "emergency_telephone_code": "8008108108", "health_facility:type": "Trauma Care and Emergency Services;Bariatric Surgery;Biochemistry;Blood Bank", "healthcare": "hospital", "healthcare:speciality": "multi speciality", "medical_system": "Allopathic", "name": "Sunshine Hospital", "operator:type": "private", "phone": "040 44550000", "source": "OpenGovernmentData", "website": "www.sunshinehospitals.com", "wikidata": "Q52843705"}}, {"type": "way", "id": 413246550, "nodes": [4146007203, 4146007201, 4146007084, 4146007191, 4146007203], "tags": {"addr:district": "Hyderabad", "addr:full": "8-2-186, Near Passport Office, Secunderabad", "addr:postcode": "500003", "addr:state": "Telangana", "amenity": "hospital", "building": "yes", "fax": "040-66262388; 040-27131920", "health_facility:type": "AMCU Units;Medical Equipments;Operation Theaters;Emergency and CriticalCare;Ortho and Trauma Care;Maternity Unit;Ambulance;Pharmacy", "healthcare": "hospital", "healthcare:speciality": "multi speciality", "medical_system": "Allopathic", "name": "Vijaya Health Care", "operator:type": "private", "phone": "040 67362929;040 66262927", "source": "OpenGovernmentData", "website": "http://www.vijayahealthcare.com"}}, {"type": "way", "id": 413292045, "nodes": [4146349129, 4146349145, 4146349142, 4146349146, 4146349144, 4146349126, 4146349129], "tags": {"addr:city": "Secunderabad", "addr:district": "Hyderabad", "addr:postcode": "500003", "addr:street": "Pollicetty Towers, St Johns Rd, Regimental Bazaar, Shivaji Nagar", "amenity": "hospital", "emergency": "yes", "healthcare": "hospital", "healthcare:speciality": "general", "name": "Apollo Hospitals", "operator": "Apollo Hospitals", "operator:type": "private", "operator:wikidata": "Q4780321", "phone": "+91-040-69071299", "website": "https://www.apollohospitals.com/hyderabad/our-centres/secunderabad/"}}, {"type": "way", "id": 413311009, "nodes": [4146479976, 4146479975, 4146479964, 4146479965, 4146479976], "tags": {"addr:district": "Hyderabad", "addr:full": "Near Clock Tower, Market Street, Secunderabad", "addr:postcode": "500003", "addr:state": "Telangana", "amenity": "hospital", "email": "info@carehospitals.com", "healthcare": "hospital", "name": "Care Hospitals - Secunderabad", "name:te": "\u0c15\u0c47\u0c30\u0c4d \u0c39\u0c3e\u0c38\u0c4d\u0c2a\u0c3f\u0c1f\u0c32\u0c4d", "phone": "040-30114500", "source": "OpenGovernmentData", "website": "https://www.carehospitals.com"}}, {"type": "way", "id": 413327528, "nodes": [4146661496, 4146661498, 4146661497, 4146661495, 4146661496], "tags": {"addr:city": "Secunderabad", "addr:district": "Hyderabad", "addr:housenumber": "9", "addr:postcode": "500003", "addr:street": "Sarojini Devi Rd, Regimental Bazaar, Shivaji Nagar", "amenity": "hospital", "emergency": "yes", "healthcare": "hospital", "healthcare:speciality": "orthopaedics;cardiology;neurology;urology;vascular_surgery;general", "image": "https://images-ik.practo.com/tr:w-500,q-auto,f-auto,pr-true,dpr-auto/practices/1154496/medicover-hospitals-hyderabad-68d3dac007d61.png", "name": "Medicover Hospitals Secunderabad", "note": "Previously known as Sangeet Theater", "operator": "Medicover AB", "operator:type": "private", "phone": "+91-040-68334455", "website": "https://www.medicoverhospitals.in/hospitals/telangana/secunderabad/", "wheelchair": "yes"}}, {"type": "way", "id": 733458157, "nodes": [6868777710, 6868777711, 6868777712, 6868777713, 6868777710], "tags": {"amenity": "hospital", "healthcare": "hospital"}}, {"type": "way", "id": 758967948, "nodes": [7088814385, 7088814386, 7088814387, 7088814388, 7088814385], "tags": {"amenity": "hospital", "healthcare": "hospital"}}, {"type": "way", "id": 1392514385, "nodes": [6935636792, 12890299914, 12890299915, 12890299916, 6935636792], "tags": {"addr:city": "Hyderabad", "addr:postcode": "500076", "addr:street": "Nacharam", "amenity": "hospital", "emergency": "yes", "healthcare": "hospital", "name": "ESI Hospital", "operator": "Employees' State Insurance", "operator:short": "ESI", "operator:type": "private", "operator:wikidata": "Q3595726"}}, {"type": "way", "id": 1430785676, "nodes": [13152123729, 13152123730, 13152123731, 13152123732, 13152123733, 13152123729], "tags": {"addr:city": "Hyderabad", "addr:district": "Hyderabad", "addr:housenumber": "plot no 28", "addr:postcode": "500026", "addr:street": "shriraghava garden rd near punjab nation bank west marredpally secunderabad", "amenity": "hospital", "healthcare": "hospital", "healthcare:speciality": "paediatrics;diabetology;diagnostics;general;vaccination;blood_check;pathology;vascular_surgery", "name": "Pulse Clinics and Diagnostics", "operator": "owner", "operator:type": "business"}}]}