{"version": 0.6, "generator": "Overpass API 0.7.62.8 e802775f", "osm3s": {"timestamp_osm_base": "2026-01-12T15:06:17Z", "copyright": "The data included in this document is from www.openstreetmap.org. The data is made available under ODbL."}, "elements": [{"type": "node", "id": 443612463, "lat": 13.0371728, "lon": 77.6409543, "tags": {"amenity": "hospital", "name": "Sri Vijayalakshmi Pragathi Hospital", "name:kn": "\u0cb6\u0ccd\u0cb0\u0cc0 \u0cb5\u0cbf\u0c9c\u0caf\u0cb2\u0c95\u0ccd\u0cb7\u0ccd\u0cae\u0cc0 \u0caa\u0ccd\u0cb0\u0c97\u0ca4\u0cbf \u0c86\u0cb8\u0ccd\u0caa\u0ca4\u0ccd\u0cb0\u0cc6"}}, {"type": "node", "id": 454142398, "lat": 13.0185503, "lon": 77.6364728, "tags": {"amenity": "hospital", "name": "Sathya Hospital", "name:kn": "\u0cb8\u0ca4\u0ccd\u0caf \u0c86\u0cb8\u0ccd\u0caa\u0ca4\u0ccd\u0cb0\u0cc6"}}, {"type": "node", "id": 1722802205, "lat": 13.0307899, "lon": 77.653594, "tags": {"amenity": "hospital", "emergency": "no", "name": "Karunya Homoeopathy Centre"}}, {"type": "node", "id": 1761866934, "lat": 13.0207033, "lon": 77.6760593, "tags": {"amenity": "hospital", "name": "Koshys Hospital"}}, {"type": "node", "id": 1988322107, "lat": 13.0834023, "lon": 77.6348642, "tags": {"amenity": "hospital", "name": "Dhanavantri Hospital", "name:kn": "\u0ca7\u0ca8\u0cb5\u0c82\u0ca4\u0ccd\u0cb0\u0cbf \u0c86\u0cb8\u0ccd\u0caa\u0ca4\u0ccd\u0cb0\u0cc6"}}, {"type": "node", "id": 2283768011, "lat": 13.0517437, "lon": 77.716215}, {"type": "node", "id": 2625606671, "lat": 13.0224052, "lon": 77.6579566}, {"type": "node", "id": 2625606675, "lat": 13.0224263, "lon": 77.6581236}, {"type": "node", "id": 2625606677, "lat": 13.0223411, "lon": 77.658075}, {"type": "node", "id": 3565016646, "lat": 13.0170766, "lon": 77.6431868}, {"type": "node", "id": 3565016647, "lat": 13.017072, "lon": 77.6434018}, {"type": "node", "id": 3565016652, "lat": 13.0171877, "lon": 77.6431868}, {"type": "node", "id": 3565016653, "lat": 13.0171847, "lon": 77.6434021}, {"type": "node", "id": 3673078016, "lat": 13.0205293, "lon": 77.7017416}, {"type": "node", "id": 3673078017, "lat": 13.0204392, "lon": 77.7014212}, {"type": "node", "id": 3679885227, "lat": 13.0152169, "lon": 77.6467618}, {"type": "node", "id": 3679885229, "lat": 13.0152231, "lon": 77.646654}, {"type": "node", "id": 3679885235, "lat": 13.015304, "lon": 77.646767}, {"type": "node", "id": 3679885236, "lat": 13.0153101, "lon": 77.6466592}, {"type": "node", "id": 4189843307, "lat": 13.0206063, "lon": 77.6445361, "tags": {"addr:city": "Bangalore", "addr:postcode": "560043", "addr:street": "4th B cross, 7th C Main", "amenity": "hospital", "emergency": "no", "name": "Rajbal Skin Clinic", "operator": "Skin Specialist"}}, {"type": "node", "id": 4349443891, "lat": 13.0169826, "lon": 77.6432959, "tags": {"addr:district": "Bengaluru Urban", "addr:full": "Kalyan Nagar, Bengaluru", "addr:postcode": "560043", "addr:state": "Karnataka", "amenity": "hospital", "name": "Trilife Hospital", "source": "Local Knowledge"}}, {"type": "node", "id": 4445179843, "lat": 13.0830463, "lon": 77.6347174, "tags": {"addr:city": "Bangalore", "addr:housenumber": "No.30", "addr:postcode": "560064", "addr:street": "Thanisandra Main Road, Chokkanahalli", "amenity": "hospital", "name": "Regal Hospital", "phone": "08033082383", "website": "https://regalhospital.com/"}}, {"type": "node", "id": 4445183934, "lat": 13.0158543, "lon": 77.7033173, "tags": {"addr:city": "Bengaluru", "addr:housenumber": "53", "addr:postcode": "560049", "addr:street": "Near Sathya Sai Lake Side Hospital, 3rd Main, Vinayaka Layout, Old Madras Road, Battarahalli, K.R. Puram, Vidya Nagar, Krishnarajapuram", "amenity": "hospital", "name": "Thyrocare", "phone": "080 6568 0365"}}, {"type": "node", "id": 4445955282, "lat": 13.0203944, "lon": 77.6512682, "tags": {"addr:city": "BANGALORE", "addr:housenumber": "914, 5th A Cross Road", "addr:postcode": "560043", "addr:street": "Outer Ring Road", "amenity": "hospital", "emergency": "yes", "name": "Procare Hospital", "phone": "080 4162 0620", "website": "080 4162 0620"}}, {"type": "node", "id": 4446876066, "lat": 13.0204424, "lon": 77.6440607, "tags": {"addr:city": "Bangalore", "addr:housenumber": "714", "addr:postcode": "560043", "addr:street": "4th B Cross, 7th A Main, 1st Block, HRBR Layout, Kalyan Nagar", "amenity": "hospital", "name": "Herbocare Hospital Pvt", "phone": "+9174064 30003", "website": "herbocare.info"}}, {"type": "node", "id": 4689872196, "lat": 13.0215807, "lon": 77.7128053, "tags": {"addr:district": "Bengaluru Urban", "addr:full": "Road , Casross Opposite Tc Palya Bus Store Old Madars Road", "addr:postcode": "560049", "addr:state": "Karnataka", "amenity": "hospital", "name": "Sathya Sai Lake Side Ortho Hospital", "name:en": "Satya Sai", "source": "OpenGovernmentData"}}, {"type": "node", "id": 5112189133, "lat": 13.0669233, "lon": 77.6393713}, {"type": "node", "id": 5112189134, "lat": 13.0669011, "lon": 77.639487}, {"type": "node", "id": 5112189135, "lat": 13.0667751, "lon": 77.6394615}, {"type": "node", "id": 5112189136, "lat": 13.0667973, "lon": 77.6393458}, {"type": "node", "id": 5112227907, "lat": 13.0171877, "lon": 77.6432248}, {"type": "node", "id": 5966255497, "lat": 13.066842, "lon": 77.6390545, "tags": {"amenity": "hospital", "name": "Bangalore Prime Hospital"}}, {"type": "node", "id": 6938949273, "lat": 13.0186045, "lon": 77.6479433, "tags": {"addr:district": "Bengaluru Urban", "addr:full": "No. 3Ac 902, 3Road A Cross, 1st Block,9Th A Main, Kalyannagar", "addr:postcode": "560043", "addr:state": "Karnataka", "amenity": "hospital", "name": "Lokhande S Hospital", "source": "OpenGovernmentData"}}, {"type": "node", "id": 6939311791, "lat": 13.0373572, "lon": 77.6409059, "tags": {"addr:district": "Bengaluru Urban", "addr:full": "#3/666, Hennur Bande,Hennur Main Road, Kalayan Nagar Post,International Link Road", "addr:postcode": "560043", "addr:state": "Karnataka", "amenity": "hospital", "name": "Shree Vijayalakshmi Hospital and Trauma Centre", "source": "OpenGovernmentData"}}, {"type": "node", "id": 6944231456, "lat": 13.0555559, "lon": 77.6517145, "tags": {"addr:district": "Bengaluru Urban", "addr:full": "85 Byrathi, Hennur Main Road,Near Kothnur Police Station", "addr:postcode": "560077", "addr:state": "Karnataka", "amenity": "hospital", "name": "Medi Derma Hospital", "source": "OpenGovernmentData"}}, {"type": "node", "id": 6944392375, "lat": 13.0205082, "lon": 77.6509675, "tags": {"addr:district": "Bengaluru Urban", "addr:full": "904, 1st Block, Hrbr Layout (Near Overhead Water Tank, Outer Ring Road) Bansawadi", "addr:postcode": "560043", "addr:state": "Karnataka", "amenity": "hospital", "name": "Banasawadi Hospital", "name:kn": "\u0cac\u0cbe\u0ca8\u0cb8\u0cb5\u0cbe\u0ca1\u0cbf \u0c86\u0cb8\u0ccd\u0caa\u0ca4\u0ccd\u0cb0\u0cc6", "source": "OpenGovernmentData"}}, {"type": "node", "id": 6944392376, "lat": 13.0221036, "lon": 77.6387729, "tags": {"addr:district": "Bengaluru Urban", "addr:full": "#4 Ac-426,4Thcross,2nd Block, Oop.Kalyana Nagar,Telephone Exchange", "addr:postcode": "560043", "addr:state": "Karnataka", "amenity": "hospital", "name": "Bangalore Eye Hospital And Retina Centre", "source": "OpenGovernmentData"}}, {"type": "node", "id": 6947499707, "lat": 13.0178594, "lon": 77.6547577, "tags": {"addr:district": "Bengaluru Urban", "addr:full": "No.1013, 1st Block, 3 Road Cross, Hrbr Layout, Kalyan Nagar", "addr:postcode": "560043", "addr:state": "Karnataka", "amenity": "hospital", "name": "Dr.Zamindar Microsurgical Eye Centre", "operator:type": "private", "source": "OpenGovernmentData", "website": "https://drzamindarseyecentre.com/"}}, {"type": "node", "id": 6947716900, "lat": 13.0276736, "lon": 77.6614188, "tags": {"addr:district": "Bengaluru Urban", "addr:full": "No.21,22,1st Floor,Horamavu Main Road", "addr:postcode": "560043", "addr:state": "Karnataka", "amenity": "hospital", "name": "Dr. Sailaja's Super Speciality Eye Hospital", "source": "OpenGovernmentData"}}, {"type": "node", "id": 7202935809, "lat": 13.0164321, "lon": 77.7169887, "tags": {"addr:district": "Bangalore", "addr:full": "Seegehalli, Virgonagara Post", "addr:postcode": "560049", "addr:state": "Karnataka", "addr:subdistrict": "Bangalore East", "amenity": "hospital", "name": "Seegehalli Government Hospital", "name:kn": "\u0cb8\u0cc0\u0c97\u0cc7\u0cb9\u0cb3\u0ccd\u0cb3\u0cbf \u0cb8\u0cb0\u0ccd\u0c95\u0cbe\u0cb0\u0cbf \u0c86\u0cb8\u0ccd\u0caa\u0ca4\u0ccd\u0cb0\u0cc6", "source": "OpenGovernmentData"}}, {"type": "node", "id": 7572131833, "lat": 13.0239995, "lon": 77.6585299, "tags": {"addr:district": "Bengaluru Urban", "addr:full": "Horamavu, Near Banaswadi, Bengaluru", "addr:postcode": "560043", "addr:state": "Karnataka", "amenity": "hospital", "name": "Stroke Treatment Paralysis", "source": "Local Knowledge"}}, {"type": "node", "id": 7572131835, "lat": 13.0283977, "lon": 77.6599575, "tags": {"addr:district": "Bengaluru Urban", "addr:full": "Banaswadi, Bengaluru", "addr:postcode": "560043", "addr:state": "Karnataka", "amenity": "hospital", "name": "Geriatric Hospitals", "source": "Local Knowledge"}}, {"type": "node", "id": 7572131842, "lat": 13.0219523, "lon": 77.6994046, "tags": {"addr:district": "Bengaluru Urban", "addr:full": "Sunshine Layout, Krishnarajapura, Bengaluru", "addr:postcode": "560036", "addr:state": "Karnataka", "amenity": "hospital", "name": "Health Plus Multi Speciality Hospital", "source": "Local Knowledge"}}, {"type": "node", "id": 7572131863, "lat": 13.0207656, "lon": 77.7014387}, {"type": "node", "id": 7572131884, "lat": 13.033219, "lon": 77.6747693, "tags": {"addr:district": "Bengaluru Urban", "addr:full": "Punyabhoomi Layout, Kalkere, Bengaluru", "addr:postcode": "560016", "addr:state": "Karnataka", "amenity": "hospital", "name": "Eshawar HospItal", "source": "Local Knowledge"}}, {"type": "node", "id": 7577248186, "lat": 13.0193799, "lon": 77.6535352, "tags": {"addr:district": "Bengaluru Urban", "addr:full": "HRBR Layout, Banaswadi, Bengaluru", "addr:postcode": "560043", "addr:state": "Karnataka", "amenity": "hospital", "name": "Shishuka Children's Speciality Hospital", "source": "Local Knowledge"}}, {"type": "node", "id": 7577248221, "lat": 13.0201491, "lon": 77.6516628, "tags": {"addr:district": "Bengaluru Urban", "addr:full": "HRBR Layout, Kalyan Nagar, Bengaluru", "addr:postcode": "560043", "addr:state": "Karnataka", "amenity": "hospital", "name": "Ovum Birthing Centre", "source": "Local Knowledge"}}, {"type": "node", "id": 7577248254, "lat": 13.0166883, "lon": 77.6604049, "tags": {"addr:district": "Bengaluru Urban", "addr:full": "Ramamurthy Nagar, Kuvempu Nagar, Bellandur, Bengaluru", "addr:postcode": "560043", "addr:state": "Karnataka", "amenity": "hospital", "name": "Super Specialty Eye Hospital", "source": "Local Knowledge"}}, {"type": "node", "id": 7577248266, "lat": 13.0188119, "lon": 77.647187, "tags": {"addr:district": "Bengaluru Urban", "addr:full": "HRBR Layout, Banaswadi, Bengaluru", "addr:postcode": "560043", "addr:state": "Karnataka", "amenity": "hospital", "check_date": "2024-08-17", "name": "Anjani Women's Day Care Hospital", "source": "Local Knowledge"}}, {"type": "node", "id": 7577248279, "lat": 13.020084, "lon": 77.654053, "tags": {"addr:district": "Bengaluru Urban", "addr:full": "Nanjappa Garden, Horamavu, Bengaluru", "addr:postcode": "560043", "addr:state": "Karnataka", "amenity": "hospital", "name": "Cloudnine Hospital", "source": "Local Knowledge"}}, {"type": "node", "id": 10310592617, "lat": 13.0970149, "lon": 77.6473961}, {"type": "node", "id": 10688570445, "lat": 13.0398699, "lon": 77.6405164}, {"type": "node", "id": 10688570446, "lat": 13.0398782, "lon": 77.6408677}, {"type": "node", "id": 10688570448, "lat": 13.0404638, "lon": 77.6405016}, {"type": "node", "id": 10866713099, "lat": 13.0974777, "lon": 77.6481082}, {"type": "node", "id": 10866713100, "lat": 13.097691, "lon": 77.6475458}, {"type": "node", "id": 10866713101, "lat": 13.0968569, "lon": 77.6478758}, {"type": "node", "id": 11099732594, "lat": 13.0210779, "lon": 77.701377}, {"type": "node", "id": 12455537849, "lat": 13.0224904, "lon": 77.6580052}, {"type": "node", "id": 12848276816, "lat": 13.0404721, "lon": 77.6408529}, {"type": "node", "id": 12959840781, "lat": 13.0170153, "lon": 77.6429262, "tags": {"amenity": "hospital", "check_date": "2025-06-29", "healthcare": "hospital", "name": "Trilife Hospital", "name:en": "Trilife Hospital", "operator:type": "private"}}, {"type": "node", "id": 13000970699, "lat": 13.0515922, "lon": 77.7172852}, {"type": "node", "id": 13000970700, "lat": 13.0523055, "lon": 77.7173549}, {"type": "node", "id": 13000994501, "lat": 13.0531573, "lon": 77.7175802}, {"type": "node", "id": 13000994502, "lat": 13.0532989, "lon": 77.7185291}, {"type": "node", "id": 13000994503, "lat": 13.054273, "lon": 77.7180791}, {"type": "node", "id": 13000994504, "lat": 13.0541685, "lon": 77.7160111}, {"type": "node", "id": 13000994505, "lat": 13.0540823, "lon": 77.7160621}, {"type": "node", "id": 13000994506, "lat": 13.053996, "lon": 77.7162391}, {"type": "node", "id": 13000994507, "lat": 13.0538967, "lon": 77.7163625}, {"type": "node", "id": 13000994508, "lat": 13.0538393, "lon": 77.7165234}, {"type": "node", "id": 13000994509, "lat": 13.0530632, "lon": 77.7166146}, {"type": "node", "id": 13065064242, "lat": 13.0202419, "lon": 77.6516186, "tags": {"amenity": "hospital", "healthcare": "hospital", "name": "Motherhood"}}, {"type": "node", "id": 13065272003, "lat": 13.0207473, "lon": 77.7013636}, {"type": "node", "id": 13065272004, "lat": 13.0205961, "lon": 77.7017424}, {"type": "node", "id": 13065272005, "lat": 13.0206389, "lon": 77.7019738}, {"type": "node", "id": 13065272006, "lat": 13.0210492, "lon": 77.7019362}, {"type": "node", "id": 13135622865, "lat": 13.0542552, "lon": 77.7176972}, {"type": "node", "id": 13164592436, "lat": 13.0219385, "lon": 77.6385853, "tags": {"addr:city": "Bangalore", "addr:district": "Bengaluru Urban", "addr:housenumber": "426", "addr:postcode": "560043", "addr:street": "CMR Main Rd, 3rd Cross,2nd Block HRBR Layout, Kalyan nagar", "amenity": "hospital", "healthcare": "hospital", "name": "Bangalore Orthopeadic And Surgical Hospital", "operator": "Novosalus Technology", "operator:type": "private"}}, {"type": "node", "id": 13356901983, "lat": 13.0519599, "lon": 77.7173211}, {"type": "node", "id": 13361809653, "lat": 13.056669, "lon": 77.7156758}, {"type": "node", "id": 13361809654, "lat": 13.0567474, "lon": 77.7151608}, {"type": "node", "id": 13361809655, "lat": 13.0562065, "lon": 77.7154371}, {"type": "node", "id": 13361809656, "lat": 13.0561673, "lon": 77.7161425}, {"type": "node", "id": 13361809657, "lat": 13.0564548, "lon": 77.7162015}, {"type": "way", "id": 256940540, "nodes": [12455537849, 2625606675, 2625606677, 2625606671, 12455537849], "tags": {"addr:district": "Bengaluru Urban", "addr:full": "No. 66, 9Th Main , Horamavu Post Horamavu Main Road Banaswadi", "addr:postcode": "560043", "addr:state": "Karnataka", "amenity": "hospital", "building": "yes", "emergency": "yes", "name": "Nmpc Hospital", "source": "OpenGovernmentData"}}, {"type": "way", "id": 350750824, "nodes": [3565016652, 5112227907, 3565016653, 3565016647, 3565016646, 3565016652], "tags": {"addr:postcode": "560043,", "addr:street": "8th Main Road (west)", "amenity": "hospital", "check_date": "2024-09-18", "name": "Ovum Hospitals"}}, {"type": "way", "id": 363870191, "nodes": [3679885236, 3679885235, 3679885227, 3679885229, 3679885236], "tags": {"addr:postcode": "560043", "addr:street": "8th E Main Road", "amenity": "hospital", "healthcare": "hospital", "healthcare:speciality": "general", "name": "Sharada Medicals"}}, {"type": "way", "id": 525508983, "nodes": [5112189133, 5112189134, 5112189135, 5112189136, 5112189133], "tags": {"amenity": "hospital", "emergency": "yes", "name": "Shirdi Sai Hospital", "name:kn": "\u0cb6\u0cbf\u0cb0\u0ca1\u0cbf \u0cb8\u0cbe\u0caf\u0cbf \u0c86\u0cb8\u0ccd\u0caa\u0ca4\u0ccd\u0cb0\u0cc6"}}, {"type": "way", "id": 1148876100, "nodes": [12848276816, 10688570446, 10688570445, 10688570448, 12848276816], "tags": {"amenity": "hospital", "building": "hospital", "building:levels": "7", "building:levels:underground": "3", "height": "29.85", "name": "Sparsh Hospital, Hennur", "operator": "Sparsh Hospital"}}, {"type": "way", "id": 1168448945, "nodes": [10866713099, 10866713100, 10310592617, 10866713101, 10866713099], "tags": {"addr:city": "Bengaluru", "addr:postcode": "562149", "addr:street": "Kannuru Main Road, Mitganahalli, Bellahalli", "amenity": "hospital", "healthcare": "hospital", "name": "Government Primary Health Centre", "name:kn": "\u0cb8\u0cb0\u0ccd\u0c95\u0cbe\u0cb0\u0cbf \u0caa\u0ccd\u0cb0\u0cbe\u0ca5\u0cae\u0cbf\u0c95 \u0c86\u0cb0\u0ccb\u0c97\u0ccd\u0caf \u0c95\u0cc7\u0c82\u0ca6\u0ccd\u0cb0", "operator": "Health and Family Welfare Development", "operator:type": "government"}}, {"type": "way", "id": 1414809361, "nodes": [2283768011, 13000994509, 13000994508, 13000994507, 13000994506, 13000994505, 13000994504, 13135622865, 13000994503, 13000994502, 13000994501, 13000970700, 13356901983, 13000970699, 2283768011], "tags": {"amenity": "hospital", "name": "East Point Hospital and Medical College"}}, {"type": "way", "id": 1421739175, "nodes": [11099732594, 13065272006, 13065272005, 13065272004, 3673078016, 3673078017, 13065272003, 7572131863, 11099732594], "tags": {"addr:district": "Bengaluru Urban", "addr:full": "K.R.Puram, Battarahalli, Bengaluru", "addr:postcode": "560036", "addr:state": "Karnataka", "amenity": "hospital", "name": "Shanthinilaya Hospital", "source": "Local Knowledge"}}, {"type": "way", "id": 1456924436, "nodes": [13361809657, 13361809656, 13361809655, 13361809654, 13361809653, 13361809657], "tags": {"amenity": "hospital"}}]}