{"version": 0.6, "generator": "Overpass API 0.7.62.8 e802775f", "osm3s": {"timestamp_osm_base": "2026-01-12T09:53:45Z", "copyright": "The data included in this document is from www.openstreetmap.org. The data is made available under ODbL."}, "elements": [{"type": "node", "id": 673949, "lat": 53.4718191, "lon": -2.1963011, "tags": {"local_ref": "2", "name": "Ashburys", "public_transport": "stop_position", "railway": "stop", "ref": "2", "train": "yes"}}, {"type": "node", "id": 673959, "lat": 53.4711613, "lon": -2.2132093, "tags": {"description": "Ardwick Station has a very limited service. Two trains a day run towards the city on Monday to Friday mornings, and two trains away from the city in the evening. No service at weekends.", "name": "Ardwick", "name:ur": "\u0622\u0631\u0688 \u0648\u06a9", "naptan:AtcoCode": "9100ARDWICK", "network": "National Rail", "network:website": "https://www.nationalrail.co.uk/stations/adk/", "network:wikidata": "Q26334", "operator": "Northern Trains", "operator:website": "https://www.northernrailway.co.uk/stations/ardwick", "operator:wikidata": "Q85789775", "public_transport": "station", "railway": "station", "ref:crs": "ADK", "wikidata": "Q4788330", "wikipedia": "en:Ardwick railway station"}}, {"type": "node", "id": 3911874, "lat": 53.4563546, "lon": -2.2846315, "tags": {"name": "Old Trafford", "network": "Manchester Metrolink", "network:wikidata": "Q18548", "operator": "KeolisAmey Metrolink", "operator:wikidata": "Q112234319", "public_transport": "stop_position", "railway": "tram_stop", "tram": "yes", "wheelchair": "yes", "zone": "2"}}, {"type": "node", "id": 3915972, "lat": 53.4823545, "lon": -2.2567927, "tags": {"local_ref": "2", "name": "Salford Central", "naptan:AtcoCode": "9100SLFDORD", "note": "Old name is via Wikipedia", "old_name": "Salford", "public_transport": "stop_position", "railway": "stop", "ref": "2", "ref:tiploc": "SLFDORD", "source": "NPE", "train": "yes", "wheelchair": "yes"}}, {"type": "node", "id": 21651503, "lat": 53.4300152, "lon": -2.3116223, "tags": {"name": "Dane Road", "network": "Manchester Metrolink", "network:wikidata": "Q18548", "operator": "KeolisAmey Metrolink", "operator:wikidata": "Q112234319", "public_transport": "stop_position", "railway": "tram_stop", "tram": "yes", "wheelchair": "yes", "zone": "3"}}, {"type": "node", "id": 21668347, "lat": 53.5223155, "lon": -2.3141164, "tags": {"name": "Clifton", "naptan:AtcoCode": "9100CLTN", "network": "National Rail", "network:website": "https://www.nationalrail.co.uk/stations/cli/", "network:wikidata": "Q26334", "operator": "Northern Trains", "operator:website": "https://www.northernrailway.co.uk/stations/clifton-manchester", "operator:wikidata": "Q85789775", "public_transport": "station", "railway": "station", "ref:crs": "CLI", "ref:tiploc": "CLTN", "train": "yes", "wikidata": "Q2708119", "wikipedia": "en:Clifton railway station (Greater Manchester)"}}, {"type": "node", "id": 22404884, "lat": 53.4864231, "lon": -2.2758499, "tags": {"local_ref": "2", "name": "Salford Crescent", "public_transport": "stop_position", "railway": "stop", "ref": "2", "train": "yes"}}, {"type": "node", "id": 25002469, "lat": 53.4460408, "lon": -2.3037692, "tags": {"name": "Stretford", "network": "Manchester Metrolink", "network:wikidata": "Q18548", "operator": "KeolisAmey Metrolink", "operator:wikidata": "Q112234319", "public_transport": "stop_position", "railway": "tram_stop", "tram": "yes", "wheelchair": "yes", "zone": "2&3"}}, {"type": "node", "id": 25422814, "lat": 53.4855266, "lon": -2.3340515, "tags": {"addr:postcode": "M30 0DN", "addr:street": "St Mary's Road", "name": "Eccles", "name:lt": "Eklsas", "naptan:AtcoCode": "9100ECCLES", "network": "National Rail", "network:website": "https://www.nationalrail.co.uk/stations/ecc/", "network:wikidata": "Q26334", "operator": "Northern Trains", "operator:website": "https://www.northernrailway.co.uk/stations/eccles-manchester", "operator:wikidata": "Q85789775", "public_transport": "station", "railway": "station", "ref:crs": "ECC", "ref:tiploc": "ECCLES", "train": "yes", "wheelchair": "no", "wikidata": "Q2890052", "wikipedia": "en:Eccles railway station"}}, {"type": "node", "id": 27079207, "lat": 53.4428177, "lon": -2.2734761, "tags": {"name": "Chorlton", "network": "Manchester Metrolink", "network:wikidata": "Q18548", "operator": "KeolisAmey Metrolink", "operator:wikidata": "Q112234319", "public_transport": "stop_position", "railway": "tram_stop", "tram": "yes", "wheelchair": "yes", "zone": "2"}}, {"type": "node", "id": 27082452, "lat": 53.4616978, "lon": -2.2773315, "tags": {"name": "Trafford Bar", "network": "Manchester Metrolink", "network:wikidata": "Q18548", "operator": "KeolisAmey Metrolink", "operator:wikidata": "Q112234319", "public_transport": "stop_position", "railway": "tram_stop", "tram": "yes", "wheelchair": "yes", "zone": "2"}}, {"type": "node", "id": 29927246, "lat": 53.4359636, "lon": -2.1586843, "tags": {"name": "Reddish South", "naptan:AtcoCode": "9100REDISHS", "network": "National Rail", "network:website": "https://www.nationalrail.co.uk/stations/rds/", "network:wikidata": "Q26334", "operator": "Northern Trains", "public_transport": "station", "railway": "station", "ref:crs": "RDS", "source": "NPE", "train": "yes", "wikidata": "Q7305639", "wikipedia": "en:Reddish South railway station"}}, {"type": "node", "id": 29982980, "lat": 53.4512279, "lon": -2.2776656, "tags": {"name": "Firswood", "network": "Manchester Metrolink", "network:wikidata": "Q18548", "operator": "KeolisAmey Metrolink", "operator:wikidata": "Q112234319", "public_transport": "stop_position", "railway": "tram_stop", "tram": "yes", "wheelchair": "yes", "zone": "2"}}, {"type": "node", "id": 30877304, "lat": 53.5042268, "lon": -2.1837497, "tags": {"name": "Newton Heath and Moston", "network": "Manchester Metrolink", "network:wikidata": "Q18548", "operator": "KeolisAmey Metrolink", "operator:wikidata": "Q112234319", "public_transport": "stop_position", "railway": "tram_stop", "start_date": "2012-04-30", "tram": "yes", "zone": "2&3"}}, {"type": "node", "id": 30877311, "lat": 53.5106465, "lon": -2.1628993, "tags": {"name": "Failsworth", "name:ur": "\u0641\u06cc\u0644\u0632 \u0648\u0631\u062a\u06be", "network": "Manchester Metrolink", "network:wikidata": "Q18548", "operator": "KeolisAmey Metrolink", "operator:wikidata": "Q112234319", "public_transport": "stop_position", "railway": "tram_stop", "start_date": "2012-04-30", "tram": "yes", "zone": "3"}}, {"type": "node", "id": 30969024, "lat": 53.4729536, "lon": -2.2397502, "tags": {"bench": "yes", "bin": "yes", "bus": "yes", "highway": "bus_stop", "lit": "yes", "name": "Manchester City Centre, Oxford Road / Chester Street (Stop C)", "naptan:AtcoCode": "1800SB04941", "naptan:Bearing": "NW", "naptan:Landmark": "THE DANCEHOUSE", "naptan:NaptanCode": "MANGPJPD", "naptan:Street": "Oxford Road", "network": "TfGM", "operator": "TfGM", "public_transport": "platform", "ref": "C", "shelter": "yes", "tactile_paving": "no"}}, {"type": "node", "id": 32202240, "lat": 53.4782055, "lon": -2.2373677}, {"type": "node", "id": 32585937, "lat": 53.5172029, "lon": -2.2410248, "tags": {"name": "Crumpsall", "network": "Manchester Metrolink", "network:wikidata": "Q18548", "operator": "KeolisAmey Metrolink", "operator:wikidata": "Q112234319", "public_transport": "stop_position", "railway": "tram_stop", "tram": "yes", "wheelchair": "yes", "zone": "2"}}, {"type": "node", "id": 32585982, "lat": 53.4878748, "lon": -2.2415514, "tags": {"name": "Victoria", "network": "Manchester Metrolink", "network:wikidata": "Q18548", "operator": "KeolisAmey Metrolink", "operator:wikidata": "Q112234319", "public_transport": "stop_position", "railway": "tram_stop", "tram": "yes", "wheelchair": "yes", "zone": "1"}}, {"type": "node", "id": 32846263, "lat": 53.4798058, "lon": -2.2367977}, {"type": "node", "id": 32846264, "lat": 53.4808434, "lon": -2.2386812}, {"type": "node", "id": 32846265, "lat": 53.4807924, "lon": -2.2384137}, {"type": "node", "id": 32846266, "lat": 53.4799094, "lon": -2.2367124}, {"type": "node", "id": 38893183, "lat": 53.4777678, "lon": -2.2315935}, {"type": "node", "id": 38893286, "lat": 53.4770813, "lon": -2.2306321, "tags": {"name": "Manchester Piccadilly", "public_transport": "stop_position", "railway": "stop", "ref": "10", "train": "yes"}}, {"type": "node", "id": 38893290, "lat": 53.4768943, "lon": -2.2309053, "tags": {"name": "Manchester Piccadilly", "public_transport": "stop_position", "railway": "stop", "train": "yes"}}, {"type": "node", "id": 38893293, "lat": 53.4775939, "lon": -2.2302859, "tags": {"name": "Manchester Piccadilly", "public_transport": "stop_position", "railway": "stop", "train": "yes"}}, {"type": "node", "id": 90677532, "lat": 53.4806525, "lon": -2.2961659, "tags": {"name": "Langworthy", "network": "Manchester Metrolink", "network:wikidata": "Q18548", "operator": "KeolisAmey Metrolink", "operator:wikidata": "Q112234319", "public_transport": "stop_position", "railway": "tram_stop", "tram": "yes", "zone": "2"}}, {"type": "node", "id": 90679689, "lat": 53.4824402, "lon": -2.3075833, "tags": {"name": "Weaste", "network": "Manchester Metrolink", "network:wikidata": "Q18548", "operator": "KeolisAmey Metrolink", "operator:wikidata": "Q112234319", "public_transport": "stop_position", "railway": "tram_stop", "tram": "yes", "zone": "2"}}, {"type": "node", "id": 91867915, "lat": 53.5247879, "lon": -2.2496488, "tags": {"name": "Bowker Vale", "network": "Manchester Metrolink", "network:wikidata": "Q18548", "operator": "KeolisAmey Metrolink", "operator:wikidata": "Q112234319", "public_transport": "stop_position", "railway": "tram_stop", "shelter": "yes", "tram": "yes", "wheelchair": "yes", "zone": "2&3"}}, {"type": "node", "id": 91872523, "lat": 53.5332048, "lon": -2.2817736, "tags": {"name": "Prestwich", "network": "Manchester Metrolink", "network:wikidata": "Q18548", "operator": "KeolisAmey Metrolink", "operator:wikidata": "Q112234319", "public_transport": "stop_position", "railway": "tram_stop", "tram": "yes", "wheelchair": "yes", "zone": "3"}}, {"type": "node", "id": 247394029, "lat": 53.4819132, "lon": -2.2389248, "tags": {"name": "Market Street", "network": "Manchester Metrolink", "network:wikidata": "Q18548", "operator": "KeolisAmey Metrolink", "operator:wikidata": "Q112234319", "public_transport": "stop_position", "railway": "tram_stop", "tram": "yes", "wheelchair": "yes", "zone": "1"}}, {"type": "node", "id": 250439760, "lat": 53.4741592, "lon": -2.2511627}, {"type": "node", "id": 255685653, "lat": 53.4659675, "lon": -2.2380157, "tags": {"bench": "yes", "bin": "yes", "bus": "yes", "highway": "bus_stop", "lit": "yes", "name": "Chorlton upon Medlock, Higher Cambridge Street / outside Dental Hosp", "naptan:AtcoCode": "1800SB31571", "naptan:Bearing": "NW", "naptan:Landmark": "SCHOOL", "naptan:NaptanCode": "MANGTPMP", "naptan:Street": "Hr Cambridge Street", "network": "TfGM", "operator": "TfGM", "public_transport": "platform", "shelter": "yes", "tactile_paving": "no"}}, {"type": "node", "id": 269272689, "lat": 53.4740528, "lon": -2.195551, "tags": {"bench": "yes", "bin": "yes", "bus": "yes", "highway": "bus_stop", "lit": "yes", "local_ref": "B", "name": "Ashton Old Road/Pottery Lane (Stop B)", "naptan:AtcoCode": "1800EB33861", "naptan:Bearing": "W", "naptan:CommonName": "Ashton Old Road/Pottery Lane (Stop B)", "naptan:Indicator": "Stop B", "naptan:Landmark": "OPP HEALTH CTR", "naptan:NaptanCode": "manajatw", "naptan:Notes": "LOCATION AMENDED", "naptan:PlusbusZoneRef": "MNCRPIC", "naptan:ShortCommonName": "Pottery Lane", "naptan:Street": "ASHTON OLD ROAD", "naptan:verified": "no", "network": "TfGM", "public_transport": "platform", "shelter": "yes", "source": "naptan_import", "tactile_paving": "no"}}, {"type": "node", "id": 280973071, "lat": 53.4428972, "lon": -2.1910346, "tags": {"bench": "yes", "bin": "yes", "bus": "yes", "check_date:shelter": "2025-01-03", "highway": "bus_stop", "lit": "yes", "name": "Levenshulme, Stockport Road / near Albert Road", "naptan:AtcoCode": "1800EB03611", "naptan:Bearing": "N", "naptan:CommonName": "Stockport Road/Albert Road", "naptan:Indicator": "Supermarket", "naptan:Landmark": "SHOP", "naptan:NaptanCode": "manadjwa", "naptan:PlusbusZoneRef": "MNCRPIC", "naptan:ShortCommonName": "Albert Road", "naptan:Street": "STOCKPORT ROAD", "naptan:verified": "no", "network": "TfGM", "operator": "TfGM", "public_transport": "platform", "shelter": "yes", "source": "naptan_import", "tactile_paving": "no"}}, {"type": "node", "id": 304020353, "lat": 53.4679085, "lon": -2.2301411, "tags": {"bench": "yes", "bin": "no", "bus": "yes", "highway": "bus_stop", "lit": "yes", "name": "Brunswick, Upper Brook Street / near Brunswick Street", "naptan:AtcoCode": "1800EB01751", "naptan:Bearing": "SE", "naptan:CommonName": "Upper Brook Street/Brunswick Street", "naptan:Indicator": "Opp University", "naptan:Landmark": "GARAGE", "naptan:NaptanCode": "manadgja", "naptan:PlusbusZoneRef": "MNCRPIC", "naptan:ShortCommonName": "Brunswick Street", "naptan:Street": "Upper Brook Street", "naptan:verified": "no", "network": "TfGM", "operator": "TfGM", "public_transport": "platform", "shelter": "yes", "source": "naptan_import", "tactile_paving": "no"}}, {"type": "node", "id": 307642144, "lat": 53.4768199, "lon": -2.2278111}, {"type": "node", "id": 307642158, "lat": 53.4774375, "lon": -2.230502}, {"type": "node", "id": 308477653, "lat": 53.531925, "lon": -2.2457628, "tags": {"name": "Middleton Road", "public_transport": "stop_position", "railway": "tram_stop", "tram": "yes", "usage": "tourism"}}, {"type": "node", "id": 308477670, "lat": 53.5318644, "lon": -2.2563988, "tags": {"name": "Lakeside", "public_transport": "stop_position", "railway": "tram_stop", "tram": "yes", "usage": "tourism"}}, {"type": "node", "id": 315267693, "lat": 53.477817, "lon": -2.2308829, "tags": {"addr:city": "Manchester", "addr:housename": "Piccadilly Station", "addr:postcode": "M1 2BN", "addr:street": "Piccadilly Station Approach", "addr:unit": "Unit 16", "amenity": "fast_food", "brand": "Burger King", "brand:wikidata": "Q177054", "brand:wikipedia": "en:Burger King", "check_date": "2025-11-17", "check_date:opening_hours": "2025-11-17", "contact:website": "https://locations.burgerking.co.uk/manchester/unit-16-piccadilly-station", "cuisine": "burger", "drive_in": "no", "drive_through": "no", "fhrs:id": "1818948", "fhrs:local_authority_id": "AC-072024-013435", "indoor_seating": "no", "internet_access": "no", "level": "1", "name": "Burger King", "opening_hours:signed": "no", "outdoor_seating": "no", "source:addr": "FHRS Open Data", "takeaway": "only", "wheelchair": "yes"}}, {"type": "node", "id": 335598932, "lat": 53.478363, "lon": -2.2431024}, {"type": "node", "id": 335599055, "lat": 53.4780136, "lon": -2.2433069}, {"type": "node", "id": 335599056, "lat": 53.4783891, "lon": -2.2427914}, {"type": "node", "id": 335599057, "lat": 53.4785135, "lon": -2.2424909}, {"type": "node", "id": 335599058, "lat": 53.4780759, "lon": -2.2431095}, {"type": "node", "id": 335600085, "lat": 53.4769903, "lon": -2.2304441, "tags": {"level": "-1", "name": "Piccadilly", "network": "Manchester Metrolink", "network:wikidata": "Q18548", "operator": "KeolisAmey Metrolink", "operator:wikidata": "Q112234319", "public_transport": "stop_position", "railway": "tram_stop", "tram": "yes", "wheelchair": "yes", "zone": "1"}}, {"type": "node", "id": 337175315, "lat": 53.4776556, "lon": -2.2315255, "tags": {"addr:city": "Manchester", "addr:housename": "Piccadilly Station", "addr:postcode": "M1 2PA", "addr:street": "Piccadilly Station Approach", "branch": "Manchester Piccadilly - Main", "brand": "WHSmith", "brand:website": "https://www.whsmithplc.co.uk/", "brand:wikidata": "Q1548712", "brand:wikipedia": "en:WHSmith", "check_date": "2023-06-01", "fhrs:id": "1819157", "fhrs:local_authority_id": "AC-072024-013685", "level": "1", "name": "WHSmith", "operator:wikidata": "Q1548712", "shop": "newsagent", "source:addr": "FHRS Open Data", "wheelchair": "yes"}}, {"type": "node", "id": 343838101, "lat": 53.4780599, "lon": -2.2434043}, {"type": "node", "id": 343849223, "lat": 53.4819168, "lon": -2.2386228, "tags": {"name": "Market Street", "network": "Manchester Metrolink", "network:wikidata": "Q18548", "operator": "KeolisAmey Metrolink", "operator:wikidata": "Q112234319", "public_transport": "stop_position", "railway": "tram_stop", "tram": "yes", "wheelchair": "yes", "zone": "1"}}, {"type": "node", "id": 347005222, "lat": 53.4738048, "lon": -2.2432228}, {"type": "node", "id": 347005224, "lat": 53.4738331, "lon": -2.242675}, {"type": "node", "id": 347005226, "lat": 53.4737658, "lon": -2.2407531}, {"type": "node", "id": 347005228, "lat": 53.4737051, "lon": -2.2415917}, {"type": "node", "id": 347005231, "lat": 53.4737542, "lon": -2.242648}, {"type": "node", "id": 347005232, "lat": 53.47377, "lon": -2.2432256}, {"type": "node", "id": 347005569, "lat": 53.4737164, "lon": -2.2432256}, {"type": "node", "id": 347005571, "lat": 53.4736786, "lon": -2.2432303}, {"type": "node", "id": 347005574, "lat": 53.4736257, "lon": -2.2420288}, {"type": "node", "id": 347005575, "lat": 53.473633, "lon": -2.2415911}, {"type": "node", "id": 347005579, "lat": 53.473653, "lon": -2.2415907}, {"type": "node", "id": 347005580, "lat": 53.4736571, "lon": -2.2418018}, {"type": "node", "id": 347006767, "lat": 53.4739257, "lon": -2.2430117}, {"type": "node", "id": 347006771, "lat": 53.4742837, "lon": -2.2417788}, {"type": "node", "id": 347006774, "lat": 53.4742633, "lon": -2.2417617}, {"type": "node", "id": 347006790, "lat": 53.4738742, "lon": -2.2430842}, {"type": "node", "id": 347006792, "lat": 53.4738825, "lon": -2.2432389}, {"type": "node", "id": 347262398, "lat": 53.4737916, "lon": -2.2411066, "tags": {"local_ref": "3", "name": "Manchester Oxford Road", "public_transport": "stop_position", "railway": "stop", "ref": "3", "train": "yes", "wheelchair": "no"}}, {"type": "node", "id": 347262413, "lat": 53.4737253, "lon": -2.2424766, "tags": {"local_ref": "2", "name": "Manchester Oxford Road", "public_transport": "stop_position", "railway": "stop", "ref": "2", "train": "yes", "wheelchair": "no"}}, {"type": "node", "id": 349044301, "lat": 53.4738638, "lon": -2.241156}, {"type": "node", "id": 349044302, "lat": 53.473836, "lon": -2.2411564}, {"type": "node", "id": 349044303, "lat": 53.4738804, "lon": -2.2428428}, {"type": "node", "id": 349044305, "lat": 53.4739033, "lon": -2.2429854}, {"type": "node", "id": 349044306, "lat": 53.4739094, "lon": -2.2429597}, {"type": "node", "id": 368293508, "lat": 53.4267289, "lon": -2.1797371}, {"type": "node", "id": 368293509, "lat": 53.4256895, "lon": -2.1788746}, {"type": "node", "id": 370209508, "lat": 53.4266932, "lon": -2.1800501}, {"type": "node", "id": 370466206, "lat": 53.4253787, "lon": -2.1789833}, {"type": "node", "id": 370466306, "lat": 53.4254391, "lon": -2.1790291}, {"type": "node", "id": 442651890, "lat": 53.4705762, "lon": -2.2840164}, {"type": "node", "id": 442651891, "lat": 53.4700443, "lon": -2.2841711}, {"type": "node", "id": 442651892, "lat": 53.4705693, "lon": -2.2838641}, {"type": "node", "id": 442651893, "lat": 53.4700353, "lon": -2.2840029}, {"type": "node", "id": 446347553, "lat": 53.4455683, "lon": -2.1931231}, {"type": "node", "id": 446347555, "lat": 53.4442655, "lon": -2.1925985}, {"type": "node", "id": 446347558, "lat": 53.4442372, "lon": -2.1928216}, {"type": "node", "id": 446347561, "lat": 53.4454746, "lon": -2.1933519}, {"type": "node", "id": 464303828, "lat": 53.4291691, "lon": -2.2406433, "tags": {"name": "Burton Road", "network": "Manchester Metrolink", "network:wikidata": "Q18548", "operator": "KeolisAmey Metrolink", "operator:wikidata": "Q112234319", "public_transport": "stop_position", "railway": "tram_stop", "tram": "yes", "wheelchair": "yes", "zone": "3"}}, {"type": "node", "id": 464303845, "lat": 53.4327609, "lon": -2.2493347, "tags": {"name": "Withington", "network": "Manchester Metrolink", "network:wikidata": "Q18548", "operator": "KeolisAmey Metrolink", "operator:wikidata": "Q112234319", "public_transport": "stop_position", "railway": "tram_stop", "tram": "yes", "wheelchair": "yes", "zone": "3"}}, {"type": "node", "id": 465239559, "lat": 53.5148082, "lon": -2.336998, "tags": {"name": "Swinton (Manchester)", "naptan:AtcoCode": "9100SWNT", "network": "National Rail", "network:website": "https://www.nationalrail.co.uk/stations/snn/", "network:wikidata": "Q26334", "operator": "Northern Trains", "operator:website": "https://www.northernrailway.co.uk/stations/swinton-manchester", "operator:wikidata": "Q85789775", "public_transport": "station", "railway": "station", "ref:crs": "SNN", "train": "yes", "wheelchair": "no", "wikidata": "Q2685761", "wikipedia": "en:Swinton railway station (Greater Manchester)"}}, {"type": "node", "id": 488740712, "lat": 53.4768596, "lon": -2.2309898}, {"type": "node", "id": 488740727, "lat": 53.4765322, "lon": -2.2295765}, {"type": "node", "id": 488749531, "lat": 53.4776812, "lon": -2.2303578}, {"type": "node", "id": 488754095, "lat": 53.4769199, "lon": -2.2276321}, {"type": "node", "id": 488761331, "lat": 53.4767101, "lon": -2.227242}, {"type": "node", "id": 488793718, "lat": 53.4773065, "lon": -2.230585}, {"type": "node", "id": 488793722, "lat": 53.4767272, "lon": -2.2280403}, {"type": "node", "id": 488798260, "lat": 53.4771897, "lon": -2.2306518}, {"type": "node", "id": 488798264, "lat": 53.4766208, "lon": -2.2281415}, {"type": "node", "id": 488800365, "lat": 53.4765873, "lon": -2.2279552}, {"type": "node", "id": 488801053, "lat": 53.4770451, "lon": -2.2307495}, {"type": "node", "id": 488801056, "lat": 53.4765939, "lon": -2.2288254}, {"type": "node", "id": 488808174, "lat": 53.4768325, "lon": -2.2290706}, {"type": "node", "id": 488809207, "lat": 53.4768094, "lon": -2.2297445}, {"type": "node", "id": 491540318, "lat": 53.476461, "lon": -2.2270227}, {"type": "node", "id": 491540320, "lat": 53.4764043, "lon": -2.2266786}, {"type": "node", "id": 493172358, "lat": 53.4820417, "lon": -2.2392113}, {"type": "node", "id": 493172360, "lat": 53.4817791, "lon": -2.2382328}, {"type": "node", "id": 493172568, "lat": 53.4804311, "lon": -2.2373529}, {"type": "node", "id": 493172569, "lat": 53.4801322, "lon": -2.2367145}, {"type": "node", "id": 493172618, "lat": 53.4808206, "lon": -2.2389836}, {"type": "node", "id": 493172619, "lat": 53.4803928, "lon": -2.2395897}, {"type": "node", "id": 493174310, "lat": 53.4854439, "lon": -2.2393302}, {"type": "node", "id": 493174311, "lat": 53.4849989, "lon": -2.2388603}, {"type": "node", "id": 493175824, "lat": 53.4775629, "lon": -2.230307, "tags": {"name": "Manchester Piccadilly", "public_transport": "stop_position", "railway": "stop", "train": "yes"}}, {"type": "node", "id": 500954038, "lat": 53.4773218, "lon": -2.229076, "tags": {"local_ref": "1", "name": "Manchester Piccadilly", "public_transport": "stop_position", "railway": "stop", "ref": "1", "train": "yes"}}, {"type": "node", "id": 500954178, "lat": 53.4772883, "lon": -2.2290969, "tags": {"local_ref": "2", "name": "Manchester Piccadilly", "public_transport": "stop_position", "railway": "stop", "ref": "2", "train": "yes"}}, {"type": "node", "id": 500954354, "lat": 53.4772143, "lon": -2.2291455, "tags": {"local_ref": "3", "name": "Manchester Piccadilly", "public_transport": "stop_position", "railway": "stop", "ref": "3", "train": "yes"}}, {"type": "node", "id": 500954419, "lat": 53.4771789, "lon": -2.2291662, "tags": {"local_ref": "4", "name": "Manchester Piccadilly", "public_transport": "stop_position", "railway": "stop", "ref": "4", "train": "yes"}}, {"type": "node", "id": 500954480, "lat": 53.4770945, "lon": -2.2292389, "tags": {"local_ref": "5", "name": "Manchester Piccadilly", "public_transport": "stop_position", "railway": "stop", "ref": "5", "train": "yes"}}, {"type": "node", "id": 500954663, "lat": 53.4770507, "lon": -2.2292794, "tags": {"local_ref": "6", "name": "Manchester Piccadilly", "public_transport": "stop_position", "railway": "stop", "ref": "6", "train": "yes"}}, {"type": "node", "id": 500955316, "lat": 53.4766321, "lon": -2.2298028, "tags": {"local_ref": "11", "name": "Manchester Piccadilly", "public_transport": "stop_position", "railway": "stop", "ref": "11", "train": "yes"}}, {"type": "node", "id": 500956218, "lat": 53.4761284, "lon": -2.2296773, "tags": {"local_ref": "14", "name": "Manchester Piccadilly", "public_transport": "stop_position", "railway": "stop", "ref": "14", "train": "yes"}}, {"type": "node", "id": 533801728, "lat": 53.5173374, "lon": -2.177572, "tags": {"bus": "yes", "highway": "bus_stop", "name": "Moston, St Mary's Road / near Nuthurst Road", "naptan:AtcoCode": "1800EB01551", "naptan:Bearing": "N", "naptan:CommonName": "St Mary's Road/Nuthurst Road", "naptan:Indicator": "Opp House 366", "naptan:Landmark": "SCHOOL", "naptan:NaptanCode": "manadgam", "naptan:Notes": "Stop Movement", "naptan:PlusbusZoneRef": "MNCRPIC", "naptan:ShortCommonName": "Nuthurst Road", "naptan:Street": "St Mary's Road", "naptan:verified": "no", "network": "TfGM", "operator": "TfGM", "public_transport": "platform", "source": "naptan_import"}}, {"type": "node", "id": 533801734, "lat": 53.4427311, "lon": -2.2055948, "tags": {"bus": "yes", "highway": "bus_stop", "local_ref": "A", "name": "Birchfields, Birchfields Road / Fallowfield Shopping Centre (Stop A)", "naptan:AtcoCode": "1800EB01591", "naptan:Bearing": "N", "naptan:CommonName": "Birchfields Rd/Fallowfield Centre (A)", "naptan:Indicator": "Stop A", "naptan:Landmark": "Fallowfield Shopping Centre", "naptan:NaptanCode": "manadgap", "naptan:PlusbusZoneRef": "MNCRPIC", "naptan:ShortCommonName": "Fallowfield Ctr", "naptan:Street": "Birchfields Road", "naptan:verified": "no", "network": "TfGM", "operator": "TfGM", "public_transport": "platform", "ref": "A", "shelter": "yes"}}, {"type": "node", "id": 533801739, "lat": 53.4460463, "lon": -2.2065744, "tags": {"bus": "yes", "highway": "bus_stop", "lit": "yes", "name": "Birchfields, Birchfields Road / opposite Lytham Road", "naptan:AtcoCode": "1800EB01601", "naptan:Bearing": "N", "naptan:CommonName": "Birchfields Road/Lytham Road", "naptan:Indicator": "House 100", "naptan:Landmark": "HOUSE 98", "naptan:NaptanCode": "manadgat", "naptan:PlusbusZoneRef": "MNCRPIC", "naptan:ShortCommonName": "Lytham Road", "naptan:Street": "Birchfields Road", "naptan:verified": "no", "network": "TfGM", "operator": "TfGM", "public_transport": "platform", "shelter": "no"}}, {"type": "node", "id": 533801743, "lat": 53.4476667, "lon": -2.2070945, "tags": {"bench": "no", "bin": "yes", "bus": "yes", "highway": "bus_stop", "lit": "yes", "name": "Birchfields, Birchfields Road / adjacent Old Hall Lane", "naptan:AtcoCode": "1800EB01611", "naptan:Bearing": "N", "naptan:CommonName": "Birchfields Road/Old Hall Lane", "naptan:Indicator": "House 60", "naptan:Landmark": "HOUSE 58", "naptan:NaptanCode": "manadgaw", "naptan:PlusbusZoneRef": "MNCRPIC", "naptan:ShortCommonName": "Old Hall Lane", "naptan:Street": "Birchfields Road", "naptan:verified": "no", "network": "TfGM", "operator": "TfGM", "public_transport": "platform", "shelter": "yes", "tactile_paving": "no"}}, {"type": "node", "id": 533801748, "lat": 53.4494862, "lon": -2.2081571, "tags": {"bus": "yes", "highway": "bus_stop", "name": "Birchfields, Birchfields Road / near Telfer Road", "naptan:AtcoCode": "1800EB01621", "naptan:Bearing": "N", "naptan:CommonName": "Birchfields Road/Telfer Road", "naptan:Indicator": "O/s House 24", "naptan:Landmark": "HOUSE 24", "naptan:NaptanCode": "manadgda", "naptan:PlusbusZoneRef": "MNCRPIC", "naptan:ShortCommonName": "Telfer Road", "naptan:Street": "Birchfields Road", "naptan:verified": "no", "network": "TfGM", "operator": "TfGM", "public_transport": "platform"}}, {"type": "node", "id": 533801753, "lat": 53.4509767, "lon": -2.2091131, "tags": {"bus": "yes", "highway": "bus_stop", "name": "Birchfields, Birchfields Road / near Birch Hall Lane", "naptan:AtcoCode": "1800EB01641", "naptan:Bearing": "NW", "naptan:CommonName": "Birchfields Road/Birch Hall Lane", "naptan:Indicator": "Opp House 57", "naptan:Landmark": "PARK", "naptan:NaptanCode": "manadgdg", "naptan:PlusbusZoneRef": "MNCRPIC", "naptan:ShortCommonName": "Birch Hall Lane", "naptan:Street": "Birchfields Road", "naptan:verified": "no", "network": "TfGM", "operator": "TfGM", "public_transport": "platform"}}, {"type": "node", "id": 533801754, "lat": 53.4535347, "lon": -2.211249, "tags": {"bench": "yes", "bin": "no", "bus": "yes", "highway": "bus_stop", "local_ref": "D", "name": "Rusholme, Birchfields Road (Stop D)", "naptan:AtcoCode": "1800EB01651", "naptan:Bearing": "NW", "naptan:CommonName": "Birchfields Road/Dickenson Road (Stop D)", "naptan:Indicator": "Stop D", "naptan:Landmark": "Birchfields Park", "naptan:NaptanCode": "manadgdj", "naptan:PlusbusZoneRef": "MNCRPIC", "naptan:ShortCommonName": "Dickenson Road", "naptan:Street": "Birchfields Road", "naptan:verified": "no", "network": "TfGM", "operator": "TfGM", "public_transport": "platform", "ref": "D", "shelter": "yes"}}, {"type": "node", "id": 533801755, "lat": 53.4562769, "lon": -2.2159613, "tags": {"bus": "yes", "highway": "bus_stop", "name": "Rusholme, Anson Road / near Denison Road", "naptan:AtcoCode": "1800EB01661", "naptan:Bearing": "NW", "naptan:CommonName": "Anson Road/Denison Road", "naptan:Indicator": "Opp Public Hse", "naptan:Landmark": "FLATS", "naptan:NaptanCode": "manadgdm", "naptan:PlusbusZoneRef": "MNCRPIC", "naptan:ShortCommonName": "Denison Road", "naptan:Street": "ANSON ROAD", "naptan:verified": "no", "network": "TfGM", "operator": "TfGM", "public_transport": "platform", "shelter": "yes"}}, {"type": "node", "id": 533801756, "lat": 53.4576212, "lon": -2.2182818, "tags": {"bus": "yes", "highway": "bus_stop", "name": "Rusholme, Anson Road / opposite Daisy Bank Road", "naptan:AtcoCode": "1800EB01671", "naptan:Bearing": "NW", "naptan:CommonName": "Anson Road/Daisy Bank Road", "naptan:Indicator": "Church", "naptan:Landmark": "CHURCH", "naptan:NaptanCode": "manadgdp", "naptan:PlusbusZoneRef": "MNCRPIC", "naptan:ShortCommonName": "Daisy Bank Road", "naptan:Street": "ANSON ROAD", "naptan:verified": "no", "network": "TfGM", "operator": "TfGM", "public_transport": "platform"}}, {"type": "node", "id": 533801758, "lat": 53.4707966, "lon": -2.2335408, "tags": {"bench": "yes", "bin": "yes", "bus": "yes", "highway": "bus_stop", "lit": "yes", "name": "Chorlton upon Medlock, Upper Brook Street / near Grosvenor Street", "naptan:AtcoCode": "1800EB01731", "naptan:Bearing": "SE", "naptan:CommonName": "Upper Brook Street/Grosvenor Street", "naptan:Indicator": "Opp Science Ctr", "naptan:Landmark": "GARAGE", "naptan:NaptanCode": "manadgdt", "naptan:PlusbusZoneRef": "MNCRPIC", "naptan:ShortCommonName": "Grosvenor Street", "naptan:Street": "Upper Brook Street", "naptan:verified": "no", "network": "TfGM", "operator": "TfGM", "public_transport": "platform", "shelter": "yes", "source": "naptan_import", "tactile_paving": "no"}}, {"type": "node", "id": 533801763, "lat": 53.4690327, "lon": -2.2314996, "tags": {"bench": "yes", "bin": "no", "bus": "yes", "highway": "bus_stop", "lit": "yes", "name": "Chorlton upon Medlock, Upper Brook Street / opposite Booth Street East", "naptan:AtcoCode": "1800EB01741", "naptan:Bearing": "SE", "naptan:CommonName": "Upper Brook Street/Booth Street East", "naptan:Indicator": "Os Islamic Cnr", "naptan:Landmark": "ISLAMIC ACADEMY", "naptan:NaptanCode": "manadgdw", "naptan:PlusbusZoneRef": "MNCRPIC", "naptan:ShortCommonName": "Booth Street East", "naptan:Street": "Upper Brook Street", "naptan:verified": "no", "network": "TfGM", "operator": "TfGM", "public_transport": "platform", "shelter": "yes", "source": "naptan_import", "tactile_paving": "no"}}, {"type": "node", "id": 533801770, "lat": 53.4652111, "lon": -2.2260087, "tags": {"bus": "yes", "highway": "bus_stop", "name": "Plymouth Grove/Upper Brook St", "naptan:AtcoCode": "1800EB01761", "naptan:Bearing": "SE", "naptan:CommonName": "Plymouth Grove/Upper Brook St", "naptan:Indicator": "O/s House 3", "naptan:Landmark": "House 3", "naptan:NaptanCode": "manadgjd", "naptan:PlusbusZoneRef": "MNCRPIC", "naptan:ShortCommonName": "Upper Brook St", "naptan:Street": "PLYMOUTH GROVE", "naptan:verified": "no", "network": "TfGM", "public_transport": "platform", "source": "naptan_import"}}, {"type": "node", "id": 533801773, "lat": 53.463979, "lon": -2.2215435, "tags": {"bench": "no", "bin": "no", "bus": "yes", "highway": "bus_stop", "name": "Chorlton upon Medlock, Plymouth Grove / opposite Hyde Grove", "naptan:AtcoCode": "1800EB01771", "naptan:Bearing": "E", "naptan:CommonName": "Plymouth Grove/Hyde Grove", "naptan:Indicator": "Opp House 82", "naptan:Landmark": "SUB STATION", "naptan:NaptanCode": "manadgjg", "naptan:Notes": "STOP NAME", "naptan:PlusbusZoneRef": "MNCRPIC", "naptan:ShortCommonName": "Hyde Grove", "naptan:Street": "PLYMOUTH GROVE", "naptan:verified": "no", "network": "TfGM", "operator": "TfGM", "public_transport": "platform", "shelter": "no", "tactile_paving": "no", "wheelchair": "yes"}}, {"type": "node", "id": 533801777, "lat": 53.4629429, "lon": -2.2178296, "tags": {"bench": "no", "bin": "no", "bus": "yes", "check_date:shelter": "2025-04-23", "highway": "bus_stop", "lit": "yes", "name": "Chorlton upon Medlock, Plymouth Grove / opposite Lincoln Gove", "naptan:AtcoCode": "1800EB01781", "naptan:Bearing": "E", "naptan:CommonName": "Plymouth Grove/Bletchley Close", "naptan:Indicator": "Opp School Fld", "naptan:Landmark": "HOUSE 125", "naptan:NaptanCode": "manadgjm", "naptan:PlusbusZoneRef": "MNCRPIC", "naptan:ShortCommonName": "Bletchley Close", "naptan:Street": "PLYMOUTH GROVE", "naptan:verified": "no", "network": "TfGM", "operator": "TfGM", "public_transport": "platform", "shelter": "no", "tactile_paving": "no"}}, {"type": "node", "id": 533801781, "lat": 53.4623986, "lon": -2.2157514, "tags": {"bench": "no", "bin": "no", "bus": "yes", "check_date:shelter": "2025-04-23", "highway": "bus_stop", "lit": "yes", "name": "Chorlton upon Medlock, Plymouth Grove / near Winterford Avenue", "naptan:AtcoCode": "1800EB01791", "naptan:Bearing": "E", "naptan:CommonName": "Plymouth Grove/Winterford Ave", "naptan:Indicator": "O/s House 11", "naptan:Landmark": "HOUSE 151", "naptan:NaptanCode": "manadgjp", "naptan:PlusbusZoneRef": "MNCRPIC", "naptan:ShortCommonName": "Winterford Ave", "naptan:Street": "PLYMOUTH GROVE", "naptan:verified": "no", "network": "TfGM", "operator": "TfGM", "public_transport": "platform", "shelter": "no", "tactile_paving": "no"}}, {"type": "node", "id": 533801785, "lat": 53.4601281, "lon": -2.2086158, "tags": {"bus": "yes", "highway": "bus_stop", "name": "Longsight, Plymouth Grove / near Richmond Grove", "naptan:AtcoCode": "1800EB01801", "naptan:Bearing": "E", "naptan:CommonName": "Plymouth Grove/Daisy Bank Road", "naptan:Indicator": "Opp House 340", "naptan:Landmark": "Police Station", "naptan:NaptanCode": "manadgjt", "naptan:PlusbusZoneRef": "MNCRPIC", "naptan:ShortCommonName": "Daisy Bank Road", "naptan:Street": "PLYMOUTH GROVE", "naptan:verified": "no", "network": "TfGM", "operator": "TfGM", "public_transport": "platform"}}, {"type": "node", "id": 533801789, "lat": 53.4598273, "lon": -2.2058431, "tags": {"bench": "no", "bin": "no", "bus": "yes", "highway": "bus_stop", "lit": "no", "name": "Longsight, Plymouth Grove / opposite Clarence Road", "naptan:AtcoCode": "1800EB01821", "naptan:Bearing": "E", "naptan:CommonName": "Plymouth Grove/Clarence Road", "naptan:Indicator": "House 28", "naptan:Landmark": "HOUSE 28", "naptan:NaptanCode": "manadgjw", "naptan:PlusbusZoneRef": "MNCRPIC", "naptan:ShortCommonName": "Clarence Road", "naptan:Street": "PLYMOUTH GROVE", "naptan:verified": "no", "network": "TfGM", "operator": "TfGM", "public_transport": "platform", "shelter": "no", "tactile_paving": "no"}}, {"type": "node", "id": 533801794, "lat": 53.4597198, "lon": -2.2056317, "tags": {"bench": "no", "bin": "no", "bus": "yes", "highway": "bus_stop", "lit": "yes", "name": "Longsight, Plymouth Grove / near Clarence Road", "naptan:AtcoCode": "1800EB01831", "naptan:Bearing": "W", "naptan:CommonName": "Plymouth Grove/Clarence Road", "naptan:Indicator": "House 360", "naptan:Landmark": "HOUSE 360", "naptan:NaptanCode": "manadgma", "naptan:PlusbusZoneRef": "MNCRPIC", "naptan:ShortCommonName": "Clarence Road", "naptan:Street": "PLYMOUTH GROVE", "naptan:verified": "no", "network": "TfGM", "operator": "TfGM", "public_transport": "platform", "shelter": "yes", "tactile_paving": "no"}}, {"type": "node", "id": 533801798, "lat": 53.4599535, "lon": -2.2084624, "tags": {"bench": "yes", "bin": "no", "bus": "yes", "highway": "bus_stop", "name": "Longsight, Plymouth Grove / near Daisy Bank Road", "naptan:AtcoCode": "1800EB01841", "naptan:Bearing": "W", "naptan:CommonName": "Plymouth Grove/Daisy Bank Road", "naptan:Indicator": "School", "naptan:Landmark": "SCHOOL", "naptan:NaptanCode": "manadgmd", "naptan:PlusbusZoneRef": "MNCRPIC", "naptan:ShortCommonName": "Daisy Bank Road", "naptan:Street": "PLYMOUTH GROVE", "naptan:verified": "no", "network": "TfGM", "operator": "TfGM", "public_transport": "platform", "shelter": "yes", "tactile_paving": "no"}}, {"type": "node", "id": 533801802, "lat": 53.4612183, "lon": -2.2122963, "tags": {"bench": "no", "bin": "no", "bus": "yes", "highway": "bus_stop", "lit": "no", "name": "Longsight, Plymouth Gove / near Hathersage Road", "naptan:AtcoCode": "1800EB01851", "naptan:Bearing": "NW", "naptan:CommonName": "Plymouth Gove/Hathersage Road", "naptan:Indicator": "O/s Church", "naptan:Landmark": "CHURCH", "naptan:NaptanCode": "manadgmg", "naptan:PlusbusZoneRef": "MNCRPIC", "naptan:ShortCommonName": "Hathersage Road", "naptan:Street": "PLYMOUTH GROVE", "naptan:verified": "no", "network": "TfGM", "operator": "TfGM", "public_transport": "platform", "shelter": "no", "tactile_paving": "no"}}, {"type": "node", "id": 533801831, "lat": 53.4624569, "lon": -2.216554, "tags": {"bench": "yes", "bin": "no", "bus": "yes", "check_date:shelter": "2025-04-23", "highway": "bus_stop", "lit": "yes", "name": "Chorlton upon Medlock, Plymouth Grove / opposite Winterford Avenue", "naptan:AtcoCode": "1800EB01861", "naptan:Bearing": "W", "naptan:CommonName": "Plymouth Grove/Bletchley Close", "naptan:Indicator": "O/s House 166", "naptan:Landmark": "Offices", "naptan:NaptanCode": "manadgmj", "naptan:PlusbusZoneRef": "MNCRPIC", "naptan:ShortCommonName": "Bletchley Close", "naptan:Street": "PLYMOUTH GROVE", "naptan:verified": "no", "network": "TfGM", "operator": "TfGM", "public_transport": "platform", "shelter": "yes", "tactile_paving": "no"}}, {"type": "node", "id": 533801835, "lat": 53.4630446, "lon": -2.218647, "tags": {"bench": "no", "bin": "no", "bus": "yes", "check_date:shelter": "2025-04-23", "highway": "bus_stop", "lit": "yes", "name": "Chorlton upon Medlock, Plymouth Grove / near Lincoln Grove", "naptan:AtcoCode": "1800EB01871", "naptan:Bearing": "W", "naptan:CommonName": "Plyomouth Grove/Lincoln Grove", "naptan:Indicator": "Football Pitch", "naptan:Landmark": "PLAYING FIELD", "naptan:NaptanCode": "manadgmp", "naptan:PlusbusZoneRef": "MNCRPIC", "naptan:ShortCommonName": "Lincoln Grove", "naptan:Street": "PLYMOUTH GROVE", "naptan:verified": "no", "network": "TfGM", "operator": "TfGM", "public_transport": "platform", "shelter": "no", "tactile_paving": "no"}}, {"type": "node", "id": 533801836, "lat": 53.46388, "lon": -2.2216183, "tags": {"bench": "no", "bin": "no", "bus": "yes", "departures_board": "timetable", "highway": "bus_stop", "name": "Chorlton upon Medlock, Plymouth Grove / near Hyde Grove", "naptan:AtcoCode": "1800EB01881", "naptan:Bearing": "W", "naptan:CommonName": "Plymouth Grove/Hyde Grove", "naptan:Indicator": "O/s House 82", "naptan:Landmark": "HOUSE 81", "naptan:NaptanCode": "manadgmt", "naptan:Notes": "STOP NAME", "naptan:PlusbusZoneRef": "MNCRPIC", "naptan:ShortCommonName": "Hyde Grove", "naptan:Street": "PLYMOUTH GROVE", "naptan:verified": "no", "network": "TfGM", "operator": "TfGM", "public_transport": "platform", "shelter": "no", "tactile_paving": "no", "wheelchair": "yes"}}, {"type": "node", "id": 533801841, "lat": 53.4650851, "lon": -2.2260984, "tags": {"bus": "yes", "highway": "bus_stop", "name": "Plymouth Grove/Upper Brook St", "naptan:AtcoCode": "1800EB01891", "naptan:Bearing": "NW", "naptan:CommonName": "Plymouth Grove/Upper Brook St", "naptan:Indicator": "Opp House 3", "naptan:Landmark": "FLATS", "naptan:NaptanCode": "manadgmw", "naptan:PlusbusZoneRef": "MNCRPIC", "naptan:ShortCommonName": "Upper Brook St", "naptan:Street": "PLYMOUTH GROVE", "naptan:verified": "no", "network": "TfGM", "public_transport": "platform", "source": "naptan_import"}}, {"type": "node", "id": 533801845, "lat": 53.4639178, "lon": -2.2254294, "tags": {"bench": "yes", "bin": "yes", "bus": "yes", "highway": "bus_stop", "lit": "yes", "local_ref": "K", "name": "Manchester Royal Infirmary, Upper Brook Street / (Stop K)", "naptan:AtcoCode": "1800EB01901", "naptan:Bearing": "SE", "naptan:CommonName": "Upper Brook St/Grafton St (Stop K)", "naptan:Indicator": "Stop K", "naptan:Landmark": "AMBULANCE Station", "naptan:NaptanCode": "manadgpa", "naptan:PlusbusZoneRef": "MNCRPIC", "naptan:ShortCommonName": "Grafton St", "naptan:Street": "Upper Brook Street", "naptan:verified": "no", "network": "TfGM", "operator": "TfGM", "public_transport": "platform", "ref": "K", "shelter": "yes", "tactile_paving": "no"}}, {"type": "node", "id": 533801850, "lat": 53.4619355, "lon": -2.2231747, "tags": {"bus": "yes", "highway": "bus_stop", "local_ref": "M", "name": "Manchester Royal Infirmary, Upper Brook Street / Swinton Grove (Stop M)", "naptan:AtcoCode": "1800EB01911", "naptan:Bearing": "SE", "naptan:CommonName": "Upper Brook St/Swinton Grove (Stop M)", "naptan:Indicator": "Stop M", "naptan:Landmark": "HOUSE 239", "naptan:NaptanCode": "manadgpd", "naptan:PlusbusZoneRef": "MNCRPIC", "naptan:ShortCommonName": "Swinton Grove", "naptan:Street": "Upper Brook Street", "naptan:verified": "no", "network": "TfGM", "operator": "TfGM", "public_transport": "platform", "ref": "M"}}, {"type": "node", "id": 533801857, "lat": 53.4587155, "lon": -2.2194227, "tags": {"bench": "yes", "bin": "yes", "bus": "yes", "departures_board": "timetable", "highway": "bus_stop", "lit": "yes", "local_ref": "P", "name": "Manchester Royal Infirmary, Upper Brook Street / Hathersage Road (Stop P)", "naptan:AtcoCode": "1800EB01921", "naptan:Bearing": "SE", "naptan:CommonName": "Upper Brook St/Hathersage Rd (Stop P)", "naptan:Indicator": "Stop P", "naptan:Landmark": "HOUSE 293", "naptan:NaptanCode": "manadgpg", "naptan:Notes": "STOP NAME", "naptan:PlusbusZoneRef": "MNCRPIC", "naptan:ShortCommonName": "Hathersage Road", "naptan:Street": "Upper Brook Street", "naptan:verified": "no", "network": "TfGM", "operator": "TfGM", "public_transport": "platform", "ref": "P", "shelter": "yes", "tactile_paving": "no"}}, {"type": "node", "id": 533801863, "lat": 53.4551997, "lon": -2.2137425, "tags": {"bench": "no", "bin": "yes", "bus": "yes", "departures_board": "timetable", "highway": "bus_stop", "name": "Rusholme, Anson Road / opposite Denison Road", "naptan:AtcoCode": "1800EB01931", "naptan:Bearing": "SE", "naptan:CommonName": "Anson Road/Denison Road", "naptan:Indicator": "Opp Tennis Crt", "naptan:Landmark": "PARK", "naptan:NaptanCode": "manadgpj", "naptan:PlusbusZoneRef": "MNCRPIC", "naptan:ShortCommonName": "Denison Road", "naptan:Street": "ANSON ROAD", "naptan:verified": "no", "network": "TfGM", "operator": "TfGM", "public_transport": "platform", "shelter": "yes"}}, {"type": "node", "id": 533801867, "lat": 53.4546289, "lon": -2.2126248, "tags": {"bench": "yes", "bus": "yes", "highway": "bus_stop", "local_ref": "A", "name": "Rusholme, Anson Road / Upper Kent Road (Stop A)", "naptan:AtcoCode": "1800EB01941", "naptan:Bearing": "SE", "naptan:CommonName": "Anson Road/Dickenson Road (Stop A)", "naptan:Indicator": "Stop A", "naptan:Landmark": "GRASS LAND", "naptan:NaptanCode": "manadgpm", "naptan:PlusbusZoneRef": "MNCRPIC", "naptan:ShortCommonName": "Dickenson Road", "naptan:Street": "ANSON ROAD", "naptan:verified": "no", "network": "TfGM", "operator": "TfGM", "public_transport": "platform", "ref": "A", "shelter": "yes"}}, {"type": "node", "id": 533801874, "lat": 53.4519913, "lon": -2.2097355, "tags": {"bench": "no", "bin": "no", "bus": "yes", "highway": "bus_stop", "name": "Birchfields, Birchfields Road / near Birchfields Avenue", "naptan:AtcoCode": "1800EB01951", "naptan:Bearing": "SE", "naptan:CommonName": "Birchfields Road/Birchfields Avenue", "naptan:Indicator": "O/s Flats 1-3", "naptan:Landmark": "FLATS 1-3", "naptan:NaptanCode": "manadgpt", "naptan:PlusbusZoneRef": "MNCRPIC", "naptan:ShortCommonName": "Birchfields Ave", "naptan:Street": "Birchfields Road", "naptan:verified": "no", "network": "TfGM", "operator": "TfGM", "public_transport": "platform", "shelter": "yes"}}, {"type": "node", "id": 533801883, "lat": 53.4491775, "lon": -2.2077714, "tags": {"bench": "no", "bin": "no", "bus": "yes", "highway": "bus_stop", "lit": "yes", "name": "Birchfields, Birchfields Road / opposite Telfer Road", "naptan:AtcoCode": "1800EB01961", "naptan:Bearing": "S", "naptan:CommonName": "Birchfields Road/Telfer Road", "naptan:Indicator": "House 101", "naptan:Landmark": "HOUSE 101", "naptan:NaptanCode": "manadgpw", "naptan:PlusbusZoneRef": "MNCRPIC", "naptan:ShortCommonName": "Telfer Road", "naptan:Street": "Birchfields Road", "naptan:verified": "no", "network": "TfGM", "operator": "TfGM", "public_transport": "platform", "shelter": "no", "tactile_paving": "no"}}, {"type": "node", "id": 533801890, "lat": 53.4468283, "lon": -2.2065933, "tags": {"bench": "no", "bin": "yes", "bus": "yes", "highway": "bus_stop", "name": "Birchfields, Birchfields Road / near Old Hall Lane", "naptan:AtcoCode": "1800EB01971", "naptan:Bearing": "S", "naptan:CommonName": "Birchfields Road/Old Hall Lane", "naptan:Indicator": "Os House 145", "naptan:Landmark": "HOUSE 145", "naptan:NaptanCode": "manadgta", "naptan:Notes": "INDICATOR AMENDED", "naptan:PlusbusZoneRef": "MNCRPIC", "naptan:ShortCommonName": "Old Hall Lane", "naptan:Street": "Birchfields Road", "naptan:verified": "no", "network": "TfGM", "operator": "TfGM", "public_transport": "platform", "shelter": "no"}}, {"type": "node", "id": 533801896, "lat": 53.4446002, "lon": -2.2059351, "tags": {"bench": "no", "bin": "no", "bus": "yes", "highway": "bus_stop", "name": "Birchfields, Birchfields Road / near Lytham Road", "naptan:AtcoCode": "1800EB01981", "naptan:Bearing": "S", "naptan:CommonName": "Birchfields Road/Lytham Road", "naptan:Indicator": "Primary School", "naptan:Landmark": "PRIMARY SCHOOL", "naptan:NaptanCode": "manadgtd", "naptan:PlusbusZoneRef": "MNCRPIC", "naptan:ShortCommonName": "Lytham Road", "naptan:Street": "Birchfields Road", "naptan:verified": "no", "network": "TfGM", "operator": "TfGM", "public_transport": "platform", "shelter": "yes"}}, {"type": "node", "id": 533801903, "lat": 53.4436928, "lon": -2.2056597, "tags": {"bus": "yes", "highway": "bus_stop", "local_ref": "B", "name": "Birchfields, Birchfields Road / Fallowfield Shopping Centre (Stop B)", "naptan:AtcoCode": "1800EB01991", "naptan:Bearing": "S", "naptan:CommonName": "Birchfields Rd/Fallowfield Centre (B)", "naptan:Indicator": "Stop B", "naptan:Landmark": "SHOPPING Centre", "naptan:NaptanCode": "manadgtg", "naptan:PlusbusZoneRef": "MNCRPIC", "naptan:ShortCommonName": "Fallowfield Ctr", "naptan:Street": "Birchfields Road", "naptan:verified": "no", "network": "TfGM", "operator": "TfGM", "public_transport": "platform", "ref": "B"}}, {"type": "node", "id": 533801910, "lat": 53.4831553, "lon": -2.2379874, "tags": {"bench": "no", "bin": "no", "bus": "yes", "departures_board": "timetable", "highway": "bus_stop", "lit": "no", "local_ref": "CA", "name": "Manchester City Centre, Church Street / The Unicorn (Stop CA)", "naptan:AtcoCode": "1800EB02031", "naptan:Bearing": "E", "naptan:CommonName": "Church Street/The Unicorn", "naptan:Indicator": "Opp Public House", "naptan:Landmark": "APARTMENTS", "naptan:NaptanCode": "manadgtj", "naptan:PlusbusZoneRef": "MNCRPIC", "naptan:ShortCommonName": "The Unicorn", "naptan:Street": "CHURCH STREET", "naptan:verified": "no", "network": "TfGM", "operator": "TfGM", "public_transport": "platform", "ref": "CA", "shelter": "no", "source": "naptan_import"}}, {"type": "node", "id": 533801945, "lat": 53.5113623, "lon": -2.1819653, "tags": {"bus": "yes", "highway": "bus_stop", "name": "Moston, St Mary's Road / near Dresden Street", "naptan:AtcoCode": "1800EB02521", "naptan:Bearing": "S", "naptan:CommonName": "St Mary's Road/Dresden Street", "naptan:Indicator": "O/s House 202", "naptan:Landmark": "HOUSE 202", "naptan:NaptanCode": "manadgwd", "naptan:PlusbusZoneRef": "MNCRPIC", "naptan:ShortCommonName": "Dresden Street", "naptan:Street": "St Mary's Road", "naptan:verified": "no", "network": "TfGM", "operator": "TfGM", "public_transport": "platform", "source": "naptan_import"}}, {"type": "node", "id": 533801951, "lat": 53.5002507, "lon": -2.1770182, "tags": {"bus": "yes", "highway": "bus_stop", "name": "Droylsden Road/Gaskell Street", "naptan:AtcoCode": "1800EB02541", "naptan:Bearing": "SE", "naptan:CommonName": "Droylsden Road/Gaskell Street", "naptan:Indicator": "Opp Church", "naptan:Landmark": "PUBLIC HOUSE", "naptan:NaptanCode": "manadgwg", "naptan:PlusbusZoneRef": "MNCRPIC", "naptan:ShortCommonName": "Gaskell Street", "naptan:Street": "DROYLSDEN ROAD", "naptan:verified": "no", "network": "TfGM", "public_transport": "platform", "source": "naptan_import"}}, {"type": "node", "id": 533801953, "lat": 53.477072, "lon": -2.2328671, "tags": {"bench": "no", "bin": "yes", "bus": "yes", "highway": "bus_stop", "lit": "no", "local_ref": "B", "name": "Manchester City Centre, Whitworth Street / Minshull Street South (Stop B)", "naptan:AtcoCode": "1800EB02551", "naptan:Bearing": "W", "naptan:CommonName": "Whitworth St/Minshull St Sth", "naptan:Indicator": "Stop B", "naptan:Landmark": "Manchester Piccadilly Rail Station", "naptan:NaptanCode": "manadgwj", "naptan:Notes": "LOCATION AMENDED", "naptan:PlusbusZoneRef": "MNCRPIC", "naptan:ShortCommonName": "Minshull St South", "naptan:Street": "Whitworth Street", "naptan:verified": "no", "network": "TfGM", "operator": "TfGM", "public_transport": "platform", "ref": "B", "shelter": "no", "source": "naptan_import", "tactile_paving": "no"}}, {"type": "node", "id": 533801955, "lat": 53.4673908, "lon": -2.2284004, "tags": {"bus": "yes", "highway": "bus_stop", "name": "Brunswick St/Upper Brook St", "naptan:AtcoCode": "1800EB02581", "naptan:Bearing": "SW", "naptan:CommonName": "Brunswick St/Upper Brook St", "naptan:Indicator": "House 93", "naptan:Landmark": "HOUSE 93", "naptan:NaptanCode": "manadgwp", "naptan:PlusbusZoneRef": "MNCRPIC", "naptan:ShortCommonName": "Upper Brook St", "naptan:Street": "Brunswick Street", "naptan:verified": "no", "network": "TfGM", "public_transport": "platform", "source": "naptan_import"}}, {"type": "node", "id": 533801958, "lat": 53.4684773, "lon": -2.2265513, "tags": {"bus": "yes", "highway": "bus_stop", "name": "Brunswick St/Brunswick Parish Church", "naptan:AtcoCode": "1800EB02591", "naptan:Bearing": "NE", "naptan:CommonName": "Brunswick St/Brunswick Parish Church", "naptan:Indicator": "Opp House 59", "naptan:Landmark": "HOUSE 104", "naptan:NaptanCode": "manadgwt", "naptan:PlusbusZoneRef": "MNCRPIC", "naptan:ShortCommonName": "Brunswick Church", "naptan:Street": "Brunswick Street", "naptan:verified": "no", "network": "TfGM", "public_transport": "platform", "source": "naptan_import"}}, {"type": "node", "id": 533801962, "lat": 53.4686809, "lon": -2.2259066, "tags": {"bus": "yes", "highway": "bus_stop", "name": "Brunswick St/Brunswick Parish Church", "naptan:AtcoCode": "1800EB02601", "naptan:Bearing": "SW", "naptan:CommonName": "Brunswick St/Brunswick Parish Church", "naptan:Indicator": "House 43", "naptan:Landmark": "HOUSE 47", "naptan:NaptanCode": "manadjad", "naptan:PlusbusZoneRef": "MNCRPIC", "naptan:ShortCommonName": "Brunswick Church", "naptan:Street": "Brunswick Street", "naptan:verified": "no", "network": "TfGM", "public_transport": "platform", "source": "naptan_import"}}, {"type": "node", "id": 533801965, "lat": 53.4698643, "lon": -2.2239445, "tags": {"bench": "no", "bus": "yes", "highway": "bus_stop", "name": "Brunswick St/Ardwick Green", "naptan:AtcoCode": "1800EB02611", "naptan:Bearing": "NE", "naptan:CommonName": "Brunswick St/Ardwick Green", "naptan:Indicator": "Opp House 17", "naptan:Landmark": "CHEMIST", "naptan:NaptanCode": "manadjag", "naptan:PlusbusZoneRef": "MNCRPIC", "naptan:ShortCommonName": "Ardwick Green", "naptan:Street": "Brunswick Street", "naptan:verified": "no", "network": "TfGM", "public_transport": "platform", "shelter": "no", "source": "naptan_import"}}, {"type": "node", "id": 533801974, "lat": 53.4813663, "lon": -2.2149284, "tags": {"bench": "no", "bin": "no", "bus": "yes", "highway": "bus_stop", "lit": "yes", "name": "Every Street/Carruthers Street", "naptan:AtcoCode": "1800EB02641", "naptan:Bearing": "NE", "naptan:CommonName": "Every Street/Carruthers Street", "naptan:Indicator": "Near Church", "naptan:Landmark": "HOUSE 18", "naptan:NaptanCode": "manadjam", "naptan:Notes": "Stop Relocated", "naptan:PlusbusZoneRef": "MNCRPIC", "naptan:ShortCommonName": "Carruthers Street", "naptan:Street": "EVERY STREET", "naptan:verified": "no", "network": "TfGM", "public_transport": "platform", "shelter": "no", "source": "naptan_import", "tactile_paving": "no"}}, {"type": "node", "id": 533801977, "lat": 53.4804749, "lon": -2.2157376, "tags": {"bench": "no", "bin": "no", "bus": "yes", "highway": "bus_stop", "lit": "yes", "name": "Every Street/Carruthers Street", "naptan:AtcoCode": "1800EB02651", "naptan:Bearing": "SW", "naptan:CommonName": "Every Street/Carruthers Street", "naptan:Indicator": "Nr Church", "naptan:Landmark": "WORKS", "naptan:NaptanCode": "manadjap", "naptan:PlusbusZoneRef": "MNCRPIC", "naptan:ShortCommonName": "Carruthers Street", "naptan:Street": "EVERY STREET", "naptan:verified": "no", "network": "TfGM", "public_transport": "platform", "shelter": "yes", "source": "naptan_import", "tactile_paving": "no"}}, {"type": "node", "id": 533801981, "lat": 53.4586269, "lon": -2.1750678, "tags": {"bus": "yes", "highway": "bus_stop", "name": "Ryder Brow, Brookhurst Road / opposite Sunny Brow Park", "naptan:AtcoCode": "1800EB02711", "naptan:Bearing": "N", "naptan:CommonName": "Brookhurst Road/Sunny Brow Park", "naptan:Indicator": "Playing Fields", "naptan:Landmark": "PLAYING FIELDS", "naptan:NaptanCode": "manadjda", "naptan:PlusbusZoneRef": "MNCRPIC", "naptan:ShortCommonName": "Sunny Brow Park", "naptan:Street": "Knutsford Road", "naptan:verified": "no", "network": "TfGM", "operator": "TfGM", "public_transport": "platform", "shelter": "no", "source": "naptan_import"}}, {"type": "node", "id": 533801985, "lat": 53.4605307, "lon": -2.1763408, "tags": {"bench": "no", "bin": "no", "bus": "yes", "highway": "bus_stop", "lit": "yes", "name": "Gorton, Knutsford Road / near Radnor Street", "naptan:AtcoCode": "1800EB02721", "naptan:Bearing": "N", "naptan:CommonName": "Knutsford Road/Radnor Street", "naptan:Indicator": "O/s House 10", "naptan:Landmark": "HOUSE 10", "naptan:NaptanCode": "manadjdg", "naptan:PlusbusZoneRef": "MNCRPIC", "naptan:ShortCommonName": "Radnor Street", "naptan:Street": "KNUTSFORD ROAD", "naptan:verified": "no", "network": "TfGM", "operator": "TfGM", "public_transport": "platform", "shelter": "no", "source": "naptan_import", "tactile_paving": "no"}}, {"type": "node", "id": 533801988, "lat": 53.4560593, "lon": -2.1728736, "tags": {"bench": "no", "bin": "no", "bus": "yes", "highway": "bus_stop", "lit": "no", "name": "Ryder Brow, Levenshulme Road / outside Ryder Brow Station", "naptan:AtcoCode": "1800EB02731", "naptan:Bearing": "N", "naptan:CommonName": "Levenshulme Road/Ryder Brow Station", "naptan:Indicator": "Opp House 117", "naptan:Landmark": "SHOP", "naptan:NaptanCode": "manadjdj", "naptan:PlusbusZoneRef": "MNCRPIC", "naptan:ShortCommonName": "Ryder Brow Stn", "naptan:Street": "Levenshulme Road", "naptan:verified": "no", "network": "TfGM", "operator": "TfGM", "public_transport": "platform", "shelter": "no", "source": "naptan_import"}}, {"type": "node", "id": 533801992, "lat": 53.454406, "lon": -2.1724301, "tags": {"bench": "no", "bin": "no", "bus": "yes", "check_date:bin": "2024-12-19", "highway": "bus_stop", "lit": "no", "name": "Ryder Brow, Levenshulme Road / near Hemsworth Road", "naptan:AtcoCode": "1800EB02741", "naptan:Bearing": "N", "naptan:CommonName": "Levenshulme Road/Hemsworth Road", "naptan:Indicator": "House 60", "naptan:Landmark": "HOUSE 60", "naptan:NaptanCode": "manadjdm", "naptan:Notes": "LOCATION AMENDED", "naptan:PlusbusZoneRef": "MNCRPIC", "naptan:ShortCommonName": "Hemsworth Road", "naptan:Street": "Levenshulme Road", "naptan:verified": "no", "network": "TfGM", "operator": "TfGM", "public_transport": "platform", "shelter": "no", "source": "naptan_import"}}, {"type": "node", "id": 533801995, "lat": 53.4535758, "lon": -2.1684662, "tags": {"bus": "yes", "highway": "bus_stop", "name": "Ryder Brow, Wayland Road South / adjacent Hemsworth Road", "naptan:AtcoCode": "1800EB02751", "naptan:Bearing": "N", "naptan:CommonName": "Wayland Road South/Hemsworth Road", "naptan:Indicator": "Opp House 22", "naptan:Landmark": "HOUSE 19", "naptan:NaptanCode": "manadjdp", "naptan:PlusbusZoneRef": "MNCRPIC", "naptan:ShortCommonName": "Hemsworth Road", "naptan:Street": "WAYLAND ROAD", "naptan:verified": "no", "network": "TfGM", "operator": "TfGM", "public_transport": "platform", "shelter": "no", "source": "naptan_import"}}, {"type": "node", "id": 533802008, "lat": 53.4521148, "lon": -2.1717884, "tags": {"bench": "no", "bin": "no", "bus": "yes", "highway": "bus_stop", "lit": "yes", "name": "Ryder Brow, Holmcroft Road / near Sandown Crescent", "naptan:AtcoCode": "1800EB02761", "naptan:Bearing": "E", "naptan:CommonName": "Holmcroft Road/Sandown Crescent", "naptan:Indicator": "O/s House 153", "naptan:Landmark": "CAR Park", "naptan:NaptanCode": "manadjdt", "naptan:PlusbusZoneRef": "MNCRPIC", "naptan:ShortCommonName": "Sandown Crescent", "naptan:Street": "HOLMCROFT ROAD", "naptan:verified": "no", "network": "TfGM", "operator": "TfGM", "public_transport": "platform", "shelter": "no", "source": "naptan_import"}}, {"type": "node", "id": 533802012, "lat": 53.4539968, "lon": -2.1757264, "tags": {"bench": "no", "bin": "no", "bus": "yes", "highway": "bus_stop", "lit": "yes", "name": "Ryder Brow, Melland Road / near Wembley Road", "naptan:AtcoCode": "1800EB02781", "naptan:Bearing": "E", "naptan:CommonName": "Melland Road/Wembley Road", "naptan:Indicator": "O/s House 63", "naptan:Landmark": "O/S HOUSE 63", "naptan:NaptanCode": "manadjdw", "naptan:PlusbusZoneRef": "MNCRPIC", "naptan:ShortCommonName": "Wembley Road", "naptan:Street": "MELLAND ROAD", "naptan:verified": "no", "network": "TfGM", "operator": "TfGM", "public_transport": "platform", "shelter": "no", "source": "naptan_import"}}, {"type": "node", "id": 533802016, "lat": 53.4538154, "lon": -2.179487, "tags": {"bench": "no", "bin": "no", "bus": "yes", "highway": "bus_stop", "lit": "yes", "name": "Belle Vue, Melland Road / near Balmain Avenue", "naptan:AtcoCode": "1800EB02791", "naptan:Bearing": "E", "naptan:CommonName": "Melland Road/Balmain Avenue", "naptan:Indicator": "O/s House 1", "naptan:Landmark": "HOUSE 1", "naptan:NaptanCode": "manadjga", "naptan:Notes": "LOCATION AMENDED", "naptan:PlusbusZoneRef": "MNCRPIC", "naptan:ShortCommonName": "Balmain Avenue", "naptan:Street": "MELLAND ROAD", "naptan:verified": "no", "network": "TfGM", "operator": "TfGM", "public_transport": "platform", "shelter": "no", "source": "naptan_import", "tactile_paving": "no"}}, {"type": "node", "id": 533802020, "lat": 53.4618435, "lon": -2.1819945, "tags": {"bench": "yes", "bin": "no", "bus": "yes", "highway": "bus_stop", "lit": "yes", "local_ref": "B", "name": "Mount Road/Belle Vue (Stop B)", "naptan:AtcoCode": "1800EB02801", "naptan:Bearing": "S", "naptan:CommonName": "Mount Road/Belle Vue (Stop B)", "naptan:Indicator": "Stop B", "naptan:Landmark": "RACE COURSE", "naptan:NaptanCode": "manadjgd", "naptan:PlusbusZoneRef": "MNCRPIC", "naptan:ShortCommonName": "Belle Vue", "naptan:Street": "MOUNT ROAD", "naptan:verified": "no", "network": "TfGM", "public_transport": "platform", "shelter": "yes", "source": "naptan_import", "tactile_paving": "no"}}, {"type": "node", "id": 533802022, "lat": 53.4619201, "lon": -2.182441, "tags": {"bench": "yes", "bin": "no", "bus": "yes", "highway": "bus_stop", "lit": "yes", "local_ref": "C", "name": "Mount Road/Belle Vue (Stop C)", "naptan:AtcoCode": "1800EB02811", "naptan:Bearing": "N", "naptan:CommonName": "Mount Road/Belle Vue (Stop C)", "naptan:Indicator": "Stop C", "naptan:Landmark": "Race Course", "naptan:NaptanCode": "manadjgj", "naptan:PlusbusZoneRef": "MNCRPIC", "naptan:ShortCommonName": "Belle Vue", "naptan:Street": "MOUNT ROAD", "naptan:verified": "no", "network": "TfGM", "public_transport": "platform", "shelter": "yes", "source": "naptan_import", "tactile_paving": "yes"}}, {"type": "node", "id": 533802023, "lat": 53.4598942, "lon": -2.1812181, "tags": {"bench": "no", "bin": "no", "bus": "yes", "highway": "bus_stop", "lit": "yes", "name": "Mount Road/Windsor Street", "naptan:AtcoCode": "1800EB02831", "naptan:Bearing": "N", "naptan:CommonName": "Mount Road/Windsor Street", "naptan:Indicator": "House 94", "naptan:Landmark": "HOUSE 94", "naptan:NaptanCode": "manadjgm", "naptan:PlusbusZoneRef": "MNCRPIC", "naptan:ShortCommonName": "Windsor Street", "naptan:Street": "MOUNT ROAD", "naptan:verified": "no", "network": "TfGM", "public_transport": "platform", "shelter": "no", "source": "naptan_import", "tactile_paving": "no"}}, {"type": "node", "id": 533802024, "lat": 53.4593552, "lon": -2.1810049, "tags": {"bench": "no", "bin": "no", "bus": "yes", "highway": "bus_stop", "lit": "yes", "name": "Mount Road/Windsor Road", "naptan:AtcoCode": "1800EB02841", "naptan:Bearing": "S", "naptan:CommonName": "Mount Road/Windsor Road", "naptan:Indicator": "House 47", "naptan:Landmark": "HOUSE 47", "naptan:NaptanCode": "manadjgp", "naptan:PlusbusZoneRef": "MNCRPIC", "naptan:ShortCommonName": "Windsor Road", "naptan:Street": "MOUNT ROAD", "naptan:verified": "no", "network": "TfGM", "public_transport": "platform", "shelter": "no", "source": "naptan_import", "tactile_paving": "no"}}, {"type": "node", "id": 533802026, "lat": 53.4582133, "lon": -2.1812109, "tags": {"bench": "yes", "bin": "yes", "bus": "yes", "highway": "bus_stop", "lit": "yes", "name": "Mount Road/Buckley Road", "naptan:AtcoCode": "1800EB02851", "naptan:Bearing": "N", "naptan:CommonName": "Mount Road/Buckley Road", "naptan:Indicator": "Opp House 67", "naptan:Landmark": "OFFICES", "naptan:NaptanCode": "manadjgt", "naptan:PlusbusZoneRef": "MNCRPIC", "naptan:ShortCommonName": "Buckley Road", "naptan:Street": "MOUNT ROAD", "naptan:verified": "no", "network": "TfGM", "public_transport": "platform", "shelter": "yes", "source": "naptan_import", "tactile_paving": "no"}}, {"type": "node", "id": 533802030, "lat": 53.4576652, "lon": -2.1810279, "tags": {"bench": "no", "bin": "yes", "bus": "yes", "highway": "bus_stop", "lit": "yes", "name": "Mount Road/Buckley Road", "naptan:AtcoCode": "1800EB02861", "naptan:Bearing": "S", "naptan:CommonName": "Mount Road/Buckley Road", "naptan:Indicator": "O/s Pharmacy", "naptan:Landmark": "PHARMACY", "naptan:NaptanCode": "manadjgw", "naptan:Notes": "INDICATOR AMENDED", "naptan:PlusbusZoneRef": "MNCRPIC", "naptan:ShortCommonName": "Buckley Road", "naptan:Street": "MOUNT ROAD", "naptan:verified": "no", "network": "TfGM", "public_transport": "platform", "shelter": "no", "source": "naptan_import", "tactile_paving": "no"}}, {"type": "node", "id": 533802034, "lat": 53.4561189, "lon": -2.181202, "tags": {"bench": "no", "bin": "no", "bus": "yes", "highway": "bus_stop", "lit": "yes", "name": "Mount Road/Darras Road", "naptan:AtcoCode": "1800EB02871", "naptan:Bearing": "N", "naptan:CommonName": "Mount Road/Darras Road", "naptan:Indicator": "House 154", "naptan:Landmark": "HOUSE 154", "naptan:NaptanCode": "manadjma", "naptan:PlusbusZoneRef": "MNCRPIC", "naptan:ShortCommonName": "Darras Road", "naptan:Street": "MOUNT ROAD", "naptan:verified": "no", "network": "TfGM", "public_transport": "platform", "shelter": "yes", "source": "naptan_import", "tactile_paving": "no"}}, {"type": "node", "id": 533802040, "lat": 53.4555799, "lon": -2.1809889, "tags": {"bench": "yes", "bin": "no", "bus": "yes", "highway": "bus_stop", "lit": "yes", "name": "Mount Road/Darras Road", "naptan:AtcoCode": "1800EB02881", "naptan:Bearing": "S", "naptan:CommonName": "Mount Road/Darras Road", "naptan:Indicator": "Nr Public House", "naptan:Landmark": "PUBLIC HOUSE", "naptan:NaptanCode": "manadjmd", "naptan:PlusbusZoneRef": "MNCRPIC", "naptan:ShortCommonName": "Darras Road", "naptan:Street": "MOUNT ROAD", "naptan:verified": "no", "network": "TfGM", "public_transport": "platform", "shelter": "yes", "source": "naptan_import", "tactile_paving": "no"}}, {"type": "node", "id": 533802044, "lat": 53.4539797, "lon": -2.1811327, "tags": {"bench": "no", "bin": "no", "bus": "yes", "highway": "bus_stop", "lit": "no", "name": "Mount Road/Melland Road", "naptan:AtcoCode": "1800EB02891", "naptan:Bearing": "N", "naptan:CommonName": "Mount Road/Melland Road", "naptan:Indicator": "House 208", "naptan:Landmark": "HOUSE 208", "naptan:NaptanCode": "manadjmg", "naptan:Notes": "LOCATION AMENDED", "naptan:PlusbusZoneRef": "MNCRPIC", "naptan:ShortCommonName": "Melland Road", "naptan:Street": "MOUNT ROAD", "naptan:verified": "no", "network": "TfGM", "public_transport": "platform", "shelter": "no", "source": "naptan_import", "tactile_paving": "no"}}, {"type": "node", "id": 533802047, "lat": 53.4531443, "lon": -2.1807376, "tags": {"bench": "yes", "bin": "no", "bus": "yes", "highway": "bus_stop", "lit": "yes", "name": "Belle Vue, Mount Road / near Melland Road", "naptan:AtcoCode": "1800EB02901", "naptan:Bearing": "S", "naptan:CommonName": "Mount Road/Melland Road", "naptan:Indicator": "Opp School", "naptan:Landmark": "SCHOOL", "naptan:NaptanCode": "manadjmj", "naptan:PlusbusZoneRef": "MNCRPIC", "naptan:ShortCommonName": "Melland Road", "naptan:Street": "MOUNT ROAD", "naptan:verified": "no", "network": "TfGM", "operator": "TfGM", "public_transport": "platform", "shelter": "yes", "source": "naptan_import", "tactile_paving": "no"}}, {"type": "node", "id": 533802051, "lat": 53.5260185, "lon": -2.1960721, "tags": {"bus": "yes", "highway": "bus_stop", "name": "Charlestown, Grangepark Road / near Hall Moss Road", "naptan:AtcoCode": "1800EB02911", "naptan:Bearing": "NE", "naptan:CommonName": "Grange Park Rd/Hall Moss Road", "naptan:Indicator": "O/s House 67", "naptan:Landmark": "HOUSE 67", "naptan:NaptanCode": "manadjmp", "naptan:PlusbusZoneRef": "MNCRPIC", "naptan:ShortCommonName": "Hall Moss Road", "naptan:Street": "Grange Park Road", "naptan:verified": "no", "network": "TfGM", "operator": "TfGM", "public_transport": "platform", "source": "naptan_import"}}, {"type": "node", "id": 533802056, "lat": 53.4496316, "lon": -2.179518, "tags": {"bench": "no", "bin": "no", "bus": "yes", "highway": "bus_stop", "lit": "no", "name": "Crowcroft Park, Mount Road / opposite Matthews Lane", "naptan:AtcoCode": "1800EB02921", "naptan:Bearing": "S", "naptan:CommonName": "Mount Road/Matthews Lane", "naptan:Indicator": "O/s Social Club", "naptan:Landmark": "Social Club", "naptan:NaptanCode": "manadjmt", "naptan:PlusbusZoneRef": "MNCRPIC", "naptan:ShortCommonName": "Matthews Lane", "naptan:Street": "MOUNT ROAD", "naptan:verified": "no", "network": "TfGM", "operator": "TfGM", "public_transport": "platform", "shelter": "no", "source": "naptan_import", "tactile_paving": "no"}}, {"type": "node", "id": 533802059, "lat": 53.4477261, "lon": -2.1794046, "tags": {"bench": "no", "bin": "no", "bus": "yes", "highway": "bus_stop", "name": "Levenshulme, Mount Road / opposite Manor Road", "naptan:AtcoCode": "1800EB02931", "naptan:Bearing": "S", "naptan:CommonName": "Mount Road/Manor Road", "naptan:Indicator": "House 331", "naptan:Landmark": "HOUSE 331", "naptan:NaptanCode": "manadjmw", "naptan:PlusbusZoneRef": "MNCRPIC", "naptan:ShortCommonName": "Manor Road", "naptan:Street": "MOUNT ROAD", "naptan:verified": "no", "network": "TfGM", "operator": "TfGM", "public_transport": "platform", "shelter": "no", "source": "naptan_import"}}, {"type": "node", "id": 533802064, "lat": 53.4472671, "lon": -2.1798243, "tags": {"bench": "no", "bin": "no", "bus": "yes", "highway": "bus_stop", "lit": "yes", "name": "Levenshulme, Mount Road / near Manor Road", "naptan:AtcoCode": "1800EB02941", "naptan:Bearing": "N", "naptan:CommonName": "Mount Road/Manor Road", "naptan:Indicator": "Nr Playing Fields", "naptan:Landmark": "HOUSE 286", "naptan:NaptanCode": "manadjpa", "naptan:Notes": "LOCATION AMENDED", "naptan:PlusbusZoneRef": "MNCRPIC", "naptan:ShortCommonName": "Manor Road", "naptan:Street": "MOUNT ROAD", "naptan:verified": "no", "network": "TfGM", "operator": "TfGM", "public_transport": "platform", "shelter": "no", "source": "naptan_import", "tactile_paving": "no"}}, {"type": "node", "id": 533802067, "lat": 53.436522, "lon": -2.1821272, "tags": {"bus": "yes", "highway": "bus_stop", "name": "Cringle Road/Milford Drive", "naptan:AtcoCode": "1800EB02961", "naptan:Bearing": "SE", "naptan:CommonName": "Cringle Road/Milford Drive", "naptan:Indicator": "O/s House 63", "naptan:Landmark": "HOUSE 63", "naptan:NaptanCode": "manadjpd", "naptan:PlusbusZoneRef": "MNCRPIC", "naptan:ShortCommonName": "Milford Drive", "naptan:Street": "CRINGLE ROAD", "naptan:verified": "no", "network": "TfGM", "public_transport": "platform", "source": "naptan_import"}}, {"type": "node", "id": 533802076, "lat": 53.4357555, "lon": -2.1837346, "tags": {"bench": "no", "bin": "no", "bus": "yes", "highway": "bus_stop", "lit": "yes", "name": "Lloyd Road/Stockport Road", "naptan:AtcoCode": "1800EB02981", "naptan:Bearing": "W", "naptan:CommonName": "Lloyd Road/Stockport Road", "naptan:Indicator": "Opp Offices", "naptan:Landmark": "KFC", "naptan:NaptanCode": "manadjpj", "naptan:PlusbusZoneRef": "MNCRPIC", "naptan:ShortCommonName": "Stockport Road", "naptan:Street": "LLOYD ROAD", "naptan:verified": "no", "network": "TfGM", "public_transport": "platform", "shelter": "no", "source": "naptan_import", "tactile_paving": "no"}}, {"type": "node", "id": 533802079, "lat": 53.4454873, "lon": -2.191395, "tags": {"bench": "yes", "bin": "yes", "bus": "yes", "check_date:shelter": "2025-04-13", "highway": "bus_stop", "lit": "yes", "name": "Levenshulme, Stockport Road / opposite Carrill Grove", "naptan:AtcoCode": "1800EB02991", "naptan:Bearing": "S", "naptan:CommonName": "Stockport Road/Carrill Grove", "naptan:Indicator": "Shop", "naptan:Landmark": "SHOPS", "naptan:NaptanCode": "manadjpm", "naptan:PlusbusZoneRef": "MNCRPIC", "naptan:ShortCommonName": "Carrill Grove", "naptan:Street": "STOCKPORT ROAD", "naptan:verified": "no", "network": "TfGM", "operator": "TfGM", "public_transport": "platform", "shelter": "yes", "source": "naptan_import", "tactile_paving": "no"}}, {"type": "node", "id": 533802083, "lat": 53.4469925, "lon": -2.2103282, "tags": {"bus": "yes", "highway": "bus_stop", "name": "Old Hall Ln/Manchester Grammar School", "naptan:AtcoCode": "1800EB03001", "naptan:Bearing": "E", "naptan:CommonName": "Old Hall Ln/Manchester Grammar School", "naptan:Indicator": "School", "naptan:Landmark": "SCH", "naptan:NaptanCode": "manadjpw", "naptan:PlusbusZoneRef": "MNCRPIC", "naptan:ShortCommonName": "Manchester Gramma", "naptan:Street": "OLD HALL LANE", "naptan:verified": "no", "network": "TfGM", "public_transport": "platform"}}, {"type": "node", "id": 533802086, "lat": 53.4421638, "lon": -2.1899197, "tags": {"bench": "no", "bin": "yes", "bus": "yes", "check_date:shelter": "2025-08-01", "highway": "bus_stop", "lit": "yes", "name": "Levenshulme, Stockport Road / near Delamere Road", "naptan:AtcoCode": "1800EB03011", "naptan:Bearing": "SE", "naptan:CommonName": "Stockport Road/Delamere Road", "naptan:Indicator": "O/s House 235", "naptan:Landmark": "TAKE AWAY", "naptan:NaptanCode": "manadjta", "naptan:PlusbusZoneRef": "MNCRPIC", "naptan:ShortCommonName": "Delamere Road", "naptan:Street": "STOCKPORT ROAD", "naptan:verified": "no", "network": "TfGM", "operator": "TfGM", "public_transport": "platform", "shelter": "no", "source": "naptan_import", "tactile_paving": "no"}}, {"type": "node", "id": 533802090, "lat": 53.4503115, "lon": -2.1931333, "tags": {"bench": "yes", "bin": "yes", "bus": "yes", "highway": "bus_stop", "lit": "yes", "name": "Crowcroft Park, Stockport Road / opposite Longden Road", "naptan:AtcoCode": "1800EB03551", "naptan:Bearing": "N", "naptan:CommonName": "Stockport Road/Matthews Lane", "naptan:Indicator": "Opp Car Wash", "naptan:Landmark": "Jain Community Centre", "naptan:NaptanCode": "manadjtd", "naptan:PlusbusZoneRef": "MNCRPIC", "naptan:ShortCommonName": "Matthews Lane", "naptan:Street": "STOCKPORT ROAD", "naptan:verified": "no", "network": "TfGM", "operator": "TfGM", "public_transport": "platform", "shelter": "yes", "source": "naptan_import", "tactile_paving": "no"}}, {"type": "node", "id": 533802092, "lat": 53.4498451, "lon": -2.1924988, "tags": {"bench": "yes", "bin": "yes", "bus": "yes", "highway": "bus_stop", "lit": "yes", "name": "Crowcroft Park, Stockport Road / near Longden Road", "naptan:AtcoCode": "1800EB03561", "naptan:Bearing": "S", "naptan:CommonName": "Stockport Road/Matthews Lane", "naptan:Indicator": "Garage", "naptan:Landmark": "Jain Community Centre", "naptan:NaptanCode": "manadjtg", "naptan:PlusbusZoneRef": "MNCRPIC", "naptan:ShortCommonName": "Matthews Lane", "naptan:Street": "STOCKPORT ROAD", "naptan:verified": "no", "network": "TfGM", "operator": "TfGM", "public_transport": "platform", "shelter": "yes", "source": "naptan_import", "tactile_paving": "no"}}, {"type": "node", "id": 533802093, "lat": 53.4478777, "lon": -2.1917972, "tags": {"bench": "no", "bin": "no", "bus": "yes", "highway": "bus_stop", "lit": "yes", "name": "Levenshulme, Stockport Road / near Woodfold Avenue", "naptan:AtcoCode": "1800EB03571", "naptan:Bearing": "N", "naptan:CommonName": "Stockport Road/Woodfold Avenue", "naptan:Indicator": "Post Office", "naptan:Landmark": "POST OFFICE", "naptan:NaptanCode": "manadjtj", "naptan:PlusbusZoneRef": "MNCRPIC", "naptan:ShortCommonName": "Woodfold Avenue", "naptan:Street": "STOCKPORT ROAD", "naptan:verified": "no", "network": "TfGM", "operator": "TfGM", "public_transport": "platform", "shelter": "yes", "source": "naptan_import", "tactile_paving": "no"}}, {"type": "node", "id": 533802094, "lat": 53.4475547, "lon": -2.1914344, "tags": {"bench": "no", "bin": "yes", "bus": "yes", "highway": "bus_stop", "lit": "no", "name": "Levenshulme, Stockport Road / near Mayford Road", "naptan:AtcoCode": "1800EB03581", "naptan:Bearing": "S", "naptan:CommonName": "Stockport Road/Mayfield Road", "naptan:Indicator": "Os Pound Shop", "naptan:Landmark": "SHOPS", "naptan:NaptanCode": "manadjtm", "naptan:Notes": "INDICATOR AMENDED", "naptan:PlusbusZoneRef": "MNCRPIC", "naptan:ShortCommonName": "Mayfield Road", "naptan:Street": "STOCKPORT ROAD", "naptan:verified": "no", "network": "TfGM", "operator": "TfGM", "public_transport": "platform", "shelter": "no", "source": "naptan_import", "tactile_paving": "no"}}, {"type": "node", "id": 533802096, "lat": 53.4456307, "lon": -2.1916366, "tags": {"bench": "yes", "bin": "yes", "bus": "yes", "check_date:shelter": "2025-04-13", "highway": "bus_stop", "lit": "yes", "name": "Levenshulme, Stockport Road / near Carrill Grove", "naptan:AtcoCode": "1800EB03591", "naptan:Bearing": "N", "naptan:CommonName": "Stockport Road/Carrill Grove", "naptan:Indicator": "Hair Salon", "naptan:Landmark": "PROPERTY 882", "naptan:NaptanCode": "manadjtp", "naptan:PlusbusZoneRef": "MNCRPIC", "naptan:ShortCommonName": "Carrill Grove", "naptan:Street": "STOCKPORT ROAD", "naptan:verified": "no", "network": "TfGM", "operator": "TfGM", "public_transport": "platform", "shelter": "yes", "source": "naptan_import", "tactile_paving": "no"}}, {"type": "node", "id": 533802099, "lat": 53.4437254, "lon": -2.1914624, "tags": {"bench": "yes", "bin": "yes", "bus": "yes", "check_date:shelter": "2025-04-13", "highway": "bus_stop", "lit": "yes", "name": "Levenshulme, Stockport Road / opposite Albert Road", "naptan:AtcoCode": "1800EB03601", "naptan:Bearing": "S", "naptan:CommonName": "Stockport Road/Albert Road", "naptan:Indicator": "Bank", "naptan:Landmark": "FURNITURE SHOP", "naptan:NaptanCode": "manadjtw", "naptan:Notes": "LOCATION AMENDMENT", "naptan:PlusbusZoneRef": "MNCRPIC", "naptan:ShortCommonName": "Albert Road", "naptan:Street": "STOCKPORT ROAD", "naptan:verified": "no", "network": "TfGM", "operator": "TfGM", "public_transport": "platform", "shelter": "yes", "source": "naptan_import", "tactile_paving": "no"}}, {"type": "node", "id": 533802108, "lat": 53.4412302, "lon": -2.1891478, "tags": {"bench": "yes", "bin": "yes", "bus": "yes", "highway": "bus_stop", "lit": "yes", "name": "Levenshulme, Stockport Road / opposite Crayfield Road", "naptan:AtcoCode": "1800EB03621", "naptan:Bearing": "NW", "naptan:CommonName": "Stockport Road/Crayfield Road", "naptan:Indicator": "Antique Shop", "naptan:Landmark": "NEWSAGENTS", "naptan:NaptanCode": "manadjwd", "naptan:Notes": "LOCATION AMENDED", "naptan:PlusbusZoneRef": "MNCRPIC", "naptan:ShortCommonName": "Crayfield Road", "naptan:Street": "STOCKPORT ROAD", "naptan:verified": "no", "network": "TfGM", "operator": "TfGM", "public_transport": "platform", "shelter": "yes", "source": "naptan_import", "tactile_paving": "yes"}}, {"type": "node", "id": 533802112, "lat": 53.4407191, "lon": -2.1883777, "tags": {"bench": "no", "bin": "yes", "bus": "yes", "check_date:shelter": "2025-05-10", "highway": "bus_stop", "lit": "yes", "name": "Levenshulme, Stockport Road / near Crayfield Road", "naptan:AtcoCode": "1800EB03631", "naptan:Bearing": "SE", "naptan:CommonName": "Stockport Road/Crayfield Road", "naptan:Indicator": "Os Shop No 1032", "naptan:Landmark": "HOUSE 977", "naptan:NaptanCode": "manadjwg", "naptan:PlusbusZoneRef": "MNCRPIC", "naptan:ShortCommonName": "Crayfield Road", "naptan:Street": "STOCKPORT ROAD", "naptan:verified": "no", "network": "TfGM", "operator": "TfGM", "public_transport": "platform", "shelter": "yes", "source": "naptan_import", "tactile_paving": "no"}}, {"type": "node", "id": 533802115, "lat": 53.4391934, "lon": -2.1868054, "tags": {"bench": "yes", "bin": "yes", "bus": "yes", "highway": "bus_stop", "lit": "yes", "name": "Levenshulme, Stockport Road / near Broom Lane", "naptan:AtcoCode": "1800EB03641", "naptan:Bearing": "SE", "naptan:CommonName": "Stockport Road/Broom Lane", "naptan:Indicator": "Os House 1053", "naptan:Landmark": "HOUSE 1041", "naptan:NaptanCode": "manadjwj", "naptan:PlusbusZoneRef": "MNCRPIC", "naptan:ShortCommonName": "Broom Lane", "naptan:Street": "STOCKPORT ROAD", "naptan:verified": "no", "network": "TfGM", "operator": "TfGM", "public_transport": "platform", "shelter": "yes", "source": "naptan_import"}}, {"type": "node", "id": 533802119, "lat": 53.4395161, "lon": -2.1873788, "tags": {"bench": "no", "bin": "no", "bus": "yes", "highway": "bus_stop", "lit": "yes", "name": "Levenshulme, Stockport Road / opposite Broom Lane", "naptan:AtcoCode": "1800EB03651", "naptan:Bearing": "NW", "naptan:CommonName": "Stockport Road/Broom Lane", "naptan:Indicator": "Open Land", "naptan:Landmark": "HOUSE 1076", "naptan:NaptanCode": "manadjwm", "naptan:PlusbusZoneRef": "MNCRPIC", "naptan:ShortCommonName": "Broom Lane", "naptan:Street": "STOCKPORT ROAD", "naptan:verified": "no", "network": "TfGM", "operator": "TfGM", "public_transport": "platform", "shelter": "yes", "source": "naptan_import", "tactile_paving": "no"}}, {"type": "node", "id": 533802135, "lat": 53.4364368, "lon": -2.1849417, "tags": {"bench": "no", "bin": "yes", "bus": "yes", "highway": "bus_stop", "lit": "yes", "name": "Levenshulme, Stockport Road / opposite Lloyd Road", "naptan:AtcoCode": "1800EB03661", "naptan:Bearing": "N", "naptan:CommonName": "Stockport Rd/Lloyd Road", "naptan:Indicator": "Nr Church", "naptan:Landmark": "HOUSE NO 1184", "naptan:NaptanCode": "manadjwp", "naptan:PlusbusZoneRef": "MNCRPIC", "naptan:ShortCommonName": "Lloyd Road", "naptan:Street": "STOCKPORT ROAD", "naptan:verified": "no", "network": "TfGM", "operator": "TfGM", "public_transport": "platform", "shelter": "no", "source": "naptan_import"}}, {"type": "node", "id": 533802139, "lat": 53.4360354, "lon": -2.1942879, "tags": {"bench": "yes", "bus": "yes", "highway": "bus_stop", "name": "Burnage, Errwood Road / corner Crossley Road", "naptan:AtcoCode": "1800EB03671", "naptan:Bearing": "N", "naptan:CommonName": "Errwood Road/Crossley Road", "naptan:Indicator": "School", "naptan:Landmark": "SCHOOL", "naptan:NaptanCode": "manadjwt", "naptan:PlusbusZoneRef": "MNCRPIC", "naptan:ShortCommonName": "Crossley Road", "naptan:Street": "ERRWOOD ROAD", "naptan:verified": "no", "network": "TfGM", "operator": "TfGM", "public_transport": "platform", "shelter": "yes", "source": "naptan_import"}}, {"type": "node", "id": 533802143, "lat": 53.437007, "lon": -2.1937805, "tags": {"bus": "yes", "highway": "bus_stop", "name": "Levenshulme, Errwood Road / outside Cringle Park", "naptan:AtcoCode": "1800EB03681", "naptan:Bearing": "S", "naptan:CommonName": "Errwood Road/Cringle Park", "naptan:Indicator": "Park", "naptan:Landmark": "PARK", "naptan:NaptanCode": "manadmad", "naptan:PlusbusZoneRef": "MNCRPIC", "naptan:ShortCommonName": "Cringle Park", "naptan:Street": "ERRWOOD ROAD", "naptan:verified": "no", "network": "TfGM", "operator": "TfGM", "public_transport": "platform", "shelter": "no", "source": "naptan_import"}}, {"type": "node", "id": 533802147, "lat": 53.4372316, "lon": -2.1938718, "tags": {"bench": "no", "bus": "yes", "highway": "bus_stop", "name": "Levenshulme, Errwood Road / near Crompton Road", "naptan:AtcoCode": "1800EB03691", "naptan:Bearing": "N", "naptan:CommonName": "Errwood Road/Crompton Road", "naptan:Indicator": "School", "naptan:Landmark": "SCHOOL", "naptan:NaptanCode": "manadmag", "naptan:PlusbusZoneRef": "MNCRPIC", "naptan:ShortCommonName": "Crompton Road", "naptan:Street": "ERRWOOD ROAD", "naptan:verified": "no", "network": "TfGM", "operator": "TfGM", "public_transport": "platform", "shelter": "no", "source": "naptan_import"}}, {"type": "node", "id": 533802152, "lat": 53.4392645, "lon": -2.1930079, "tags": {"bench": "no", "bin": "no", "bus": "yes", "highway": "bus_stop", "lit": "no", "name": "Levenshulme, Errwood Road / near Clare Road", "naptan:AtcoCode": "1800EB03701", "naptan:Bearing": "S", "naptan:CommonName": "Errwood Road/Clare Road", "naptan:Indicator": "Nr School", "naptan:Landmark": "SCHOOL", "naptan:NaptanCode": "manadmaj", "naptan:PlusbusZoneRef": "MNCRPIC", "naptan:ShortCommonName": "Clare Road", "naptan:Street": "ERRWOOD ROAD", "naptan:verified": "no", "network": "TfGM", "operator": "TfGM", "public_transport": "platform", "shelter": "no", "source": "naptan_import", "tactile_paving": "no"}}, {"type": "node", "id": 533802155, "lat": 53.4397765, "lon": -2.1932361, "tags": {"bench": "no", "bin": "no", "bus": "yes", "highway": "bus_stop", "lit": "no", "name": "Levenshulme, Errwood Road / near Milwain Road", "naptan:AtcoCode": "1800EB03711", "naptan:Bearing": "N", "naptan:CommonName": "Errwood Road/Milwain Road", "naptan:Indicator": "O/s House 36", "naptan:Landmark": "HOUSE 36", "naptan:NaptanCode": "manadmam", "naptan:PlusbusZoneRef": "MNCRPIC", "naptan:ShortCommonName": "Milwain Road", "naptan:Street": "ERRWOOD ROAD", "naptan:verified": "no", "network": "TfGM", "operator": "TfGM", "public_transport": "platform", "shelter": "no", "source": "naptan_import", "tactile_paving": "no"}}, {"type": "node", "id": 533802156, "lat": 53.4424197, "lon": -2.1928867, "tags": {"bench": "no", "bin": "no", "bus": "yes", "highway": "bus_stop", "lit": "no", "name": "Levenshulme, Marshall Road / near Alma Road", "naptan:AtcoCode": "1800EB03721", "naptan:Bearing": "S", "naptan:CommonName": "Marshall Road/Alma Road", "naptan:Indicator": "O/s House 50", "naptan:Landmark": "HOUSE 50", "naptan:NaptanCode": "manadmap", "naptan:PlusbusZoneRef": "MNCRPIC", "naptan:ShortCommonName": "Alma Road", "naptan:Street": "Marshall Road", "naptan:verified": "no", "network": "TfGM", "operator": "TfGM", "public_transport": "platform", "shelter": "no", "source": "naptan_import", "tactile_paving": "no"}}, {"type": "node", "id": 533802157, "lat": 53.4423387, "lon": -2.1929767, "tags": {"bench": "no", "bus": "yes", "highway": "bus_stop", "name": "Levenshulme, Marshall Road / adjacent Alma Road", "naptan:AtcoCode": "1800EB03731", "naptan:Bearing": "N", "naptan:CommonName": "Marshall Road/Alma Road", "naptan:Indicator": "O/s House 46", "naptan:Landmark": "HOUSE 54", "naptan:NaptanCode": "manadmat", "naptan:PlusbusZoneRef": "MNCRPIC", "naptan:ShortCommonName": "Alma Road", "naptan:Street": "Marshall Road", "naptan:verified": "no", "network": "TfGM", "operator": "TfGM", "public_transport": "platform", "shelter": "no", "source": "naptan_import"}}, {"type": "node", "id": 533802159, "lat": 53.4441298, "lon": -2.1932241, "tags": {"bench": "yes", "bin": "yes", "bus": "yes", "highway": "bus_stop", "lit": "yes", "name": "Levenshulme, Albert Road / outside Levenshulme Station", "naptan:AtcoCode": "1800EB03741", "naptan:Bearing": "E", "naptan:CommonName": "Albert Road/Levenshulme Station", "naptan:Indicator": "Chemist", "naptan:Landmark": "CHEMIST", "naptan:NaptanCode": "manadmaw", "naptan:PlusbusZoneRef": "MNCRPIC", "naptan:ShortCommonName": "Levenshulme Stn", "naptan:Street": "ALBERT ROAD", "naptan:verified": "no", "network": "TfGM", "operator": "TfGM", "public_transport": "platform", "shelter": "yes", "source": "naptan_import", "tactile_paving": "no"}}, {"type": "node", "id": 533802163, "lat": 53.4439921, "lon": -2.1933154, "tags": {"bench": "yes", "bin": "yes", "bus": "yes", "highway": "bus_stop", "lit": "yes", "name": "Levenshulme, Albert Road / opposite Levenshulme Station", "naptan:AtcoCode": "1800EB03751", "naptan:Bearing": "W", "naptan:CommonName": "Albert Road/Levenshulme Station", "naptan:Indicator": "Nr Train Stn", "naptan:Landmark": "FLATS", "naptan:NaptanCode": "manadmda", "naptan:PlusbusZoneRef": "MNCRPIC", "naptan:ShortCommonName": "Levenshulme Stn", "naptan:Street": "ALBERT ROAD", "naptan:verified": "no", "network": "TfGM", "operator": "TfGM", "public_transport": "platform", "shelter": "yes", "source": "naptan_import", "tactile_paving": "yes"}}, {"type": "node", "id": 533802167, "lat": 53.4437446, "lon": -2.1977632, "tags": {"bench": "no", "bin": "no", "bus": "yes", "highway": "bus_stop", "lit": "yes", "name": "Levenshulme, Albert Road / outside Assembly Hall", "naptan:AtcoCode": "1800EB03761", "naptan:Bearing": "E", "naptan:CommonName": "Albert Road/Assembly Hall", "naptan:Indicator": "House 78", "naptan:Landmark": "HOUSE 72", "naptan:NaptanCode": "manadmdg", "naptan:PlusbusZoneRef": "MNCRPIC", "naptan:ShortCommonName": "Assembly Hall", "naptan:Street": "ALBERT ROAD", "naptan:verified": "no", "network": "TfGM", "operator": "TfGM", "public_transport": "platform", "shelter": "no", "source": "naptan_import", "tactile_paving": "no"}}, {"type": "node", "id": 533802170, "lat": 53.4431007, "lon": -2.1996949, "tags": {"bench": "no", "bin": "no", "bus": "yes", "highway": "bus_stop", "lit": "yes", "name": "Levenshulme, Moseley Road / near Slade Lane", "naptan:AtcoCode": "1800EB03771", "naptan:Bearing": "W", "naptan:CommonName": "Moseley Road/Slade Lane", "naptan:Indicator": "Graphic House", "naptan:Landmark": "GRAPHIC HOUSE", "naptan:NaptanCode": "manadmdj", "naptan:PlusbusZoneRef": "MNCRPIC", "naptan:ShortCommonName": "Slade Lane", "naptan:Street": "MOSELEY ROAD", "naptan:verified": "no", "network": "TfGM", "operator": "TfGM", "public_transport": "platform", "shelter": "no", "source": "naptan_import", "tactile_paving": "no"}}, {"type": "node", "id": 533802174, "lat": 53.442701, "lon": -2.2021922, "tags": {"bench": "no", "bin": "no", "bus": "yes", "highway": "bus_stop", "local_ref": "H", "name": "Levenshulme, Moseley Road / Kingsway Hotel", "naptan:AtcoCode": "1800EB03781", "naptan:Bearing": "E", "naptan:CommonName": "Moseley Road/Kingsway Hotel (Stop H)", "naptan:Indicator": "Stop H", "naptan:Landmark": "OS PUBLIC HSE", "naptan:NaptanCode": "manadmdm", "naptan:PlusbusZoneRef": "MNCRPIC", "naptan:ShortCommonName": "Kingsway Hotel", "naptan:Street": "MOSELEY ROAD", "naptan:verified": "no", "network": "TfGM", "operator": "TfGM", "public_transport": "platform", "ref": "H", "shelter": "no"}}, {"type": "node", "id": 533802177, "lat": 53.4424939, "lon": -2.202402, "tags": {"bench": "no", "bin": "no", "bus": "yes", "highway": "bus_stop", "local_ref": "J", "name": "Levenshulme, Moseley Road / Kingsway Hotel", "naptan:AtcoCode": "1800EB03791", "naptan:Bearing": "W", "naptan:CommonName": "Moseley Road/Kingsway Hotel (Stop J)", "naptan:Indicator": "Stop J", "naptan:Landmark": "O/S HOUSE 268", "naptan:NaptanCode": "manadmdp", "naptan:PlusbusZoneRef": "MNCRPIC", "naptan:ShortCommonName": "Kingsway Hotel", "naptan:Street": "Mosely Road", "naptan:verified": "no", "network": "TfGM", "operator": "TfGM", "public_transport": "platform", "ref": "J", "shelter": "no", "tactile_paving": "no"}}, {"type": "node", "id": 533802181, "lat": 53.4430748, "lon": -2.1990323, "tags": {"bench": "no", "bin": "no", "bus": "yes", "check_date:shelter": "2025-04-23", "highway": "bus_stop", "lit": "yes", "name": "Levenshulme, Slade Lane / near Albert Road", "naptan:AtcoCode": "1800EB03811", "naptan:Bearing": "S", "naptan:CommonName": "Slade Lane/Albert Road", "naptan:Indicator": "Bowling Green", "naptan:Landmark": "BOWLING GRN", "naptan:NaptanCode": "manadmdt", "naptan:PlusbusZoneRef": "MNCRPIC", "naptan:ShortCommonName": "Albert Road", "naptan:Street": "SLADE LANE", "naptan:verified": "no", "network": "TfGM", "operator": "TfGM", "public_transport": "platform", "shelter": "no", "source": "naptan_import", "tactile_paving": "no"}}, {"type": "node", "id": 533802184, "lat": 53.4413036, "lon": -2.199919, "tags": {"bus": "yes", "highway": "bus_stop", "name": "Levenshulme, Slade Lane / near Scarisbrick Road", "naptan:AtcoCode": "1800EB03821", "naptan:Bearing": "N", "naptan:CommonName": "Slade Lane/Scarisbrick Road", "naptan:Indicator": "O/s House 374a", "naptan:Landmark": "HOUSE 374A", "naptan:NaptanCode": "manadmdw", "naptan:PlusbusZoneRef": "MNCRPIC", "naptan:ShortCommonName": "Scarisbrick Road", "naptan:Street": "SLADE LANE", "naptan:verified": "no", "network": "TfGM", "operator": "TfGM", "public_transport": "platform", "source": "naptan_import"}}, {"type": "node", "id": 533802188, "lat": 53.4408442, "lon": -2.19988, "tags": {"bus": "yes", "highway": "bus_stop", "name": "Levenshulme, Slade Lane / opposite Scarisbrick Road", "naptan:AtcoCode": "1800EB03831", "naptan:Bearing": "S", "naptan:CommonName": "Slade Lane/Scarisbrick Road", "naptan:Indicator": "Opp House 384", "naptan:Landmark": "FLATS", "naptan:NaptanCode": "manadmga", "naptan:PlusbusZoneRef": "MNCRPIC", "naptan:ShortCommonName": "Scarisbrick Road", "naptan:Street": "SLADE LANE", "naptan:verified": "no", "network": "TfGM", "operator": "TfGM", "public_transport": "platform", "source": "naptan_import"}}, {"type": "node", "id": 533802192, "lat": 53.4396748, "lon": -2.2003864, "tags": {"bench": "yes", "bin": "yes", "bus": "yes", "highway": "bus_stop", "lit": "yes", "name": "Burnage, Slade Lane / near Cringle Hall Road", "naptan:AtcoCode": "1800EB03841", "naptan:Bearing": "N", "naptan:CommonName": "Slade Lane/Cringle Hall Road", "naptan:Indicator": "Opp House 297", "naptan:Landmark": "BUNGALOW", "naptan:NaptanCode": "manadmgd", "naptan:PlusbusZoneRef": "MNCRPIC", "naptan:ShortCommonName": "Cringle Hall Road", "naptan:Street": "SLADE LANE", "naptan:verified": "no", "network": "TfGM", "operator": "TfGM", "public_transport": "platform", "shelter": "yes", "source": "naptan_import", "tactile_paving": "no"}}, {"type": "node", "id": 533802196, "lat": 53.4391275, "lon": -2.1998117, "tags": {"bus": "yes", "highway": "bus_stop", "name": "Burnage, Burnage Lane / outside York House", "naptan:AtcoCode": "1800EB03851", "naptan:Bearing": "S", "naptan:CommonName": "Burnage Lane/York House", "naptan:Indicator": "York House", "naptan:Landmark": "YORK HOUSE", "naptan:NaptanCode": "manadmgj", "naptan:PlusbusZoneRef": "MNCRPIC", "naptan:ShortCommonName": "York House", "naptan:Street": "BURNAGE LANE", "naptan:verified": "no", "network": "TfGM", "operator": "TfGM", "public_transport": "platform", "source": "naptan_import"}}, {"type": "node", "id": 533802200, "lat": 53.4374908, "lon": -2.2002256, "tags": {"bus": "yes", "highway": "bus_stop", "name": "Burnage, Burnage Lane / opposite Acacias School", "naptan:AtcoCode": "1800EB03861", "naptan:Bearing": "N", "naptan:CommonName": "Burnage Lane/Acacias School", "naptan:Indicator": "Opp School", "naptan:Landmark": "HOUSE 42", "naptan:NaptanCode": "manadmgm", "naptan:PlusbusZoneRef": "MNCRPIC", "naptan:ShortCommonName": "Acacias School", "naptan:Street": "BURNAGE LANE", "naptan:verified": "no", "network": "TfGM", "operator": "TfGM", "public_transport": "platform", "source": "naptan_import"}}, {"type": "node", "id": 533802204, "lat": 53.4373563, "lon": -2.2000292, "tags": {"bus": "yes", "highway": "bus_stop", "name": "Burnage, Burnage Lane / outside Acacias School", "naptan:AtcoCode": "1800EB03871", "naptan:Bearing": "S", "naptan:CommonName": "Burnage Lane/Acacias School", "naptan:Indicator": "Primary School", "naptan:Landmark": "PRIMARY SCHOOL", "naptan:NaptanCode": "manadmgp", "naptan:PlusbusZoneRef": "MNCRPIC", "naptan:ShortCommonName": "Acacias School", "naptan:Street": "BURNAGE LANE", "naptan:verified": "no", "network": "TfGM", "operator": "TfGM", "public_transport": "platform", "source": "naptan_import"}}, {"type": "node", "id": 533802207, "lat": 53.4357519, "lon": -2.2003031, "tags": {"bus": "yes", "highway": "bus_stop", "name": "Burnage, Burnage Lane / opposite Crossley Road", "naptan:AtcoCode": "1800EB03881", "naptan:Bearing": "N", "naptan:CommonName": "Burnage Lane/Crossley Road", "naptan:Indicator": "Opp Church", "naptan:Landmark": "HOUSE 100", "naptan:NaptanCode": "manadmgt", "naptan:PlusbusZoneRef": "MNCRPIC", "naptan:ShortCommonName": "Crossley Road", "naptan:Street": "BURNAGE LANE", "naptan:verified": "no", "network": "TfGM", "operator": "TfGM", "public_transport": "platform", "source": "naptan_import"}}, {"type": "node", "id": 533802213, "lat": 53.4352999, "lon": -2.2002081, "tags": {"bus": "yes", "highway": "bus_stop", "name": "Burnage, Burnage Lane / near Crossley Road", "naptan:AtcoCode": "1800EB03891", "naptan:Bearing": "S", "naptan:CommonName": "Burnage Lane/Crossley Road", "naptan:Indicator": "Nr Church", "naptan:Landmark": "HOUSE 1", "naptan:NaptanCode": "manadmgw", "naptan:PlusbusZoneRef": "MNCRPIC", "naptan:ShortCommonName": "Crossley Road", "naptan:Street": "BURNAGE LANE", "naptan:verified": "no", "network": "TfGM", "operator": "TfGM", "public_transport": "platform", "source": "naptan_import"}}, {"type": "node", "id": 533802218, "lat": 53.4329238, "lon": -2.2006707, "tags": {"bus": "yes", "highway": "bus_stop", "name": "Burnage, Burnage Lane / near Mauldeth Road", "naptan:AtcoCode": "1800EB03901", "naptan:Bearing": "N", "naptan:CommonName": "Burnage Lane/Mauldeth Road", "naptan:Indicator": "Co Op Store", "naptan:Landmark": "SUPERMARKET", "naptan:NaptanCode": "manadmja", "naptan:PlusbusZoneRef": "MNCRPIC", "naptan:ShortCommonName": "Mauldeth Road", "naptan:Street": "BURNAGE LANE", "naptan:verified": "no", "network": "TfGM", "operator": "TfGM", "public_transport": "platform", "source": "naptan_import"}}, {"type": "node", "id": 533802223, "lat": 53.4316175, "lon": -2.196977, "tags": {"bus": "yes", "highway": "bus_stop", "name": "Avon Road/Errwood Road", "naptan:AtcoCode": "1800EB03911", "naptan:Bearing": "W", "naptan:CommonName": "Avon Road/Errwood Road", "naptan:Indicator": "O/s House 50", "naptan:Landmark": "HOUSE 50", "naptan:NaptanCode": "manadmjd", "naptan:PlusbusZoneRef": "MNCRPIC", "naptan:ShortCommonName": "Errwood Road", "naptan:Street": "AVON ROAD", "naptan:verified": "no", "network": "TfGM", "public_transport": "platform", "source": "naptan_import"}}, {"type": "node", "id": 533802225, "lat": 53.4320273, "lon": -2.2006294, "tags": {"bus": "yes", "highway": "bus_stop", "name": "Burnage, Burnage Lane / opposite Mauldeth Road", "naptan:AtcoCode": "1800EB03921", "naptan:Bearing": "S", "naptan:CommonName": "Burnage Lane/Mauldeth Road", "naptan:Indicator": "Shop Parade", "naptan:Landmark": "SHOP PARADE", "naptan:NaptanCode": "manadmjg", "naptan:PlusbusZoneRef": "MNCRPIC", "naptan:ShortCommonName": "Mauldeth Road", "naptan:Street": "BURNAGE LANE", "naptan:verified": "no", "network": "TfGM", "operator": "TfGM", "public_transport": "platform", "shelter": "yes", "source": "naptan_import"}}, {"type": "node", "id": 533802227, "lat": 53.4306578, "lon": -2.2011266, "tags": {"bus": "yes", "highway": "bus_stop", "name": "Burnage, Burnage Lane / outside Farmers Arms", "naptan:AtcoCode": "1800EB03931", "naptan:Bearing": "N", "naptan:CommonName": "Burnage Lane/Farmers Arms", "naptan:Indicator": "Public House", "naptan:Landmark": "PUBLIC HOUSE", "naptan:NaptanCode": "manadmjm", "naptan:Notes": "Stop Relocated", "naptan:PlusbusZoneRef": "MNCRPIC", "naptan:ShortCommonName": "Farmers Arms", "naptan:Street": "BURNAGE LANE", "naptan:verified": "no", "network": "TfGM", "operator": "TfGM", "public_transport": "platform", "source": "naptan_import"}}, {"type": "node", "id": 533802228, "lat": 53.4291416, "lon": -2.2011045, "tags": {"bench": "no", "bin": "no", "bus": "yes", "highway": "bus_stop", "lit": "yes", "name": "Burnage, Burnage Lane / opposite St Bernard's", "naptan:AtcoCode": "1800EB03941", "naptan:Bearing": "S", "naptan:CommonName": "Burnage Lane/St Bernard's", "naptan:Indicator": "Opp Church", "naptan:Landmark": "FLATS 359/361", "naptan:NaptanCode": "manadmjp", "naptan:PlusbusZoneRef": "MNCRPIC", "naptan:ShortCommonName": "St Bernard's", "naptan:Street": "BURNAGE LANE", "naptan:verified": "no", "network": "TfGM", "operator": "TfGM", "public_transport": "platform", "shelter": "no", "tactile_paving": "no"}}, {"type": "node", "id": 533802229, "lat": 53.4275811, "lon": -2.2027997, "tags": {"bench": "no", "bin": "no", "bus": "yes", "highway": "bus_stop", "lit": "yes", "name": "Burnage, Burnage Lane / outside Burnage High School", "naptan:AtcoCode": "1800EB03951", "naptan:Bearing": "N", "naptan:CommonName": "Burnage Lane/Burnage High School", "naptan:Indicator": "School", "naptan:Landmark": "SCHOOL", "naptan:NaptanCode": "manadmjt", "naptan:Notes": "LOCATION AMENDED", "naptan:PlusbusZoneRef": "MNCRPIC", "naptan:ShortCommonName": "Burnage High Sch", "naptan:Street": "BURNAGE LANE", "naptan:verified": "no", "network": "TfGM", "operator": "TfGM", "public_transport": "platform", "shelter": "no", "tactile_paving": "no"}}, {"type": "node", "id": 533802233, "lat": 53.4273793, "lon": -2.2026908, "tags": {"bench": "no", "bin": "no", "bus": "yes", "highway": "bus_stop", "lit": "yes", "name": "Burnage, Burnage Lane / opposite Burnage High School", "naptan:AtcoCode": "1800EB03961", "naptan:Bearing": "S", "naptan:CommonName": "Burnage Lane/Burnage High School", "naptan:Indicator": "O/s House 427", "naptan:Landmark": "HOUSE 427", "naptan:NaptanCode": "manadmjw", "naptan:PlusbusZoneRef": "MNCRPIC", "naptan:ShortCommonName": "Burnage High Sch", "naptan:Street": "BURNAGE LANE", "naptan:verified": "no", "network": "TfGM", "operator": "TfGM", "public_transport": "platform", "shelter": "yes", "tactile_paving": "no"}},