{"version": 0.6, "generator": "Overpass API 0.7.62.8 e802775f", "osm3s": {"timestamp_osm_base": "2026-01-16T09:55:11Z", "copyright": "The data included in this document is from www.openstreetmap.org. The data is made available under ODbL."}, "elements": [{"type": "node", "id": 2163186937, "lat": 59.00353, "lon": 5.730042, "tags": {"highway": "bus_stop", "name": "Brislingveien (A)", "ref": "A", "ref:nsrq": "49175", "shelter": "yes"}}, {"type": "node", "id": 2163186938, "lat": 59.003542, "lon": 5.729602, "tags": {"highway": "bus_stop", "name": "Brislingveien (B)", "ref": "B", "ref:nsrq": "49176", "shelter": "yes"}}, {"type": "node", "id": 2163186939, "lat": 59.003494, "lon": 5.732919, "tags": {"bench": "no", "highway": "bus_stop", "name": "Brosmeveien (A)", "ref": "A", "ref:nsrq": "49184", "shelter": "yes"}}, {"type": "node", "id": 2163187003, "lat": 58.999847, "lon": 5.722388, "tags": {"highway": "bus_stop", "name": "Husab\u00f8\u00e5keren (A)", "ref": "A", "ref:nsrq": "46045", "shelter": "yes"}}, {"type": "node", "id": 2163187012, "lat": 59.002281, "lon": 5.719848, "tags": {"highway": "bus_stop", "name": "Kamskjellveien (A)", "ref": "A", "ref:nsrq": "47374", "shelter": "no"}}, {"type": "node", "id": 2163187014, "lat": 59.002173, "lon": 5.720044, "tags": {"highway": "bus_stop", "name": "Kamskjellveien (B)", "ref": "B", "ref:nsrq": "47373", "shelter": "no"}}, {"type": "node", "id": 2163187070, "lat": 59.003697, "lon": 5.717794, "tags": {"highway": "bus_stop", "name": "Notbasveien (B)", "ref": "B", "ref:nsrq": "47588", "shelter": "yes"}}, {"type": "node", "id": 2163187071, "lat": 59.003972, "lon": 5.718218, "tags": {"highway": "bus_stop", "name": "Notbasveien (A)", "ref": "A", "ref:nsrq": "47587", "shelter": "no"}}, {"type": "node", "id": 2163187075, "lat": 59.005298, "lon": 5.724625, "tags": {"highway": "bus_stop", "name": "Ordf\u00f8rer Scheies gate (A)", "ref": "A", "ref:nsrq": "48019"}}, {"type": "node", "id": 2163187076, "lat": 59.005357, "lon": 5.724652, "tags": {"highway": "bus_stop", "name": "Ordf\u00f8rer Scheies gate (B)", "ref": "B", "ref:nsrq": "48018"}}, {"type": "node", "id": 2163187149, "lat": 59.001575, "lon": 5.722919, "tags": {"highway": "bus_stop", "name": "\u00d8stersveien", "ref:nsrq": "46494", "shelter": "yes"}}, {"type": "node", "id": 9031091730, "lat": 59.000601, "lon": 5.722957, "tags": {"highway": "bus_stop", "name": "Husab\u00f8hagen", "ref:nsrq": "46041"}}, {"type": "node", "id": 9830727765, "lat": 58.998898, "lon": 5.721562, "tags": {"highway": "bus_stop", "name": "Husab\u00f8\u00e5keren (B)", "ref": "B", "ref:nsrq": "46044"}}]}