{"version": 0.6, "generator": "Overpass API 0.7.62.8 e802775f", "osm3s": {"timestamp_osm_base": "2026-01-15T07:58:39Z", "copyright": "The data included in this document is from www.openstreetmap.org. The data is made available under ODbL."}, "elements": [{"type": "node", "id": 100980405, "lat": 39.4532178, "lon": -0.4000835, "tags": {"railway:atp": "yes"}}, {"type": "node", "id": 100980406, "lat": 39.4517119, "lon": -0.4018751, "tags": {"railway:atp": "yes"}}, {"type": "node", "id": 100980408, "lat": 39.4498546, "lon": -0.4037927, "tags": {"railway:atp": "yes"}}, {"type": "node", "id": 100980409, "lat": 39.4483404, "lon": -0.4052084, "tags": {"railway:atp": "yes"}}, {"type": "node", "id": 100980411, "lat": 39.4472345, "lon": -0.4060378}, {"type": "node", "id": 100980412, "lat": 39.4458223, "lon": -0.4069864}, {"type": "node", "id": 100980413, "lat": 39.4439516, "lon": -0.4082248}, {"type": "node", "id": 100986804, "lat": 39.4510701, "lon": -0.4026173, "tags": {"name": "Sant Isidre", "name:ca": "Sant Isidre", "public_transport": "station", "railway": "station", "station": "subway", "subway": "yes", "wikidata": "Q10951323", "wikipedia": "ca:Estaci\u00f3 de metro de Sant Isidre"}}, {"type": "node", "id": 100988397, "lat": 39.454408, "lon": -0.4073428}, {"type": "node", "id": 100988399, "lat": 39.4449613, "lon": -0.4089915}, {"type": "node", "id": 100999774, "lat": 39.4558086, "lon": -0.3967332, "tags": {"railway:atp": "yes"}}, {"type": "node", "id": 100999776, "lat": 39.4554663, "lon": -0.3973358, "tags": {"railway:atp": "yes"}}, {"type": "node", "id": 100999778, "lat": 39.4535733, "lon": -0.3996405, "tags": {"railway:atp": "yes"}}, {"type": "node", "id": 101000583, "lat": 39.4555888, "lon": -0.3971544, "tags": {"railway:atp": "yes"}}, {"type": "node", "id": 101001292, "lat": 39.455039, "lon": -0.3978542, "tags": {"layer": "-1", "name": "Safranar", "old_name": "Hospital", "public_transport": "stop_position", "railway": "stop", "railway:atp": "yes", "subway": "yes", "wheelchair": "limited"}}, {"type": "node", "id": 101003700, "lat": 39.4449216, "lon": -0.4083321}, {"type": "node", "id": 101003701, "lat": 39.4446281, "lon": -0.4017109}, {"type": "node", "id": 101003702, "lat": 39.4445639, "lon": -0.4012236}, {"type": "node", "id": 101003703, "lat": 39.4438998, "lon": -0.3985116}, {"type": "node", "id": 101003704, "lat": 39.4421374, "lon": -0.3943723}, {"type": "node", "id": 101003706, "lat": 39.4420072, "lon": -0.393989}, {"type": "node", "id": 116778024, "lat": 39.4412306, "lon": -0.3691652}, {"type": "node", "id": 246089378, "lat": 39.4534201, "lon": -0.402931, "tags": {"bus": "yes", "highway": "bus_stop", "name": "Arquitecte Segura de Lago - Dr. Rafael Bartual", "network": "EMT", "operator": "Empresa Municipal de Transportes de Valencia", "public_transport": "platform", "ref": "1937", "source": "www.emtvalencia.es"}}, {"type": "node", "id": 246089380, "lat": 39.452625, "lon": -0.4038548, "tags": {"bus": "yes", "highway": "bus_stop", "name": "Jos\u00e9 Andreu Alabarta - Mariano de Cavia", "network": "EMT", "operator": "Empresa Municipal de Transportes de Valencia", "public_transport": "platform", "ref": "524", "shelter": "yes", "source": "www.emtvalencia.es"}}, {"type": "node", "id": 246089383, "lat": 39.4399522, "lon": -0.3889945, "tags": {"bench": "yes", "bus": "yes", "check_date:shelter": "2024-11-30", "highway": "bus_stop", "name": "Jos\u00e9 Soto Mic\u00f3 - Alcal\u00e0 de Xivert", "network": "EMT", "network:wikidata": "Q11007711", "operator": "Empresa Municipal de Transportes de Valencia", "public_transport": "platform", "ref": "580", "shelter": "yes", "source": "www.emtvalencia.es"}}, {"type": "node", "id": 246089384, "lat": 39.4436281, "lon": -0.3875266, "tags": {"bench": "no", "bin": "no", "bus": "yes", "highway": "bus_stop", "name": "Sant Vicent M\u00e0rtir (parell) - Arquebisbe Olaechea", "network": "EMT", "network:wikidata": "Q11007711", "operator": "Empresa Municipal de Transportes de Valencia", "public_transport": "platform", "ref": "579", "shelter": "no", "source": "www.emtvalencia.es"}}, {"type": "node", "id": 246089386, "lat": 39.4453169, "lon": -0.3868784, "tags": {"bench": "yes", "bin": "yes", "bus": "yes", "highway": "bus_stop", "name": "Sant Vicent M\u00e0rtir - Enginyer Josep Sirera", "network": "EMT", "network:wikidata": "Q11007711", "operator": "Empresa Municipal de Transportes de Valencia", "public_transport": "platform", "ref": "578", "shelter": "yes", "source": "www.emtvalencia.es"}}, {"type": "node", "id": 246089387, "lat": 39.4482304, "lon": -0.3858127, "tags": {"bench": "yes", "bus": "yes", "highway": "bus_stop", "name": "Creu Coberta", "network": "EMT", "network:wikidata": "Q11007711", "old_name": "Sant Vicent M\u00e0rtir - Primer de Maig", "operator": "Empresa Municipal de Transportes de Valencia", "public_transport": "platform", "ref": "577", "shelter": "yes", "source": "www.emtvalencia.es"}}, {"type": "node", "id": 246089388, "lat": 39.4527763, "lon": -0.3846825, "tags": {"bench": "yes", "bus": "yes", "check_date:shelter": "2024-11-30", "highway": "bus_stop", "name": "Sant Vicent M\u00e0rtir - Joaqu\u00edn Navarro", "network": "EMT", "network:wikidata": "Q11007711", "operator": "Empresa Municipal de Transportes de Valencia", "public_transport": "platform", "ref": "576", "shelter": "yes", "source": "www.emtvalencia.es"}}, {"type": "node", "id": 246089393, "lat": 39.4401253, "lon": -0.3887578, "tags": {"bench": "yes", "bin": "yes", "bus": "yes", "check_date:shelter": "2024-11-30", "highway": "bus_stop", "name": "Josep Soto Mic\u00f3 - S\u00edndic Mojol\u00ed", "network": "EMT", "network:wikidata": "Q11007711", "operator": "Empresa Municipal de Transportes de Valencia", "public_transport": "platform", "ref": "590", "shelter": "yes", "source": "www.emtvalencia.es"}}, {"type": "node", "id": 246089395, "lat": 39.4349375, "lon": -0.3908022, "tags": {"bench": "yes", "bin": "no", "bus": "yes", "check_date:shelter": "2023-10-23", "highway": "bus_stop", "name": "Real de Madrid - Concepci\u00f3n Arenal", "network": "EMT", "network:wikidata": "Q11007711", "operator": "Empresa Municipal de Transportes de Valencia", "public_transport": "platform", "ref": "589", "shelter": "yes", "source": "www.emtvalencia.es", "tactile_paving": "yes"}}, {"type": "node", "id": 246089396, "lat": 39.4338996, "lon": -0.391218, "tags": {"bench": "yes", "bin": "no", "bus": "yes", "highway": "bus_stop", "lit": "no", "name": "Real de Madrid - Hell\u00edn", "network": "EMT", "network:wikidata": "Q11007711", "operator": "Empresa Municipal de Transportes de Valencia", "public_transport": "platform", "ref": "588", "shelter": "yes", "source": "www.emtvalencia.es", "tactile_paving": "yes"}}, {"type": "node", "id": 246089399, "lat": 39.4273625, "lon": -0.3935265, "tags": {"bench": "yes", "bin": "yes", "bus": "yes", "highway": "bus_stop", "name": "la Torre", "name:ca": "la Torre", "network": "EMT", "old_name": "Manuel Iranzo - Real de Madrid", "operator": "Empresa Municipal de Transportes de Valencia", "public_transport": "platform", "ref": "586", "shelter": "yes", "source": "www.emtvalencia.es"}}, {"type": "node", "id": 246089400, "lat": 39.4300367, "lon": -0.3928824, "tags": {"bench": "no", "bin": "no", "bus": "yes", "highway": "bus_stop", "name": "Real de Madrid (parell) - Eduardo Dato", "network": "EMT", "network:wikidata": "Q11007711", "operator": "Empresa Municipal de Transportes de Valencia", "public_transport": "platform", "ref": "583", "shelter": "no", "source": "www.emtvalencia.es", "tactile_paving": "yes"}}, {"type": "node", "id": 246089401, "lat": 39.4332699, "lon": -0.3915938, "tags": {"bench": "no", "bin": "no", "bus": "yes", "highway": "bus_stop", "name": "Real de Madrid - Algar del Pal\u00e0ncia", "network": "EMT", "network:wikidata": "Q11007711", "operator": "Empresa Municipal de Transportes de Valencia", "public_transport": "platform", "ref": "582", "shelter": "no", "source": "www.emtvalencia.es", "tactile_paving": "yes"}}, {"type": "node", "id": 246089403, "lat": 39.4348047, "lon": -0.3909914, "tags": {"bench": "no", "bin": "no", "bus": "yes", "check_date:shelter": "2023-10-23", "highway": "bus_stop", "name": "Real de Madrid - Carretera d'Alba", "network": "EMT", "network:wikidata": "Q11007711", "operator": "Empresa Municipal de Transportes de Valencia", "public_transport": "platform", "ref": "581", "shelter": "no", "source": "www.emtvalencia.es", "tactile_paving": "yes"}}, {"type": "node", "id": 246089414, "lat": 39.4525061, "lon": -0.3929101, "tags": {"bus": "yes", "highway": "bus_stop", "name": "Hospital Dr. Peset", "network": "EMT", "network:wikidata": "Q11007711", "old_name": "Gaspar Aguilar - M\u00fasic Penella", "operator": "Empresa Municipal de Transportes de Valencia", "public_transport": "platform", "ref": "1931", "shelter": "yes", "source": "www.emtvalencia.es"}}, {"type": "node", "id": 246089417, "lat": 39.4480624, "lon": -0.3962233, "tags": {"bus": "yes", "highway": "bus_stop", "name": "Cementeri", "network": "EMT", "old_name": "Sant Dom\u00e9nec de Guzm\u00e1n - Cementeri", "operator": "Empresa Municipal de Transportes de Valencia", "public_transport": "platform", "ref": "564", "source": "www.emtvalencia.es"}}, {"type": "node", "id": 246089419, "lat": 39.4503, "lon": -0.3943671, "tags": {"bus": "yes", "highway": "bus_stop", "name": "Gaspar Aguilar (imparell) - Dr. Tom\u00e0s Sala", "network": "EMT", "network:wikidata": "Q11007711", "operator": "Empresa Municipal de Transportes de Valencia", "public_transport": "platform", "ref": "1930", "shelter": "yes", "source": "www.emtvalencia.es"}}, {"type": "node", "id": 246089421, "lat": 39.4491109, "lon": -0.395418, "tags": {"bench": "yes", "bin": "yes", "bus": "yes", "highway": "bus_stop", "lit": "yes", "name": "Crematori Municipal", "network": "EMT", "old_name": "Gaspar Aguilar - Crematorio", "operator": "Empresa Municipal de Transportes de Valencia", "public_transport": "platform", "ref": "563", "shelter": "yes", "source": "www.emtvalencia.es", "tactile_paving": "no"}}, {"type": "node", "id": 246089426, "lat": 39.4470078, "lon": -0.3801115, "tags": {"bench": "no", "bin": "yes", "bus": "yes", "highway": "bus_stop", "lit": "yes", "name": "Malilla (parell) - Illa Formentera", "network": "EMT", "operator": "Empresa Municipal de Transportes de Valencia", "public_transport": "platform", "ref": "612", "shelter": "no", "source": "www.emtvalencia.es", "tactile_paving": "no"}}, {"type": "node", "id": 246089433, "lat": 39.4488478, "lon": -0.379659, "tags": {"bench": "yes", "bin": "no", "bus": "yes", "check_date:shelter": "2022-09-23", "highway": "bus_stop", "lit": "yes", "name": "Malilla (parell) - Illa Cabrera", "network": "EMT", "operator": "Empresa Municipal de Transportes de Valencia", "public_transport": "platform", "ref": "611", "shelter": "yes", "source": "www.emtvalencia.es", "tactile_paving": "no"}}, {"type": "node", "id": 246089434, "lat": 39.4525193, "lon": -0.3787509, "tags": {"bus": "yes", "highway": "bus_stop", "name": "Malilla - Olt\u00e0", "network": "EMT", "operator": "Empresa Municipal de Transportes de Valencia", "public_transport": "platform", "ref": "610", "shelter": "yes", "source": "www.emtvalencia.es"}}, {"type": "node", "id": 246089438, "lat": 39.4516773, "lon": -0.370747, "tags": {"bus": "yes", "highway": "bus_stop", "name": "Fonteta Sant Llu\u00eds - Alg\u00edmia d'Alfara", "network": "EMT", "operator": "Empresa Municipal de Transportes de Valencia", "public_transport": "platform", "ref": "628", "source": "www.emtvalencia.es"}}, {"type": "node", "id": 246089440, "lat": 39.4538274, "lon": -0.3715989, "tags": {"bench": "yes", "bus": "yes", "highway": "bus_stop", "name": "Fonteta Sant Llu\u00eds - B\u00e8rnia", "network": "EMT", "operator": "Empresa Municipal de Transportes de Valencia", "public_transport": "platform", "ref": "627", "shelter": "yes", "source": "www.emtvalencia.es"}}, {"type": "node", "id": 246089441, "lat": 39.4523029, "lon": -0.3756642, "tags": {"bench": "yes", "bus": "yes", "highway": "bus_stop", "lit": "yes", "name": "Joaquin Benlloch - Olt\u00e0", "network": "EMT", "operator": "Empresa Municipal de Transportes de Valencia", "public_transport": "platform", "ref": "621", "shelter": "yes", "source": "www.emtvalencia.es", "tactile_paving": "no"}}, {"type": "node", "id": 246089442, "lat": 39.4497363, "lon": -0.3738255, "tags": {"bus": "yes", "highway": "bus_stop", "name": "Joaqu\u00edn Benlloch - Illa Cabrera", "network": "EMT", "operator": "Empresa Municipal de Transportes de Valencia", "public_transport": "platform", "ref": "620", "shelter": "yes", "source": "www.emtvalencia.es"}}, {"type": "node", "id": 246089451, "lat": 39.4436634, "lon": -0.3873519, "tags": {"bench": "no", "bus": "yes", "highway": "bus_stop", "name": "Sant Vicent M\u00e0rtir (imparell) - Arquebisbe Olaechea", "network": "EMT", "network:wikidata": "Q11007711", "operator": "Empresa Municipal de Transportes de Valencia", "public_transport": "platform", "ref": "591", "shelter": "yes", "source": "www.emtvalencia.es"}}, {"type": "node", "id": 246089452, "lat": 39.4472639, "lon": -0.3859497, "tags": {"bench": "yes", "bin": "no", "bus": "yes", "highway": "bus_stop", "name": "Creu Coberta", "network": "EMT", "network:wikidata": "Q11007711", "old_name": "Sant Vicent M\u00e0rtir - Rambleta", "operator": "Empresa Municipal de Transportes de Valencia", "public_transport": "platform", "ref": "592", "shelter": "yes", "source": "www.emtvalencia.es", "tactile_paving": "no"}}, {"type": "node", "id": 246089454, "lat": 39.4491457, "lon": -0.3852835, "tags": {"bench": "no", "bin": "no", "bus": "yes", "highway": "bus_stop", "name": "Sant Vicent M\u00e0rtir - Altamira", "network": "EMT", "network:wikidata": "Q11007711", "operator": "Empresa Municipal de Transportes de Valencia", "public_transport": "platform", "ref": "593", "shelter": "no", "source": "www.emtvalencia.es"}}, {"type": "node", "id": 246089486, "lat": 39.4510852, "lon": -0.3685427, "tags": {"bus": "yes", "highway": "bus_stop", "name": "Germans Maristes (parell) - Fonteta Sant Llu\u00eds", "network": "EMT", "operator": "Empresa Municipal de Transportes de Valencia", "public_transport": "platform", "ref": "652", "shelter": "yes", "source": "www.emtvalencia.es"}}, {"type": "node", "id": 246089493, "lat": 39.4516336, "lon": -0.3717198, "tags": {"bus": "yes", "highway": "bus_stop", "name": "Ausi\u00e0s March - Alg\u00edmia d'Alfara", "network": "EMT", "operator": "Empresa Municipal de Transportes de Valencia", "public_transport": "platform", "ref": "638", "shelter": "yes", "source": "www.emtvalencia.es"}}, {"type": "node", "id": 246089499, "lat": 39.4417963, "lon": -0.368499, "tags": {"bus": "yes", "highway": "bus_stop", "name": "Fonteta de Sant Llu\u00eds", "network": "EMT", "old_name": "M\u00fasic Cuesta - Pare Presentant", "operator": "Empresa Municipal de Transportes de Valencia", "public_transport": "platform", "ref": "1940", "source": "www.emtvalencia.es"}}, {"type": "node", "id": 246089501, "lat": 39.4441902, "lon": -0.3677678, "tags": {"bus": "yes", "highway": "bus_stop", "name": "Gravador Jord\u00e1n - Alabau i Arce", "network": "EMT", "operator": "Empresa Municipal de Transportes de Valencia", "public_transport": "platform", "ref": "632", "source": "www.emtvalencia.es"}}, {"type": "node", "id": 246089502, "lat": 39.4458428, "lon": -0.3671105, "tags": {"bus": "yes", "highway": "bus_stop", "name": "Fonteta Sant Llu\u00eds - Riu Sec", "network": "EMT", "operator": "Empresa Municipal de Transportes de Valencia", "public_transport": "platform", "ref": "631", "source": "www.emtvalencia.es"}}, {"type": "node", "id": 246089503, "lat": 39.4502916, "lon": -0.3697966, "tags": {"bus": "yes", "highway": "bus_stop", "name": "Fonteta Sant Llu\u00eds - Ebenista Caselles", "network": "EMT", "operator": "Empresa Municipal de Transportes de Valencia", "public_transport": "platform", "ref": "630", "shelter": "yes", "source": "www.emtvalencia.es"}}, {"type": "node", "id": 246089505, "lat": 39.4502996, "lon": -0.3696508, "tags": {"bus": "yes", "highway": "bus_stop", "name": "Fonteta Sant Llu\u00eds - Germans Maristes", "network": "EMT", "operator": "Empresa Municipal de Transportes de Valencia", "public_transport": "platform", "ref": "637", "shelter": "yes", "source": "www.emtvalencia.es"}}, {"type": "node", "id": 246089506, "lat": 39.4485188, "lon": -0.3683829, "tags": {"bus": "yes", "highway": "bus_stop", "name": "Fonteta Sant Llu\u00eds (imparell) - \u00c0ngel Villena", "network": "EMT", "operator": "Empresa Municipal de Transportes de Valencia", "public_transport": "platform", "ref": "636", "shelter": "yes", "source": "www.emtvalencia.es"}}, {"type": "node", "id": 246089507, "lat": 39.4461457, "lon": -0.3669871, "tags": {"bus": "yes", "highway": "bus_stop", "name": "Gravador Jord\u00e1n - Riu Sec", "network": "EMT", "operator": "Empresa Municipal de Transportes de Valencia", "public_transport": "platform", "ref": "635", "shelter": "yes", "source": "www.emtvalencia.es"}}, {"type": "node", "id": 246089509, "lat": 39.4443194, "lon": -0.3675166, "tags": {"bench": "yes", "bin": "yes", "bus": "yes", "highway": "bus_stop", "lit": "yes", "name": "Gravador Jord\u00e1n - Escultor Pastor", "network": "EMT", "operator": "Empresa Municipal de Transportes de Valencia", "public_transport": "platform", "ref": "634", "shelter": "yes", "source": "www.emtvalencia.es", "tactile_paving": "no"}}, {"type": "node", "id": 246089642, "lat": 39.4484719, "lon": -0.3685272, "tags": {"bus": "yes", "highway": "bus_stop", "name": "Fonteta Sant Llu\u00eds (parell) - \u00c0ngel Villena", "network": "EMT", "operator": "Empresa Municipal de Transportes de Valencia", "public_transport": "platform", "ref": "882", "source": "www.emtvalencia.es"}}, {"type": "node", "id": 246089781, "lat": 39.4526762, "lon": -0.3886835, "tags": {"bench": "yes", "bus": "yes", "check_date:shelter": "2024-11-02", "highway": "bus_stop", "name": "Carters - Llanera de Ranes", "network": "EMT", "operator": "Empresa Municipal de Transportes de Valencia", "public_transport": "platform", "ref": "974", "shelter": "yes", "source": "www.emtvalencia.es"}}, {"type": "node", "id": 246089783, "lat": 39.4500762, "lon": -0.3892651, "tags": {"bench": "yes", "bus": "yes", "highway": "bus_stop", "name": "Carters - Calvo Acacio", "network": "EMT", "operator": "Empresa Municipal de Transportes de Valencia", "public_transport": "platform", "ref": "975", "shelter": "yes", "source": "www.emtvalencia.es", "tactile_paving": "yes"}}, {"type": "node", "id": 246089784, "lat": 39.4480792, "lon": -0.3895492, "tags": {"bench": "yes", "bus": "yes", "highway": "bus_stop", "name": "Carters (imparell) - Primer de Maig", "network": "EMT", "operator": "Empresa Municipal de Transportes de Valencia", "public_transport": "platform", "ref": "976", "shelter": "yes", "source": "www.emtvalencia.es", "tactile_paving": "no"}}, {"type": "node", "id": 246089785, "lat": 39.4482031, "lon": -0.3896677, "tags": {"bench": "yes", "bus": "yes", "highway": "bus_stop", "name": "Carters (parell) - Primer de Maig", "network": "EMT", "operator": "Empresa Municipal de Transportes de Valencia", "public_transport": "platform", "ref": "978", "shelter": "yes", "source": "www.emtvalencia.es", "tactile_paving": "no"}}, {"type": "node", "id": 246089787, "lat": 39.4503078, "lon": -0.389064, "tags": {"bench": "yes", "bus": "yes", "highway": "bus_stop", "name": "Carters - Moss\u00e9n Febrer", "network": "EMT", "operator": "Empresa Municipal de Transportes de Valencia", "public_transport": "platform", "ref": "979", "shelter": "yes", "source": "www.emtvalencia.es", "tactile_paving": "no"}}, {"type": "node", "id": 246089836, "lat": 39.4425077, "lon": -0.3681618, "tags": {"bus": "yes", "highway": "bus_stop", "name": "Centre de Salut Fonteta", "network": "EMT", "old_name": "Gravador Jord\u00e1n - M\u00fasic Cuesta", "operator": "Empresa Municipal de Transportes de Valencia", "public_transport": "platform", "ref": "1143", "source": "www.emtvalencia.es"}}, {"type": "node", "id": 246089839, "lat": 39.4516243, "lon": -0.3678797, "tags": {"bus": "yes", "highway": "bus_stop", "name": "Germans Maristes (imparell) - Fonteta Sant Llu\u00eds", "network": "EMT", "operator": "Empresa Municipal de Transportes de Valencia", "public_transport": "platform", "ref": "1141", "shelter": "yes", "source": "www.emtvalencia.es"}}, {"type": "node", "id": 246089879, "lat": 39.450481, "lon": -0.3792545, "tags": {"bus": "yes", "highway": "bus_stop", "name": "Malilla (parell) - Bernat Descoll", "network": "EMT", "operator": "Empresa Municipal de Transportes de Valencia", "public_transport": "platform", "ref": "1091", "shelter": "yes", "source": "www.emtvalencia.es"}}, {"type": "node", "id": 246090012, "lat": 39.4517865, "lon": -0.3745133, "tags": {"bus": "yes", "highway": "bus_stop", "name": "Poliesportiu Malilla", "network": "EMT", "old_name": "Bernat Descoll - Joaqu\u00edn Benlloch", "operator": "Empresa Municipal de Transportes de Valencia", "public_transport": "platform", "ref": "1354", "source": "www.emtvalencia.es"}}, {"type": "node", "id": 246090013, "lat": 39.4533058, "lon": -0.3738078, "tags": {"bench": "yes", "bus": "yes", "highway": "bus_stop", "lit": "yes", "name": "Olt\u00e0 - Ausi\u00e0s March", "network": "EMT", "operator": "Empresa Municipal de Transportes de Valencia", "public_transport": "platform", "ref": "1355", "shelter": "yes", "source": "www.emtvalencia.es", "tactile_paving": "no"}}, {"type": "node", "id": 246090014, "lat": 39.4529435, "lon": -0.371781, "tags": {"bus": "yes", "highway": "bus_stop", "name": "la Plata - Fonteta Sant Llu\u00eds", "network": "EMT", "network:wikidata": "Q11007711", "operator": "Empresa Municipal de Transportes de Valencia", "public_transport": "platform", "ref": "1356", "shelter": "yes", "source": "www.emtvalencia.es"}}, {"type": "node", "id": 246090017, "lat": 39.4509579, "lon": -0.3850526, "tags": {"bench": "yes", "bin": "no", "bus": "yes", "check_date:shelter": "2024-04-13", "highway": "bus_stop", "name": "Sant Vicent M\u00e0rtir - Moss\u00e9n Febrer", "network": "EMT", "network:wikidata": "Q11007711", "operator": "Empresa Municipal de Transportes de Valencia", "public_transport": "platform", "ref": "1349", "shelter": "yes", "source": "www.emtvalencia.es", "tactile_paving": "no"}}, {"type": "node", "id": 246090018, "lat": 39.4529925, "lon": -0.3844684, "tags": {"bench": "no", "bin": "no", "bus": "yes", "highway": "bus_stop", "name": "Sant Vicent M\u00e0rtir - Almudaina", "network": "EMT", "network:wikidata": "Q11007711", "operator": "Empresa Municipal de Transportes de Valencia", "public_transport": "platform", "ref": "1350", "shelter": "no", "source": "www.emtvalencia.es"}}, {"type": "node", "id": 246090021, "lat": 39.4532329, "lon": -0.3718125, "tags": {"bench": "yes", "bus": "yes", "highway": "bus_stop", "kerb": "raised", "kerb:approach_aid": "no", "lit": "yes", "name": "la Plata - Ausi\u00e0s March", "network": "EMT", "operator": "Empresa Municipal de Transportes de Valencia", "passenger_information_display": "yes", "passenger_information_display:speech_output": "no", "public_transport": "platform", "ref": "1353", "shelter": "yes", "source": "www.emtvalencia.es", "tactile_paving": "no"}}, {"type": "node", "id": 246090104, "lat": 39.4467289, "lon": -0.3799709, "tags": {"bench": "yes", "bus": "yes", "highway": "bus_stop", "name": "Malilla (imparell) - Illa Formentera", "network": "EMT", "operator": "Empresa Municipal de Transportes de Valencia", "public_transport": "platform", "ref": "1463", "shelter": "yes", "source": "www.emtvalencia.es"}}, {"type": "node", "id": 246090106, "lat": 39.4494016, "lon": -0.3793676, "tags": {"bench": "yes", "bus": "yes", "check_date:shelter": "2022-09-23", "covered": "yes", "highway": "bus_stop", "name": "Malilla (imparell) - Illa Cabrera", "network": "EMT", "network:wikidata": "Q11007711", "operator": "Empresa Municipal de Transportes de Valencia", "public_transport": "platform", "ref": "1464", "shelter": "yes", "source": "www.emtvalencia.es"}}, {"type": "node", "id": 246090107, "lat": 39.4509303, "lon": -0.3789382, "tags": {"bench": "yes", "bin": "no", "bus": "yes", "check_date:shelter": "2022-09-23", "highway": "bus_stop", "lit": "yes", "name": "Malilla (imparell) - Bernat Descoll", "network": "EMT", "operator": "Empresa Municipal de Transportes de Valencia", "public_transport": "platform", "ref": "1465", "shelter": "yes", "source": "www.emtvalencia.es", "tactile_paving": "yes"}}, {"type": "node", "id": 246090111, "lat": 39.4432682, "lon": -0.3937927, "tags": {"bench": "yes", "bus": "yes", "check_date:shelter": "2024-11-21", "highway": "bus_stop", "name": "Pius IX - Salvador Perles", "network": "EMT", "operator": "Empresa Municipal de Transportes de Valencia", "public_transport": "platform", "ref": "1472", "shelter": "yes", "source": "www.emtvalencia.es"}}, {"type": "node", "id": 246090112, "lat": 39.4451872, "lon": -0.3930478, "tags": {"bus": "yes", "highway": "bus_stop", "name": "Pius IX - Cabanilles", "network": "EMT", "operator": "Empresa Municipal de Transportes de Valencia", "public_transport": "platform", "ref": "1473", "shelter": "yes", "source": "www.emtvalencia.es"}}, {"type": "node", "id": 246090114, "lat": 39.445772, "lon": -0.3968279, "tags": {"bus": "yes", "highway": "bus_stop", "name": "Acc\u00e9s Cementeri", "network": "EMT", "old_name": "Cam\u00ed vell Picassent - Acc. Cementeri", "operator": "Empresa Municipal de Transportes de Valencia", "public_transport": "platform", "ref": "1474", "source": "www.emtvalencia.es"}}, {"type": "node", "id": 246090115, "lat": 39.4430082, "lon": -0.3979964, "tags": {"bench": "yes", "bin": "yes", "bus": "yes", "highway": "bus_stop", "name": "Tanatori Municipal", "network": "EMT", "old_name": "Cam\u00ed vell Picassent - Tanatori Municipal", "operator": "Empresa Municipal de Transportes de Valencia", "public_transport": "platform", "ref": "1475", "shelter": "yes", "source": "www.emtvalencia.es"}}, {"type": "node", "id": 246090130, "lat": 39.4463791, "lon": -0.3870008, "tags": {"bus": "yes", "highway": "bus_stop", "name": "Dr. Tom\u00e0s Sala (parell) - Sant Vicent M\u00e0rtir", "network": "EMT", "network:wikidata": "Q11007711", "operator": "Empresa Municipal de Transportes de Valencia", "public_transport": "platform", "ref": "1441", "source": "www.emtvalencia.es"}}, {"type": "node", "id": 246090131, "lat": 39.4472745, "lon": -0.3909949, "tags": {"bench": "yes", "bin": "no", "bus": "yes", "highway": "bus_stop", "name": "Sant Marcel\u00b7l\u00ed", "name:ca": "Sant Marcel\u00b7l\u00ed", "network": "EMT", "network:wikidata": "Q11007711", "old_name": "Dr. Tom\u00e0s Sala - Sant Marcel\u00b7l\u00ed", "operator": "Empresa Municipal de Transportes de Valencia", "public_transport": "platform", "ref": "1440", "shelter": "yes", "source": "www.emtvalencia.es", "tactile_paving": "yes"}}, {"type": "node", "id": 246090132, "lat": 39.4492018, "lon": -0.3944817, "tags": {"bench": "yes", "bin": "yes", "bus": "yes", "highway": "bus_stop", "lit": "no", "name": "Dr. Tom\u00e0s Sala - Gaspar Aguilar", "network": "EMT", "network:wikidata": "Q11007711", "operator": "Empresa Municipal de Transportes de Valencia", "public_transport": "platform", "ref": "1438", "shelter": "yes", "source": "www.emtvalencia.es", "tactile_paving": "no"}}, {"type": "node", "id": 246090136, "lat": 39.4489536, "lon": -0.3934382, "tags": {"bus": "yes", "highway": "bus_stop", "name": "Dr. Tom\u00e0s Sala - Jer\u00f3nima Gal\u00e9s", "network": "EMT", "network:wikidata": "Q11007711", "operator": "Empresa Municipal de Transportes de Valencia", "public_transport": "platform", "ref": "1444", "shelter": "yes", "source": "www.emtvalencia.es"}}, {"type": "node", "id": 246090137, "lat": 39.4476011, "lon": -0.3904416, "tags": {"bench": "yes", "bin": "no", "bus": "yes", "check_date:shelter": "2024-09-07", "highway": "bus_stop", "lit": "no", "name": "Dr. Tom\u00e0s Sala - Carters", "network": "EMT", "operator": "Empresa Municipal de Transportes de Valencia", "public_transport": "platform", "ref": "1443", "shelter": "yes", "source": "www.emtvalencia.es", "tactile_paving": "no"}}, {"type": "node", "id": 246090139, "lat": 39.4468052, "lon": -0.3870783, "tags": {"bus": "yes", "highway": "bus_stop", "name": "Dr. Tom\u00e0s Sala (imparell) - Sant Vicent M\u00e0rtir", "network": "EMT", "network:wikidata": "Q11007711", "operator": "Empresa Municipal de Transportes de Valencia", "public_transport": "platform", "ref": "1442", "shelter": "yes", "source": "www.emtvalencia.es"}}, {"type": "node", "id": 246090147, "lat": 39.4304252, "lon": -0.3925609, "tags": {"bench": "yes", "bus": "yes", "highway": "bus_stop", "name": "Real de Madrid - Entrada Pinet", "network": "EMT", "network:wikidata": "Q11007711", "operator": "Empresa Municipal de Transportes de Valencia", "public_transport": "platform", "ref": "1413", "shelter": "yes", "source": "www.emtvalencia.es"}}, {"type": "node", "id": 246090255, "lat": 39.4522543, "lon": -0.3932832, "tags": {"bench": "yes", "bus": "yes", "highway": "bus_stop", "name": "Hospital Dr. Peset", "network": "EMT", "network:wikidata": "Q11007711", "old_name": "Gaspar Aguilar - Hospital Peset", "operator": "Empresa Municipal de Transportes de Valencia", "public_transport": "platform", "ref": "1733", "shelter": "yes", "source": "www.emtvalencia.es"}}, {"type": "node", "id": 252986275, "lat": 39.4408617, "lon": -0.3857349}, {"type": "node", "id": 252986279, "lat": 39.4341883, "lon": -0.3878622}, {"type": "node", "id": 252986280, "lat": 39.4324248, "lon": -0.3884651}, {"type": "node", "id": 252986284, "lat": 39.4276354, "lon": -0.3905825}, {"type": "node", "id": 252986285, "lat": 39.4272091, "lon": -0.3907752}, {"type": "node", "id": 252986286, "lat": 39.4244322, "lon": -0.3920019}, {"type": "node", "id": 252986287, "lat": 39.4233072, "lon": -0.3924797}, {"type": "node", "id": 252986288, "lat": 39.4222314, "lon": -0.3928124}, {"type": "node", "id": 252986289, "lat": 39.4212978, "lon": -0.3929504}, {"type": "node", "id": 252986290, "lat": 39.4195958, "lon": -0.3931062}, {"type": "node", "id": 252986291, "lat": 39.4180538, "lon": -0.3931398}, {"type": "node", "id": 252986292, "lat": 39.4170886, "lon": -0.3931663}, {"type": "node", "id": 252986293, "lat": 39.4153524, "lon": -0.3933291}, {"type": "node", "id": 252986294, "lat": 39.4138376, "lon": -0.3936034}, {"type": "node", "id": 252986295, "lat": 39.4121683, "lon": -0.3940458}, {"type": "node", "id": 252986296, "lat": 39.4111811, "lon": -0.3943856}, {"type": "node", "id": 252986297, "lat": 39.4095917, "lon": -0.3950351}, {"type": "node", "id": 252986298, "lat": 39.4078232, "lon": -0.3957791}, {"type": "node", "id": 252986299, "lat": 39.4066123, "lon": -0.3962914}, {"type": "node", "id": 252986300, "lat": 39.4054359, "lon": -0.3967894}, {"type": "node", "id": 253110933, "lat": 39.4428889, "lon": -0.4089387}, {"type": "node", "id": 253110938, "lat": 39.4375869, "lon": -0.4130548}, {"type": "node", "id": 253110959, "lat": 39.4414699, "lon": -0.4110292, "tags": {"railway": "buffer_stop"}}, {"type": "node", "id": 253110960, "lat": 39.4421281, "lon": -0.4105224}, {"type": "node", "id": 253110961, "lat": 39.4424279, "lon": -0.4102259}, {"type": "node", "id": 253110962, "lat": 39.4429724, "lon": -0.4092723}, {"type": "node", "id": 253110964, "lat": 39.4415816, "lon": -0.4112699, "tags": {"railway": "buffer_stop"}}, {"type": "node", "id": 253110965, "lat": 39.4422383, "lon": -0.4107545}, {"type": "node", "id": 253110966, "lat": 39.4425698, "lon": -0.4104071}, {"type": "node", "id": 253110967, "lat": 39.4427228, "lon": -0.4100278}, {"type": "node", "id": 253110968, "lat": 39.4419357, "lon": -0.4120101, "tags": {"railway": "buffer_stop"}}, {"type": "node", "id": 253110970, "lat": 39.442896, "lon": -0.411088}, {"type": "node", "id": 253110971, "lat": 39.4429854, "lon": -0.4105861}, {"type": "node", "id": 253110972, "lat": 39.4429144, "lon": -0.410108}, {"type": "node", "id": 253110973, "lat": 39.4429803, "lon": -0.409309}, {"type": "node", "id": 253110974, "lat": 39.4417532, "lon": -0.411615, "tags": {"railway": "buffer_stop"}}, {"type": "node", "id": 253110976, "lat": 39.4427003, "lon": -0.4107775}, {"type": "node", "id": 253110977, "lat": 39.4428262, "lon": -0.4103329}, {"type": "node", "id": 253110978, "lat": 39.4430629, "lon": -0.4101337}, {"type": "node", "id": 253110979, "lat": 39.4433478, "lon": -0.4107355, "tags": {"railway": "buffer_stop"}}, {"type": "node", "id": 255434358, "lat": 39.4415229, "lon": -0.3700023}, {"type": "node", "id": 255434360, "lat": 39.4414435, "lon": -0.3700154}, {"type": "node", "id": 255434361, "lat": 39.4414214, "lon": -0.3697907}, {"type": "node", "id": 255434362, "lat": 39.4415008, "lon": -0.3697775}, {"type": "node", "id": 255749716, "lat": 39.4361288, "lon": -0.3872473}, {"type": "node", "id": 255749718, "lat": 39.4382319, "lon": -0.3865816}, {"type": "node", "id": 320356523, "lat": 39.409274, "lon": -0.3951689, "tags": {"name": "Massanassa", "name:ca": "Massanassa", "public_transport": "stop_position", "railway": "stop", "train": "yes"}}, {"type": "node", "id": 357913570, "lat": 39.4564794, "lon": -0.3904023, "tags": {"layer": "-1", "name": "Patraix", "name:ca": "Patraix", "public_transport": "stop_position", "railway": "stop", "railway:atp": "yes", "subway": "yes"}}, {"type": "node", "id": 357913579, "lat": 39.4561326, "lon": -0.3957206, "tags": {"railway:atp": "yes"}}, {"type": "node", "id": 357913581, "lat": 39.4563119, "lon": -0.393434, "tags": {"railway:atp": "yes"}}, {"type": "node", "id": 357913584, "lat": 39.4564504, "lon": -0.3908175, "tags": {"railway:atp": "yes"}}, {"type": "node", "id": 357913585, "lat": 39.4565252, "lon": -0.3895541, "tags": {"railway:atp": "yes"}}, {"type": "node", "id": 500142793, "lat": 39.4544597, "lon": -0.3811093}, {"type": "node", "id": 513677327, "lat": 39.4261389, "lon": -0.3912466, "tags": {"crossing:barrier": "half", "crossing:light": "yes", "railway": "level_crossing"}}, {"type": "node", "id": 560984869, "lat": 39.4358532, "lon": -0.4144037}, {"type": "node", "id": 752225864, "lat": 39.4521142, "lon": -0.3728044, "tags": {"bench": "no", "bus": "yes", "highway": "bus_stop", "name": "Ausi\u00e0s March - Bernat Descoll", "network": "EMT", "network:wikidata": "Q11007711", "operator": "Empresa Municipal de Transportes de Valencia", "public_transport": "platform", "ref": "1821", "source": "www.emtvalencia.es"}}, {"type": "node", "id": 752225865, "lat": 39.450202, "lon": -0.371413, "tags": {"bench": "no", "bus": "yes", "highway": "bus_stop", "kerb": "raised", "kerb:approach_aid": "no", "lit": "yes", "name": "Ausi\u00e0s March - Na Rovella", "network": "EMT", "network:wikidata": "Q11007711", "operator": "Empresa Municipal de Transportes de Valencia", "passenger_information_display": "no", "public_transport": "platform", "ref": "1822", "shelter": "no", "source": "www.emtvalencia.es"}}, {"type": "node", "id": 769104050, "lat": 39.453644, "lon": -0.3763677, "tags": {"bench": "yes", "bin": "no", "bus": "yes", "highway": "bus_stop", "name": "Pedreguer - Juan Ram\u00f3n Jim\u00e9nez", "network": "EMT", "operator": "Empresa Municipal de Transportes de Valencia", "public_transport": "platform", "ref": "1820", "shelter": "yes", "source": "www.emtvalencia.es"}}, {"type": "node", "id": 1059244691, "lat": 39.4459293, "lon": -0.4150234, "tags": {"railway": "switch"}}, {"type": "node", "id": 1059244748, "lat": 39.4419719, "lon": -0.3940001}, {"type": "node", "id": 1059244799, "lat": 39.4449224, "lon": -0.4089951}, {"type": "node", "id": 1059244861, "lat": 39.4448836, "lon": -0.4083346}, {"type": "node", "id": 1059244915, "lat": 39.4445923, "lon": -0.4017188}, {"type": "node", "id": 1059244937, "lat": 39.4438659, "lon": -0.39853}, {"type": "node", "id": 1059245006, "lat": 39.444456, "lon": -0.4007674}, {"type": "node", "id": 1059245037, "lat": 39.4421061, "lon": -0.3943882}, {"type": "node", "id": 1059245081, "lat": 39.4458398, "lon": -0.4148097, "tags": {"railway": "switch"}}, {"type": "node", "id": 1065521756, "lat": 39.4412682, "lon": -0.3691814}, {"type": "node", "id": 1065521812, "lat": 39.4525199, "lon": -0.3820188}, {"type": "node", "id": 1065521821, "lat": 39.4544526, "lon": -0.3810667}, {"type": "node", "id": 1065521824, "lat": 39.4550334, "lon": -0.3808752}, {"type": "node", "id": 1065521826, "lat": 39.4554107, "lon": -0.3807807}, {"type": "node", "id": 1065521830, "lat": 39.4556627, "lon": -0.3807272}, {"type": "node", "id": 1065521833, "lat": 39.4559651, "lon": -0.3806665}, {"type": "node", "id": 1065521838, "lat": 39.4572137, "lon": -0.3803656}, {"type": "node", "id": 1065547732, "lat": 39.424953, "lon": -0.3917241}, {"type": "node", "id": 1065547741, "lat": 39.4271307, "lon": -0.3907589}, {"type": "node", "id": 1065547748, "lat": 39.427625, "lon": -0.3905397}, {"type": "node", "id": 1065547783, "lat": 39.4324112, "lon": -0.388425}, {"type": "node", "id": 1065547785, "lat": 39.4341799, "lon": -0.3878185}, {"type": "node", "id": 1065547793, "lat": 39.4361243, "lon": -0.3872027}, {"type": "node", "id": 1065547812, "lat": 39.4407401, "lon": -0.3857792}, {"type": "node", "id": 1065547832, "lat": 39.4397975, "lon": -0.386031}, {"type": "node", "id": 1065547863, "lat": 39.4382265, "lon": -0.3865389}, {"type": "node", "id": 1065547875, "lat": 39.4394513, "lon": -0.3861404}, {"type": "node", "id": 1065547880, "lat": 39.4407303, "lon": -0.3857353}, {"type": "node", "id": 1065551018, "lat": 39.4261315, "lon": -0.3912023, "tags": {"crossing:barrier": "half", "crossing:light": "yes", "railway": "level_crossing"}}, {"type": "node", "id": 1065600268, "lat": 39.4518088, "lon": -0.3828228}, {"type": "node", "id": 1065600269, "lat": 39.4524899, "lon": -0.3822508}, {"type": "node", "id": 1065600336, "lat": 39.4542502, "lon": -0.3813665}, {"type": "node", "id": 1065600345, "lat": 39.4550325, "lon": -0.3812651, "tags": {"railway": "switch"}}, {"type": "node", "id": 1065600414, "lat": 39.4534363, "lon": -0.3817039}, {"type": "node", "id": 1068131203, "lat": 39.4054218, "lon": -0.3967467}, {"type": "node", "id": 1068131206, "lat": 39.4065982, "lon": -0.3962507}, {"type": "node", "id": 1068131210, "lat": 39.4078044, "lon": -0.3957405}, {"type": "node", "id": 1068131211, "lat": 39.4092645, "lon": -0.3951264, "tags": {"name": "Massanassa", "name:ca": "Massanassa", "public_transport": "stop_position", "railway": "stop", "train": "yes"}}, {"type": "node", "id": 1068131213, "lat": 39.4095729, "lon": -0.3949965}, {"type": "node", "id": 1068131214, "lat": 39.4111852, "lon": -0.394336}, {"type": "node", "id": 1068131216, "lat": 39.4121573, "lon": -0.3940033}, {"type": "node", "id": 1068131217, "lat": 39.4138321, "lon": -0.3935592}, {"type": "node", "id": 1068131218, "lat": 39.415351, "lon": -0.3932849}, {"type": "node", "id": 1068131219, "lat": 39.4170831, "lon": -0.3931203}, {"type": "node", "id": 1068131220, "lat": 39.418308, "lon": -0.3930902}, {"type": "node", "id": 1068131222, "lat": 39.4190927, "lon": -0.3930796}, {"type": "node", "id": 1068131223, "lat": 39.4196013, "lon": -0.3930602}, {"type": "node", "id": 1068131225, "lat": 39.4212841, "lon": -0.392908}, {"type": "node", "id": 1068131226, "lat": 39.4222314, "lon": -0.3927664}, {"type": "node", "id": 1068131228, "lat": 39.4233455, "lon": -0.3924178}, {"type": "node", "id": 1068131230, "lat": 39.4241903, "lon": -0.3920621}, {"type": "node", "id": 1094112724, "lat": 39.4504617, "lon": -0.3944777, "tags": {"bus": "yes", "highway": "bus_stop", "name": "Gaspar Aguilar (parell) - Dr. Tom\u00e0s Sala", "network": "EMT", "network:wikidata": "Q11007711", "operator": "Empresa Municipal de Transportes de Valencia", "public_transport": "platform", "ref": "1929", "shelter": "yes", "source": "www.emtvalencia.es"}}, {"type": "node", "id": 1107585225, "lat": 39.4528827, "lon": -0.3885176, "tags": {"bench": "yes", "bin": "no", "bus": "yes", "check_date:shelter": "2024-11-02", "highway": "bus_stop", "lit": "yes", "name": "Carters - Pl. Santiago Su\u00e1rez", "network": "EMT", "operator": "Empresa Municipal de Transportes de Valencia", "public_transport": "platform", "ref": "1859", "shelter": "yes", "source": "www.emtvalencia.es", "tactile_paving": "yes"}}, {"type": "node", "id": 1113619511, "lat": 39.4449065, "lon": -0.3763062, "tags": {"bench": "yes", "bin": "no", "bus": "yes", "highway": "bus_stop", "lit": "yes", "name": "Hospital la Fe", "network": "EMT", "network:wikidata": "Q11007711", "old_name": "Bulevard Sud (par) - Hospital la Fe", "operator": "Empresa Municipal de Transportes de Valencia", "public_transport": "platform", "ref": "1946", "shelter": "yes", "source": "www.emtvalencia.es", "tactile_paving": "no"}}, {"type": "node", "id": 1113619518, "lat": 39.4458992, "lon": -0.3700808, "tags": {"bench": "yes", "bus": "yes", "highway": "bus_stop", "kerb": "raised", "kerb:approach_aid": "no", "lit": "yes", "name": "Rotonda dels Hams", "network": "EMT", "old_name": "Bulevard Sud (impar) - Juan Ram\u00f3n Jim\u00e9nez", "old_name:es": "Bulevar Sur (impar) - Juan Ram\u00f3n Jim\u00e9nez", "operator": "Empresa Municipal de Transportes de Valencia", "passenger_information_display": "yes", "passenger_information_display:speech_output": "no", "public_transport": "platform", "ref": "1947", "shelter": "yes", "source": "www.emtvalencia.es", "tactile_paving": "yes"}}, {"type": "node", "id": 1113619545, "lat": 39.4454497, "lon": -0.3772184, "tags": {"bench": "yes", "bin": "no", "bus": "yes", "highway": "bus_stop", "kerb": "raised", "kerb:approach_aid": "no", "lit": "yes", "name": "Hospital la Fe", "network": "EMT", "old_name": "Bulevard Sud (impar) - Hospital La Fe", "operator": "Empresa Municipal de Transportes de Valencia", "passenger_information_display": "yes", "passenger_information_display:speech_output": "no", "public_transport": "platform", "ref": "1964", "shelter": "yes", "source": "www.emtvalencia.es", "tactile_paving": "no"}}, {"type": "node", "id": 1113739317, "lat": 39.4544238, "lon": -0.4073048}, {"type": "node", "id": 1113739337, "lat": 39.4497952, "lon": -0.403976, "tags": {"railway": "switch"}}, {"type": "node", "id": 1123463278, "lat": 39.4404756, "lon": -0.3641607, "tags": {"railway": "switch"}}, {"type": "node", "id": 1123463296, "lat": 39.4406563, "lon": -0.3674173}, {"type": "node", "id": 1123463300, "lat": 39.4409183, "lon": -0.368254}, {"type": "node", "id": 1123463307, "lat": 39.4407922, "lon": -0.3673327}, {"type": "node", "id": 1123463309, "lat": 39.4414857, "lon": -0.3726308, "tags": {"railway": "switch"}}, {"type": "node", "id": 1123463327, "lat": 39.4416553, "lon": -0.373903, "tags": {"railway": "switch"}}, {"type": "node", "id": 1123463337, "lat": 39.4398139, "lon": -0.3654262}, {"type": "node", "id": 1123463346, "lat": 39.4416155, "lon": -0.3734697}, {"type": "node", "id": 1123463360, "lat": 39.4413245, "lon": -0.37167, "tags": {"railway": "switch"}}, {"type": "node", "id": 1123463371, "lat": 39.4404491, "lon": -0.3653252}, {"type": "node", "id": 1123463374, "lat": 39.4400154, "lon": -0.3675167}, {"type": "node", "id": 1123463387, "lat": 39.4412486, "lon": -0.3712159, "tags": {"railway": "switch"}}, {"type": "node", "id": 1123472292, "lat": 39.4407355, "lon": -0.3649924}, {"type": "node", "id": 1123472305, "lat": 39.4406444, "lon": -0.3639933, "tags": {"railway": "switch"}}, {"type": "node", "id": 1123472308, "lat": 39.4417142, "lon": -0.3796359, "tags": {"railway": "switch"}}, {"type": "node", "id": 1123472325, "lat": 39.4405982, "lon": -0.362612, "tags": {"railway": "switch"}}, {"type": "node", "id": 1123472336, "lat": 39.4418187, "lon": -0.3784048}, {"type": "node", "id": 1123472346, "lat": 39.4418686, "lon": -0.3761044, "tags": {"railway": "switch"}}, {"type": "node", "id": 1146459153, "lat": 39.42699, "lon": -0.3768027, "tags": {"bus": "yes", "highway": "bus_stop", "name": "la Murta (imparell) - Assagador la Torre", "network": "EMT", "network:wikidata": "Q11007711", "operator": "Empresa Municipal de Transportes de Valencia", "public_transport": "platform", "ref": "1770", "source": "www.emtvalencia.es"}}, {"type": "node", "id": 1146459251, "lat": 39.4321728, "lon": -0.3764528, "tags": {"bus": "yes", "highway": "bus_stop", "name": "Forn d'Alcedo", "network": "EMT", "network:wikidata": "Q11007711", "old_name": "Guadalquivir - Forn d'Alcedo", "operator": "Empresa Municipal de Transportes de Valencia", "public_transport": "platform", "ref": "585", "shelter": "yes", "source": "www.emtvalencia.es"}}, {"type": "node", "id": 1146459358, "lat": 39.4270296, "lon": -0.3769548, "tags": {"bus": "yes", "highway": "bus_stop", "name": "la Murta (parell) - Assagador la Torre", "network": "EMT", "network:wikidata": "Q11007711", "operator": "Empresa Municipal de Transportes de Valencia", "public_transport": "platform", "ref": "1771", "source": "www.emtvalencia.es"}}, {"type": "node", "id": 1146459364, "lat": 39.431117, "lon": -0.3771348, "tags": {"bus": "yes", "highway": "bus_stop", "name": "Karl Marx - Guadalquivir", "network": "EMT", "network:wikidata": "Q11007711", "operator": "Empresa Municipal de Transportes de Valencia", "public_transport": "platform", "ref": "906", "source": "www.emtvalencia.es"}}, {"type": "node", "id": 1146459413, "lat": 39.4251923, "lon": -0.3781638, "tags": {"bus": "yes", "highway": "bus_stop", "name": "la Murta (parell) - Cementeri", "network": "EMT", "operator": "Empresa Municipal de Transportes de Valencia", "public_transport": "platform", "ref": "1772", "source": "www.emtvalencia.es"}}, {"type": "node", "id": 1146459415, "lat": 39.4234041, "lon": -0.3703865, "tags": {"bus": "yes", "highway": "bus_stop", "name": "Cam\u00ed de les Vaques (parell)", "name:ca": "Cam\u00ed de les Vaques (parell)", "network": "EMT", "operator": "Empresa Municipal de Transportes de Valencia", "public_transport": "platform", "ref": "912", "source": "www.emtvalencia.es"}}, {"type": "node", "id": 1146459453, "lat": 39.4235262, "lon": -0.3703583, "tags": {"bus": "yes", "highway": "bus_stop", "name": "Cam\u00ed de les Vaques (imparell)", "network": "EMT", "operator": "Empresa Municipal de Transportes de Valencia", "public_transport": "platform", "ref": "911", "source": "www.emtvalencia.es"}}, {"type": "node", "id": 1146459495, "lat": 39.4251456, "lon": -0.3779978, "tags": {"bus": "yes", "highway": "bus_stop", "name": "la Murta (imparell) - Cementeri", "network": "EMT", "network:wikidata": "Q11007711", "operator": "Empresa Municipal de Transportes de Valencia", "public_transport": "platform", "ref": "1769", "source": "www.emtvalencia.es"}}, {"type": "node", "id": 1146459520, "lat": 39.4306616, "lon": -0.3768834, "tags": {"bus": "yes", "highway": "bus_stop", "name": "Guadalquivir - Karl Marx", "network": "EMT", "network:wikidata": "Q11007711", "operator": "Empresa Municipal de Transportes de Valencia", "public_transport": "platform", "ref": "907", "source": "www.emtvalencia.es"}}, {"type": "node", "id": 1336585114, "lat": 39.4419143, "lon": -0.3772788}, {"type": "node", "id": 1336585117, "lat": 39.441333, "lon": -0.374419}, {"type": "node", "id": 1336585123, "lat": 39.4415099, "lon": -0.3742064, "tags": {"railway": "buffer_stop"}}, {"type": "node", "id": 1336585139, "lat": 39.4417352, "lon": -0.3787389, "tags": {"railway": "switch"}}, {"type": "node", "id": 1336585152, "lat": 39.4415828, "lon": -0.3743431, "tags": {"railway": "buffer_stop"}}, {"type": "node", "id": 1336585163, "lat": 39.4412922, "lon": -0.3744249}, {"type": "node", "id": 1336585195, "lat": 39.4418736, "lon": -0.3780186}, {"type": "node", "id": 1336585200, "lat": 39.4413828, "lon": -0.3744279}, {"type": "node", "id": 1336585206, "lat": 39.4418956, "lon": -0.3778051}, {"type": "node", "id": 1336585216, "lat": 39.4414144, "lon": -0.3742163, "tags": {"railway": "buffer_stop"}}, {"type": "node", "id": 1336585232, "lat": 39.441781, "lon": -0.3787545}, {"type": "node", "id": 1336585242, "lat": 39.4419087, "lon": -0.3775691}, {"type": "node", "id": 1336585255, "lat": 39.4414627, "lon": -0.3742187, "tags": {"railway": "buffer_stop"}}, {"type": "node", "id": 1417354005, "lat": 39.4361197, "lon": -0.3871569}, {"type": "node", "id": 1417354007, "lat": 39.4382204, "lon": -0.3864901}, {"type": "node", "id": 1417354011, "lat": 39.4395274, "lon": -0.3860572}, {"type": "node", "id": 1417354013, "lat": 39.4398237, "lon": -0.3859278}, {"type": "node", "id": 1417354015, "lat": 39.4402983, "lon": -0.3856557}, {"type": "node", "id": 1417354016, "lat": 39.4406511, "lon": -0.3853591}, {"type": "node", "id": 1417354017, "lat": 39.4407825, "lon": -0.3852287}, {"type": "node", "id": 1417354018, "lat": 39.441173, "lon": -0.384705}, {"type": "node", "id": 1417354024, "lat": 39.4414038, "lon": -0.3842501}, {"type": "node", "id": 1417354027, "lat": 39.4414366, "lon": -0.3909516}, {"type": "node", "id": 1417354029, "lat": 39.4414425, "lon": -0.3915922}, {"type": "node", "id": 1417354030, "lat": 39.4414689, "lon": -0.3904046}, {"type": "node", "id": 1417354031, "lat": 39.4415331, "lon": -0.3839061}, {"type": "node", "id": 1417354032, "lat": 39.441548, "lon": -0.3898164}, {"type": "node", "id": 1417354033, "lat": 39.4415699, "lon": -0.3929242}, {"type": "node", "id": 1417354043, "lat": 39.4416321, "lon": -0.3809009}, {"type": "node", "id": 1417354045, "lat": 39.4416505, "lon": -0.3814638}, {"type": "node", "id": 1417354049, "lat": 39.4416693, "lon": -0.3833614}, {"type": "node", "id": 1417354050, "lat": 39.4416708, "lon": -0.3802104}, {"type": "node", "id": 1417354052, "lat": 39.4416802, "lon": -0.3891161}, {"type": "node", "id": 1417354055, "lat": 39.4417025, "lon": -0.3936278}, {"type": "node", "id": 1417354056, "lat": 39.4417301, "lon": -0.3828588}, {"type": "node", "id": 1417354057, "lat": 39.4417283, "lon": -0.3822451}, {"type": "node", "id": 1417354059, "lat": 39.4418546, "lon": -0.3939408}, {"type": "node", "id": 1417354060, "lat": 39.4417961, "lon": -0.3885697}, {"type": "node", "id": 1417354061, "lat": 39.4418886, "lon": -0.3939174}, {"type": "node", "id": 1417354062, "lat": 39.4419372, "lon": -0.3944751}, {"type": "node", "id": 1417354068, "lat": 39.4420077, "lon": -0.3944384}, {"type": "node", "id": 1417354072, "lat": 39.4420424, "lon": -0.3944251}, {"type": "node", "id": 1417354073, "lat": 39.442002, "lon": -0.3876427}, {"type": "node", "id": 1417354074, "lat": 39.4420846, "lon": -0.3946775}, {"type": "node", "id": 1417354075, "lat": 39.4421641, "lon": -0.3947922}, {"type": "node", "id": 1417354076, "lat": 39.4421187, "lon": -0.3867681}, {"type": "node", "id": 1417354080, "lat": 39.442233, "lon": -0.3954449}, {"type": "node", "id": 1417354082, "lat": 39.4422998, "lon": -0.385169}, {"type": "node", "id": 1417354084, "lat": 39.4423326, "lon": -0.382386}, {"type": "node", "id": 1417354085, "lat": 39.4424274, "lon": -0.395979}, {"type": "node", "id": 1417354091, "lat": 39.4424658, "lon": -0.3838598}, {"type": "node", "id": 1417354093, "lat": 39.4425209, "lon": -0.3954686}, {"type": "node", "id": 1417354094, "lat": 39.4425265, "lon": -0.3957744}, {"type": "node", "id": 1417354095, "lat": 39.4425501, "lon": -0.3954444}, {"type": "node", "id": 1417354104, "lat": 39.442558, "lon": -0.3830321}, {"type": "node", "id": 1417354105, "lat": 39.442659, "lon": -0.3964638}, {"type": "node", "id": 1417354112, "lat": 39.4427366, "lon": -0.3828208}, {"type": "node", "id": 1417354169, "lat": 39.4436361, "lon": -0.3982031}, {"type": "node", "id": 1417354170, "lat": 39.4435672, "lon": -0.3982456}, {"type": "node", "id": 1417354171, "lat": 39.4436674, "lon": -0.3981764}, {"type": "node", "id": 1417354172, "lat": 39.4437042, "lon": -0.398105}, {"type": "node", "id": 1417354175, "lat": 39.4437355, "lon": -0.3980863}, {"type": "node", "id": 1417354181, "lat": 39.4439291, "lon": -0.3991901}, {"type": "node", "id": 1417354193, "lat": 39.4440134, "lon": -0.3989635}, {"type": "node", "id": 1417354194, "lat": 39.4440493, "lon": -0.398946}, {"type": "node", "id": 1417354196, "lat": 39.4442401, "lon": -0.4002535}, {"type": "node", "id": 1417354199, "lat": 39.4443679, "lon": -0.4003076}, {"type": "node", "id": 1417354211, "lat": 39.4444055, "lon": -0.4002951}, {"type": "node", "id": 1417354212, "lat": 39.4444384, "lon": -0.4012067}, {"type": "node", "id": 1417354213, "lat": 39.4445194, "lon": -0.4017348}, {"type": "node", "id": 1417354221, "lat": 39.4448275, "lon": -0.4083383}, {"type": "node", "id": 1417354224, "lat": 39.4449346, "lon": -0.4096814}, {"type": "node", "id": 1417354232, "lat": 39.4452383, "lon": -0.411815}, {"type": "node", "id": 1417354233, "lat": 39.4450556, "lon": -0.4102201}, {"type": "node", "id": 1417354235, "lat": 39.4450927, "lon": -0.410215}, {"type": "node", "id": 1417354245, "lat": 39.4452305, "lon": -0.4114363}, {"type": "node", "id": 1417354247, "lat": 39.4452684, "lon": -0.4114292}, {"type": "node", "id": 1417354270, "lat": 39.4492055, "lon": -0.4035381}, {"type": "node", "id": 1417354272, "lat": 39.4490215, "lon": -0.4033332}, {"type": "node", "id": 1417354273, "lat": 39.449566, "lon": -0.4038031}, {"type": "node", "id": 1417354274, "lat": 39.4495881, "lon": -0.4037608}, {"type": "node", "id": 1417354276, "lat": 39.4489518, "lon": -0.383875}, {"type": "node", "id": 1417354277, "lat": 39.4502024, "lon": -0.3834807, "tags": {"railway": "switch"}}, {"type": "node", "id": 1417990526, "lat": 39.4277662, "lon": -0.3904307}, {"type": "node", "id": 1417990533, "lat": 39.4323969, "lon": -0.3883825}, {"type": "node", "id": 1417990534, "lat": 39.4327509, "lon": -0.3882443}, {"type": "node", "id": 1417990535, "lat": 39.4327626, "lon": -0.3882839}, {"type": "node", "id": 1417990536, "lat": 39.432774, "lon": -0.388326}, {"type": "node", "id": 1417990538, "lat": 39.4341716, "lon": -0.3877749}, {"type": "node", "id": 1417990540, "lat": 39.4343685, "lon": -0.387713}, {"type": "node", "id": 1417990542, "lat": 39.4343768, "lon": -0.3877561}, {"type": "node", "id": 1417990544, "lat": 39.4343851, "lon": -0.3877996}, {"type": "node", "id": 1542393640, "lat": 39.4511852, "lon": -0.4026593, "tags": {"bus": "yes", "highway": "bus_stop", "name": "Sant Isidre", "name:ca": "Sant Isidre", "network": "EMT", "old_name": "Campos Crespo - Arquitecte Segura de Lago", "operator": "Empresa Municipal de Transportes de Valencia", "public_transport": "platform", "ref": "1936", "shelter": "yes", "source": "www.emtvalencia.es"}}, {"type": "node", "id": 1574508253, "lat": 39.4420246, "lon": -0.4097996}, {"type": "node", "id": 1574508254, "lat": 39.4388875, "lon": -0.4122564}, {"type": "node", "id": 1574508258, "lat": 39.448985, "lon": -0.4046514, "tags": {"railway:atp": "yes"}}, {"type": "node", "id": 1574508262, "lat": 39.4364394, "lon": -0.4139522}, {"type": "node", "id": 1574508265, "lat": 39.4384392, "lon": -0.4126021}, {"type": "node", "id": 1574508268, "lat": 39.4366862, "lon": -0.4137948}, {"type": "node", "id": 1574508300, "lat": 39.4480564, "lon": -0.4054356}, {"type": "node", "id": 1574508302, "lat": 39.4418995, "lon": -0.4099136}, {"type": "node", "id": 1574508303, "lat": 39.4373052, "lon": -0.4133633}, {"type": "node", "id": 1574508309, "lat": 39.4493854, "lon": -0.4042748, "tags": {"railway:atp": "yes"}}, {"type": "node", "id": 1574508313, "lat": 39.4432516, "lon": -0.4088163}, {"type": "node", "id": 1574508316, "lat": 39.4417083, "lon": -0.4100553}, {"type": "node", "id": 1574508319, "lat": 39.4394954, "lon": -0.4116638}, {"type": "node", "id": 1574508322, "lat": 39.4423832, "lon": -0.4093757}, {"type": "node", "id": 1574508324, "lat": 39.4380452, "lon": -0.4127867}, {"type": "node", "id": 1574508330, "lat": 39.43999, "lon": -0.4112756}, {"type": "node", "id": 1574508333, "lat": 39.4420951, "lon": -0.4096261}, {"type": "node", "id": 1595279940, "lat": 39.4513379, "lon": -0.3848173, "tags": {"bench": "yes", "bin": "no", "bus": "yes", "highway": "bus_stop", "name": "Sant Vicent M\u00e0rtir - Fern\u00e1ndez de Mesa", "network": "EMT", "network:wikidata": "Q11007711", "operator": "Empresa Municipal de Transportes de Valencia", "public_transport": "platform", "ref": "594", "shelter": "yes", "source": "www.emtvalencia.es"}}, {"type": "node", "id": 1637239502, "lat": 39.4417051, "lon": -0.3777613, "tags": {"railway": "switch"}}, {"type": "node", "id": 1637239505, "lat": 39.4418241, "lon": -0.3768442}, {"type": "node", "id": 1637239507, "lat": 39.4417299, "lon": -0.3788255, "tags": {"railway": "switch"}}, {"type": "node", "id": 1637239509, "lat": 39.4416152, "lon": -0.3771997, "tags": {"railway": "switch"}}, {"type": "node", "id": 1637239510, "lat": 39.4418023, "lon": -0.3778536, "tags": {"railway": "switch"}}, {"type": "node", "id": 1637239512, "lat": 39.4417679, "lon": -0.3782985, "tags": {"railway": "switch"}}, {"type": "node", "id": 1637239514, "lat": 39.4415883, "lon": -0.3811442}, {"type": "node", "id": 1637239515, "lat": 39.4418338, "lon": -0.3774338}, {"type": "node", "id": 1637239517, "lat": 39.4419028, "lon": -0.3767844, "tags": {"railway": "switch"}}, {"type": "node", "id": 1637239522, "lat": 39.4417264, "lon": -0.376969}, {"type": "node", "id": 1637239523, "lat": 39.441736, "lon": -0.377723, "tags": {"railway": "switch"}}, {"type": "node", "id": 1637239524, "lat": 39.4417981, "lon": -0.377182}, {"type": "node", "id": 1637239525, "lat": 39.4415837, "lon": -0.3808572}, {"type": "node", "id": 1637239526, "lat": 39.4417435, "lon": -0.3782939, "tags": {"railway": "switch"}}, {"type": "node", "id": 1637239527, "lat": 39.4415055, "lon": -0.3765926}, {"type": "node", "id": 1637239528, "lat": 39.4418368, "lon": -0.3777863}, {"type": "node", "id": 1637239529, "lat": 39.4416316, "lon": -0.3820103, "tags": {"railway": "buffer_stop"}}, {"type": "node", "id": 1637242415, "lat": 39.4406506, "lon": -0.3627982}, {"type": "node", "id": 1637243156, "lat": 39.4413938, "lon": -0.3745286}, {"type": "node", "id": 1637243157, "lat": 39.4413024, "lon": -0.3745171}, {"type": "node", "id": 1637243158, "lat": 39.4413443, "lon": -0.3745161}, {"type": "node", "id": 1672353812, "lat": 39.4445427, "lon": -0.4019236}, {"type": "node", "id": 1672353840, "lat": 39.4425805, "lon": -0.3958014}, {"type": "node", "id": 1672353887, "lat": 39.4447091, "lon": -0.4026472}, {"type": "node", "id": 1672354137, "lat": 39.444668, "lon": -0.4026372}, {"type": "node", "id": 1785868125, "lat": 39.4527477, "lon": -0.406012}, {"type": "node", "id": 1785868188, "lat": 39.4527986, "lon": -0.4058981}, {"type": "node", "id": 1785868269, "lat": 39.4525735, "lon": -0.4058813}, {"type": "node", "id": 1785868272, "lat": 39.4526244, "lon": -0.4057674}, {"type": "node", "id": 1876918643, "lat": 39.4561916, "lon": -0.3947991, "tags": {"crossing": "uncontrolled", "crossing:markings": "zebra", "highway": "crossing", "railway:atp": "yes"}}, {"type": "node", "id": 2190605278, "lat": 39.4433995, "lon": -0.3978744}, {"type": "node", "id": 2212697365, "lat": 39.4462149, "lon": -0.3863347, "tags": {"bench": "yes", "bus": "yes", "highway": "bus_stop", "name": "Bulevard Sud - Pont", "network": "EMT", "network:wikidata": "Q11007711", "operator": "Empresa Municipal de Transportes de Valencia", "public_transport": "platform", "ref": "1943", "shelter": "yes", "source": "www.emtvalencia.es"}}, {"type": "node", "id": 2212697366, "lat": 39.4458062, "lon": -0.3808361, "tags": {"bench": "yes", "bin": "no", "bus": "yes", "highway": "bus_stop", "lit": "yes", "name": "Bulevard Sud (imparell) - Malilla", "network": "EMT", "operator": "Empresa Municipal de Transportes de Valencia", "public_transport": "platform", "ref": "1965", "shelter": "yes", "source": "www.emtvalencia.es", "tactile_paving": "no"}}, {"type": "node", "id": 2212697406, "lat": 39.4454693, "lon": -0.3812626, "tags": {"bench": "no", "bin": "yes", "bus": "yes", "highway": "bus_stop", "lit": "no", "name": "Bulevard Sud (parell) - Malilla", "network": "EMT", "operator": "Empresa Municipal de Transportes de Valencia", "public_transport": "platform", "ref": "1944", "shelter": "no", "source": "www.emtvalencia.es", "tactile_paving": "no"}}, {"type": "node", "id": 2285960772, "lat": 39.4242684, "lon": -0.3920929}, {"type": "node", "id": 2285960780, "lat": 39.421775, "lon": -0.3929547}, {"type": "node", "id": 2285960782, "lat": 39.4195236, "lon": -0.3931705}, {"type": "node", "id": 2285960784, "lat": 39.4183162, "lon": -0.3931345}, {"type": "node", "id": 2285960786, "lat": 39.4268987, "lon": -0.3908605}, {"type": "node", "id": 2285960793, "lat": 39.4185363, "lon": -0.3931327}, {"type": "node", "id": 2285960795, "lat": 39.4197204, "lon": -0.3931582}, {"type": "node", "id": 2285960805, "lat": 39.4207963, "lon": -0.3930573}, {"type": "node", "id": 2285960806, "lat": 39.4229534, "lon": -0.3926998}, {"type": "node", "id": 2285960812, "lat": 39.4264153, "lon": -0.3911239}, {"type": "node", "id": 2285960814, "lat": 39.4178801, "lon": -0.3930991}, {"type": "node", "id": 2285960818, "lat": 39.4191736, "lon": -0.3931812}, {"type": "node", "id": 2285960823, "lat": 39.4235398, "lon": -0.3924804}, {"type": "node", "id": 2285960829, "lat": 39.4223492, "lon": -0.392875}, {"type": "node", "id": 2419919939, "lat": 39.4428809, "lon": -0.4099711}, {"type": "node", "id": 2419919940, "lat": 39.44295, "lon": -0.4106168}, {"type": "node", "id": 2419919942, "lat": 39.4429056, "lon": -0.4101955}, {"type": "node", "id": 2419919943, "lat": 39.4424923, "lon": -0.4091794}, {"type": "node", "id": 2419919944, "lat": 39.4429591, "lon": -0.4103431}, {"type": "node", "id": 2419919947, "lat": 39.4426994, "lon": -0.410885}, {"type": "node", "id": 2419919953, "lat": 39.4387147, "lon": -0.4121694}, {"type": "node", "id": 2419919957, "lat": 39.4430611, "lon": -0.4089009}, {"type": "node", "id": 2419919958, "lat": 39.4427135, "lon": -0.4109994}, {"type": "node", "id": 2419919963, "lat": 39.4362037, "lon": -0.4142757, "tags": {"railway": "buffer_stop"}}, {"type": "node", "id": 2419919966, "lat": 39.4372111, "lon": -0.4134944}, {"type": "node", "id": 2419919968, "lat": 39.4424446, "lon": -0.409707}, {"type": "node", "id": 2419919971, "lat": 39.4428734, "lon": -0.4107563}, {"type": "node", "id": 2419919973, "lat": 39.4418163, "lon": -0.4117618, "tags": {"railway": "buffer_stop"}}, {"type": "node", "id": 2419919975, "lat": 39.4428154, "lon": -0.4107965}, {"type": "node", "id": 2419919977, "lat": 39.4424663, "lon": -0.4098974}, {"type": "node", "id": 2419919979, "lat": 39.4427781, "lon": -0.4107187}, {"type": "node", "id": 2419919983, "lat": 39.442823, "lon": -0.4109304}, {"type": "node", "id": 2419919988, "lat": 39.4429793, "lon": -0.4107496}, {"type": "node", "id": 2419919990, "lat": 39.4427915, "lon": -0.4093582}, {"type": "node", "id": 2419919991, "lat": 39.4363493, "lon": -0.4140195}, {"type": "node", "id": 2419919992, "lat": 39.442892, "lon": -0.4090504}, {"type": "node", "id": 2419919994, "lat": 39.4385732, "lon": -0.412173}, {"type": "node", "id": 2419919996, "lat": 39.4427986, "lon": -0.4111221}, {"type": "node", "id": 2419919997, "lat": 39.4388009, "lon": -0.4119767}, {"type": "node", "id": 2419919999, "lat": 39.4429284, "lon": -0.4107678}, {"type": "node", "id": 2419920000, "lat": 39.4428977, "lon": -0.4108927}, {"type": "node", "id": 2419920001, "lat": 39.4429442, "lon": -0.4103544}, {"type": "node", "id": 2419920003, "lat": 39.4428968, "lon": -0.4099286}, {"type": "node", "id": 2419920004, "lat": 39.4429477, "lon": -0.4109336}, {"type": "node", "id": 2419920005, "lat": 39.4425548, "lon": -0.411306}, {"type": "node", "id": 2419920006, "lat": 39.4414725, "lon": -0.410384, "tags": {"railway": "buffer_stop"}}, {"type": "node", "id": 2419920007, "lat": 39.441543, "lon": -0.4105014, "tags": {"railway": "buffer_stop"}}, {"type": "node", "id": 2419920008, "lat": 39.4428955, "lon": -0.4088865}, {"type": "node", "id": 2419920009, "lat": 39.4429008, "lon": -0.4097248}, {"type": "node", "id": 2419920013, "lat": 39.442576, "lon": -0.4109603}, {"type": "node", "id": 2419920014, "lat": 39.4425182, "lon": -0.4092596}, {"type": "node", "id": 2419920015, "lat": 39.4424354, "lon": -0.4105879}, {"type": "node", "id": 2419920021, "lat": 39.4427731, "lon": -0.4105809}, {"type": "node", "id": 2419920022, "lat": 39.4426372, "lon": -0.4114662}, {"type": "node", "id": 2419920023, "lat": 39.442787, "lon": -0.4112886}, {"type": "node", "id": 2419920024, "lat": 39.4423429, "lon": -0.4097057}, {"type": "node", "id": 2419920025, "lat": 39.4395334, "lon": -0.4116777}, {"type": "node", "id": 2419920031, "lat": 39.4418541, "lon": -0.411842, "tags": {"railway": "buffer_stop"}}, {"type": "node", "id": 2419920032, "lat": 39.4380131, "lon": -0.4128669}, {"type": "node", "id": 2419920033, "lat": 39.4423875, "lon": -0.4099014}, {"type": "node", "id": 2419920034, "lat": 39.4389026, "lon": -0.4122917}, {"type": "node", "id": 2419920035, "lat": 39.442647, "lon": -0.4102581}, {"type": "node", "id": 2419920037, "lat": 39.4420608, "lon": -0.4097073}, {"type": "node", "id": 2419920039, "lat": 39.4425501, "lon": -0.4096774}, {"type": "node", "id": 2419920040, "lat": 39.4429106, "lon": -0.4105042}, {"type": "node", "id": 2419920041, "lat": 39.4422757, "lon": -0.4104016}, {"type": "node", "id": 2419920042, "lat": 39.4425834, "lon": -0.4113866}, {"type": "node", "id": 2419920044, "lat": 39.4428754, "lon": -0.4105712}, {"type": "node", "id": 2419920045, "lat": 39.4415891, "lon": -0.4101903}, {"type": "node", "id": 2419920046, "lat": 39.4420582, "lon": -0.4103064}, {"type": "node", "id": 2419920047, "lat": 39.4422332, "lon": -0.4101267}, {"type": "node", "id": 2419920048, "lat": 39.4428361, "lon": -0.4104961}, {"type": "node", "id": 2419920050, "lat": 39.4426704, "lon": -0.4111881}, {"type": "node", "id": 2419920052, "lat": 39.4426248, "lon": -0.4110004}, {"type": "node", "id": 2419920053, "lat": 39.4389469, "lon": -0.4118221}, {"type": "node", "id": 2419920054, "lat": 39.4420559, "lon": -0.409444}, {"type": "node", "id": 2419920058, "lat": 39.4422969, "lon": -0.4100989}, {"type": "node", "id": 2419920060, "lat": 39.4414089, "lon": -0.4108072, "tags": {"railway": "buffer_stop"}}, {"type": "node", "id": 2419920061, "lat": 39.4425476, "lon": -0.4110933}, {"type": "node", "id": 2419920063, "lat": 39.4417853, "lon": -0.4116894, "tags": {"railway": "buffer_stop"}}, {"type": "node", "id": 2419920064, "lat": 39.4427489, "lon": -0.4092335}, {"type": "node", "id": 2419920065, "lat": 39.4434763, "lon": -0.4086122}, {"type": "node", "id": 2419920066, "lat": 39.4430274, "lon": -0.4100371}, {"type": "node", "id": 2419920067, "lat": 39.4418918, "lon": -0.4119249, "tags": {"railway": "buffer_stop"}}, {"type": "node", "id": 2419920068, "lat": 39.4425834, "lon": -0.4111613}, {"type": "node", "id": 2419920069, "lat": 39.4381884, "lon": -0.4125395}, {"type": "node", "id": 2419920070, "lat": 39.44269, "lon": -0.4097686}, {"type": "node", "id": 2419920071, "lat": 39.4386608, "lon": -0.4124665}, {"type": "node", "id": 2419920073, "lat": 39.4427223, "lon": -0.4112402}, {"type": "node", "id": 2419920075, "lat": 39.435868, "lon": -0.4143509}, {"type": "node", "id": 2419920076, "lat": 39.4422351, "lon": -0.4095309}, {"type": "node", "id": 2419920077, "lat": 39.4421868, "lon": -0.4099992}, {"type": "node", "id": 2419920078, "lat": 39.442913, "lon": -0.4095839}, {"type": "node", "id": 2419920080, "lat": 39.4427574, "lon": -0.411063}, {"type": "node", "id": 2419920081, "lat": 39.4417314, "lon": -0.4096423}, {"type": "node", "id": 2419920082, "lat": 39.4360573, "lon": -0.4142046}, {"type": "node", "id": 2419924732, "lat": 39.4408863, "lon": -0.4109009}, {"type": "node", "id": 2419924738, "lat": 39.4446334, "lon": -0.4078807}, {"type": "node", "id": 2419924742, "lat": 39.440878, "lon": -0.4109706}, {"type": "node", "id": 2419924744, "lat": 39.4435634, "lon": -0.4085376}, {"type": "node", "id": 2419924745, "lat": 39.4407792, "lon": -0.4110594}, {"type": "node", "id": 2419924749, "lat": 39.4407502, "lon": -0.4110084}, {"type": "node", "id": 2419924752, "lat": 39.4407212, "lon": -0.4110245}, {"type": "node", "id": 2419924758, "lat": 39.4472148, "lon": -0.4060141}, {"type": "node", "id": 2419924760, "lat": 39.4449782, "lon": -0.4075442}, {"type": "node", "id": 2419924762, "lat": 39.4449669, "lon": -0.4075096}, {"type": "node", "id": 2419924764, "lat": 39.4408538, "lon": -0.4109199}, {"type": "node", "id": 2419924768, "lat": 39.4410919, "lon": -0.4106677}, {"type": "node", "id": 2419924770, "lat": 39.4480381, "lon": -0.4054101}, {"type": "node", "id": 2419924772, "lat": 39.4406124, "lon": -0.411453}, {"type": "node", "id": 2419924774, "lat": 39.4457921, "lon": -0.406964}, {"type": "node", "id": 2419924778, "lat": 39.440833, "lon": -0.4112713}, {"type": "node", "id": 2419924779, "lat": 39.4410002, "lon": -0.411153}, {"type": "node", "id": 2419924783, "lat": 39.4483138, "lon": -0.4051882, "tags": {"railway:atp": "yes"}}, {"type": "node", "id": 2419924787, "lat": 39.4412229, "lon": -0.4109808}, {"type": "node", "id": 2419924789, "lat": 39.444131, "lon": -0.408181}, {"type": "node", "id": 2419924791, "lat": 39.4404685, "lon": -0.4111562}, {"type": "node", "id": 2419926257, "lat": 39.4504068, "lon": -0.403236, "tags": {"railway:atp": "yes"}}, {"type": "node", "id": 2419926260, "lat": 39.4496499, "lon": -0.4040113, "tags": {"railway:atp": "yes"}}, {"type": "node", "id": 2419926261, "lat": 39.4520351, "lon": -0.401461, "tags": {"railway:atp": "yes"}}, {"type": "node", "id": 2419926262, "lat": 39.452585, "lon": -0.4008407, "tags": {"railway:atp": "yes"}}, {"type": "node", "id": 2419926263, "lat": 39.4510051, "lon": -0.4026473}, {"type": "node", "id": 2419926264, "lat": 39.4516894, "lon": -0.4018515, "tags": {"railway:atp": "yes"}}, {"type": "node", "id": 2419926265, "lat": 39.4489696, "lon": -0.4046205, "tags": {"railway:atp": "yes"}}, {"type": "node", "id": 2419926269, "lat": 39.4509776, "lon": -0.402587}, {"type": "node", "id": 2419926272, "lat": 39.4501285, "lon": -0.4034557}, {"type": "node", "id": 2419926273, "lat": 39.4520511, "lon": -0.4014838, "tags": {"railway:atp": "yes"}}, {"type": "node", "id": 2419926274, "lat": 39.4493731, "lon": -0.4042419, "tags": {"railway:atp": "yes"}}, {"type": "node", "id": 2419926276, "lat": 39.4503829, "lon": -0.4032105, "tags": {"railway:atp": "yes"}}, {"type": "node", "id": 2419926277, "lat": 39.4501638, "lon": -0.4035091}, {"type": "node", "id": 2419926279, "lat": 39.4498392, "lon": -0.4037709, "tags": {"railway:atp": "yes"}}, {"type": "node", "id": 2419926280, "lat": 39.4525688, "lon": -0.4008181, "tags": {"railway:atp": "yes"}}, {"type": "node", "id": 2529492541, "lat": 39.4538812, "lon": -0.4069576, "tags": {"railway": "switch"}}, {"type": "node", "id": 2529492569, "lat": 39.4534317, "lon": -0.4066808}, {"type": "node", "id": 2674971249, "lat": 39.4502274, "lon": -0.4040856}, {"type": "node", "id": 2674971250, "lat": 39.4502561, "lon": -0.404012}, {"type": "node", "id": 2674971251, "lat": 39.4500362, "lon": -0.403854}, {"type": "node", "id": 2674971261, "lat": 39.449925, "lon": -0.4042149}, {"type": "node", "id": 2674971262, "lat": 39.4502052, "lon": -0.4041425}, {"type": "node", "id": 2674971278, "lat": 39.4500235, "lon": -0.4038834, "tags": {"entrance": "yes"}}, {"type": "node", "id": 3201505181, "lat": 39.4463738, "lon": -0.3676622, "tags": {"bench": "yes", "bin": "yes", "bus": "yes", "highway": "bus_stop", "lit": "yes", "name": "Actor Antonio Ferrandis (imparell) - Font de St. Llu\u00eds", "network": "EMT", "operator": "Empresa Municipal de Transportes de Valencia", "public_transport": "platform", "ref": "2239", "shelter": "yes", "source": "www.emtvalencia.es", "tactile_paving": "no"}}, {"type": "node", "id": 3201505182, "lat": 39.4468674, "lon": -0.3678003, "tags": {"bus": "yes", "highway": "bus_stop", "name": "Actor Antonio Ferrandis (parell) - Font de St. Llu\u00eds", "network": "EMT", "operator": "Empresa Municipal de Transportes de Valencia", "public_transport": "platform", "ref": "2238", "source": "www.emtvalencia.es"}}, {"type": "node", "id": 3201505185, "lat": 39.4448501, "lon": -0.3757131, "tags": {"bench": "yes", "bin": "yes", "bus": "yes", "highway": "bus_stop", "lit": "yes", "name": "Hospital la Fe", "network": "EMT", "network:wikidata": "Q11007711", "old_name": "Bulevard Sud (par) - Hospital la Fe", "operator": "Empresa Municipal de Transportes de Valencia", "public_transport": "platform", "ref": "1946", "shelter": "yes", "source": "www.emtvalencia.es", "tactile_paving": "no"}}, {"type": "node", "id": 3234270667, "lat": 39.4543978, "lon": -0.3617072, "tags": {"railway": "tram_level_crossing"}}, {"type": "node", "id": 3299908394, "lat": 39.456597, "lon": -0.3884568, "tags": {"railway:atp": "yes"}}, {"type": "node", "id": 3299908396, "lat": 39.456386, "lon": -0.3921986, "tags": {"railway:atp": "yes"}}, {"type": "node", "id": 3299908397, "lat": 39.456247, "lon": -0.394354, "tags": {"railway:atp": "yes"}}, {"type": "node", "id": 3299908399, "lat": 39.4543143, "lon": -0.3987443, "tags": {"railway:atp": "yes"}}, {"type": "node", "id": 3299908401, "lat": 39.4557231, "lon": -0.3969112, "tags": {"railway:atp": "yes"}}, {"type": "node", "id": 3299908402, "lat": 39.4558727, "lon": -0.396575, "tags": {"railway:atp": "yes"}}, {"type": "node", "id": 3299908404, "lat": 39.4560031, "lon": -0.3962101, "tags": {"railway:atp": "yes"}}, {"type": "node", "id": 3299908406, "lat": 39.4560943, "lon": -0.3959053, "tags": {"railway:atp": "yes"}}, {"type": "node", "id": 3299908407, "lat": 39.4561645, "lon": -0.3955027, "tags": {"railway:atp": "yes"}}, {"type": "node", "id": 3299932357, "lat": 39.4532016, "lon": -0.4000609, "tags": {"railway:atp": "yes"}}, {"type": "node", "id": 3299932358, "lat": 39.4550113, "lon": -0.3978354, "tags": {"layer": "-1", "name": "Safranar", "public_transport": "stop_position", "railway": "stop", "railway:atp": "yes", "subway": "yes"}}, {"type": "node", "id": 3299932360, "lat": 39.4554408, "lon": -0.3973169, "tags": {"railway:atp": "yes"}}, {"type": "node", "id": 3299933962, "lat": 39.455563, "lon": -0.3971461, "tags": {"railway:atp": "yes"}}, {"type": "node", "id": 3299933964, "lat": 39.4557082, "lon": -0.3968778, "tags": {"railway:atp": "yes"}}, {"type": "node", "id": 3299933965, "lat": 39.4557844, "lon": -0.3967108, "tags": {"railway:atp": "yes"}}, {"type": "node", "id": 3299933967, "lat": 39.4559101, "lon": -0.3963878, "tags": {"railway:atp": "yes"}}, {"type": "node", "id": 3299933968, "lat": 39.4559832, "lon": -0.3961746, "tags": {"railway:atp": "yes"}}, {"type": "node", "id": 3299933970, "lat": 39.4560706, "lon": -0.3958738, "tags": {"railway:atp": "yes"}}, {"type": "node", "id": 3299933971, "lat": 39.4561041, "lon": -0.3957145, "tags": {"railway:atp": "yes"}}, {"type": "node", "id": 3299933972, "lat": 39.4561349, "lon": -0.3954995, "tags": {"railway:atp": "yes"}}, {"type": "node", "id": 3299933974, "lat": 39.4561895, "lon": -0.3948289, "tags": {"railway:atp": "yes"}}, {"type": "node", "id": 3299933975, "lat": 39.4564503, "lon": -0.3904183, "tags": {"layer": "-1", "name": "Patraix", "name:ca": "Patraix", "public_transport": "stop_position", "railway": "stop", "railway:atp": "yes", "subway": "yes"}}, {"type": "node", "id": 3299933977, "lat": 39.4562796, "lon": -0.3935054, "tags": {"railway:atp": "yes"}}, {"type": "node", "id": 3299933978, "lat": 39.4563218, "lon": -0.392855, "tags": {"railway:atp": "yes"}}, {"type": "node", "id": 3299933979, "lat": 39.4563687, "lon": -0.3920661, "tags": {"railway:atp": "yes"}}, {"type": "node", "id": 3299933980, "lat": 39.4563878, "lon": -0.3916571, "tags": {"railway:atp": "yes"}}, {"type": "node", "id": 3299933982, "lat": 39.4564236, "lon": -0.3908146, "tags": {"railway:atp": "yes"}}, {"type": "node", "id": 3299933984, "lat": 39.4565495, "lon": -0.3887494, "tags": {"railway:atp": "yes"}}, {"type": "node", "id": 3299933985, "lat": 39.4565719, "lon": -0.3884583, "tags": {"railway:atp": "yes"}}, {"type": "node", "id": 3302336904, "lat": 39.4514899, "lon": -0.4021207, "tags": {"railway:atp": "yes"}}, {"type": "node", "id": 3302336905, "lat": 39.4514632, "lon": -0.4021025, "tags": {"railway:atp": "yes"}}, {"type": "node", "id": 3302336906, "lat": 39.4491929, "lon": -0.4044586, "tags": {"railway:atp": "yes"}}, {"type": "node", "id": 3302336907, "lat": 39.4486914, "lon": -0.4049134, "tags": {"railway:atp": "yes"}}, {"type": "node", "id": 3302336908, "lat": 39.4486703, "lon": -0.4048861, "tags": {"railway:atp": "yes"}}, {"type": "node", "id": 3302336909, "lat": 39.4476363, "lon": -0.4057521}, {"type": "node", "id": 3302336910, "lat": 39.4476237, "lon": -0.4057212}, {"type": "node", "id": 3302336912, "lat": 39.4465573, "lon": -0.406449}, {"type": "node", "id": 3302336913, "lat": 39.4451608, "lon": -0.4075697}, {"type": "node", "id": 3302336914, "lat": 39.4454896, "lon": -0.4073714, "tags": {"railway": "buffer_stop"}}, {"type": "node", "id": 3302336915, "lat": 39.4437186, "lon": -0.4083794}, {"type": "node", "id": 3302336916, "lat": 39.4434129, "lon": -0.4085426}, {"type": "node", "id": 3302336917, "lat": 39.4433022, "lon": -0.4086162}, {"type": "node", "id": 3302336918, "lat": 39.4430537, "lon": -0.4088205}, {"type": "node", "id": 3302336919, "lat": 39.4437278, "lon": -0.4084029}, {"type": "node", "id": 3302336920, "lat": 39.4438612, "lon": -0.4083356}, {"type": "node", "id": 3302336921, "lat": 39.4433217, "lon": -0.4087468}, {"type": "node", "id": 3302336922, "lat": 39.4433906, "lon": -0.4086849}, {"type": "node", "id": 3302336923, "lat": 39.4429199, "lon": -0.4092398}, {"type": "node", "id": 3302336924, "lat": 39.4429592, "lon": -0.4091962}, {"type": "node", "id": 3302336925, "lat": 39.443007, "lon": -0.4092398}, {"type": "node", "id": 3302336926, "lat": 39.4430442, "lon": -0.4091034}, {"type": "node", "id": 3302336927, "lat": 39.4431615, "lon": -0.408936}, {"type": "node", "id": 3302336928, "lat": 39.4430843, "lon": -0.4090743}, {"type": "node", "id": 3302336929, "lat": 39.4429362, "lon": -0.4094556}, {"type": "node", "id": 3302336930, "lat": 39.4429583, "lon": -0.4093811}, {"type": "node", "id": 3302336931, "lat": 39.442946, "lon": -0.4095189}, {"type": "node", "id": 3302336932, "lat": 39.4429509, "lon": -0.4094461}, {"type": "node", "id": 3302336933, "lat": 39.4429993, "lon": -0.40995}, {"type": "node", "id": 3302336934, "lat": 39.4433136, "lon": -0.4107545, "tags": {"railway": "buffer_stop"}}, {"type": "node", "id": 3302336935, "lat": 39.4430934, "lon": -0.410281}, {"type": "node", "id": 3302336936, "lat": 39.4430555, "lon": -0.4101812}, {"type": "node", "id": 3302336937, "lat": 39.4430262, "lon": -0.4100877}, {"type": "node", "id": 3302336938, "lat": 39.4430054, "lon": -0.4099911}, {"type": "node", "id": 3302336939, "lat": 39.4432867, "lon": -0.4107799, "tags": {"railway": "buffer_stop"}}, {"type": "node", "id": 3302336940, "lat": 39.4430763, "lon": -0.4103269}, {"type": "node", "id": 3302336941, "lat": 39.4430396, "lon": -0.4102287}, {"type": "node", "id": 3302336942, "lat": 39.4430054, "lon": -0.4101273}, {"type": "node", "id": 3302336943, "lat": 39.4429833, "lon": -0.4100196}, {"type": "node", "id": 3302336944, "lat": 39.4432561, "lon": -0.4108021, "tags": {"railway": "buffer_stop"}}, {"type": "node", "id": 3302336945, "lat": 39.4430567, "lon": -0.410376}, {"type": "node", "id": 3302336946, "lat": 39.4430213, "lon": -0.4102826}, {"type": "node", "id": 3302336947, "lat": 39.4430005, "lon": -0.4102065}, {"type": "node", "id": 3302336948, "lat": 39.4429882, "lon": -0.4101147}, {"type": "node", "id": 3302336949, "lat": 39.4429821, "lon": -0.4100482}, {"type": "node", "id": 3302336950, "lat": 39.4429797, "lon": -0.4098613}, {"type": "node", "id": 3302336951, "lat": 39.4429674, "lon": -0.4098993}, {"type": "node", "id": 3302336952, "lat": 39.4429503, "lon": -0.4096411}, {"type": "node", "id": 3302336953, "lat": 39.4429638, "lon": -0.4097662}, {"type": "node", "id": 3302336954, "lat": 39.4429589, "lon": -0.4097884}, {"type": "node", "id": 3302336955, "lat": 39.4428531, "lon": -0.4103346}, {"type": "node", "id": 3302336956, "lat": 39.4428013, "lon": -0.4104661}, {"type": "node", "id": 3302336957, "lat": 39.44285, "lon": -0.4101844}, {"type": "node", "id": 3302336958, "lat": 39.4428106, "lon": -0.4106096}, {"type": "node", "id": 3302336959, "lat": 39.4427412, "lon": -0.4108094}, {"type": "node", "id": 3302336960, "lat": 39.4426604, "lon": -0.4109502}, {"type": "node", "id": 3302339361, "lat": 39.4425838, "lon": -0.4110517}, {"type": "node", "id": 3302339362, "lat": 39.442444, "lon": -0.4111915}, {"type": "node", "id": 3302339363, "lat": 39.4427423, "lon": -0.4106856}, {"type": "node", "id": 3302339364, "lat": 39.4426418, "lon": -0.4108774}, {"type": "node", "id": 3302339365, "lat": 39.4425082, "lon": -0.4110343}, {"type": "node", "id": 3302339366, "lat": 39.4424099, "lon": -0.4111188}, {"type": "node", "id": 3302339367, "lat": 39.4429117, "lon": -0.4103601}, {"type": "node", "id": 3302339368, "lat": 39.4428924, "lon": -0.410443}, {"type": "node", "id": 3302339369, "lat": 39.4428995, "lon": -0.4103397}, {"type": "node", "id": 3302339370, "lat": 39.4428477, "lon": -0.410694}, {"type": "node", "id": 3302339371, "lat": 39.4427653, "lon": -0.4109063}, {"type": "node", "id": 3302339372, "lat": 39.442653, "lon": -0.4110869}, {"type": "node", "id": 3302339373, "lat": 39.4424756, "lon": -0.4112585}, {"type": "node", "id": 3302339374, "lat": 39.4428977, "lon": -0.4106406}, {"type": "node", "id": 3302339375, "lat": 39.4428512, "lon": -0.4108473}, {"type": "node", "id": 3302339376, "lat": 39.4426109, "lon": -0.4112515}, {"type": "node", "id": 3302339377, "lat": 39.4429328, "lon": -0.4102466}, {"type": "node", "id": 3302339378, "lat": 39.442953, "lon": -0.4104884}, {"type": "node", "id": 3302339379, "lat": 39.4428521, "lon": -0.4110165}, {"type": "node", "id": 3302339380, "lat": 39.4426548, "lon": -0.4113197}, {"type": "node", "id": 3302339381, "lat": 39.4429784, "lon": -0.4104669}, {"type": "node", "id": 3302339382, "lat": 39.4428442, "lon": -0.4111982}, {"type": "node", "id": 3302339383, "lat": 39.4427171, "lon": -0.4113833}, {"type": "node", "id": 3302339384, "lat": 39.442894, "lon": -0.4094481}, {"type": "node", "id": 3302339385, "lat": 39.4428256, "lon": -0.4095326}, {"type": "node", "id": 3302339386, "lat": 39.4426871, "lon": -0.4101533}, {"type": "node", "id": 3302339387, "lat": 39.4425059, "lon": -0.4105042}, {"type": "node", "id": 3302339388, "lat": 39.4423396, "lon": -0.4106754}, {"type": "node", "id": 3302339389, "lat": 39.4426956, "lon": -0.4100209}, {"type": "node", "id": 3302339390, "lat": 39.4426386, "lon": -0.4101751}, {"type": "node", "id": 3302339391, "lat": 39.4425754, "lon": -0.4103105}, {"type": "node", "id": 3302339392, "lat": 39.4425143, "lon": -0.4104125}, {"type": "node", "id": 3302339393, "lat": 39.4424439, "lon": -0.4105063}, {"type": "node", "id": 3302339394, "lat": 39.4423952, "lon": -0.41056}, {"type": "node", "id": 3302339395, "lat": 39.44233, "lon": -0.4106217}, {"type": "node", "id": 3302339396, "lat": 39.4422183, "lon": -0.410712}, {"type": "node", "id": 3302339397, "lat": 39.4415625, "lon": -0.4112225, "tags": {"railway": "buffer_stop"}}, {"type": "node", "id": 3302339398, "lat": 39.4426604, "lon": -0.4100276}, {"type": "node", "id": 3302339399, "lat": 39.4427031, "lon": -0.4099035}, {"type": "node", "id": 3302339400, "lat": 39.4426096, "lon": -0.4101563}, {"type": "node", "id": 3302339401, "lat": 39.4425578, "lon": -0.410269}, {"type": "node", "id": 3302339402, "lat": 39.4424947, "lon": -0.4103655}, {"type": "node", "id": 3302339403, "lat": 39.4424356, "lon": -0.410446}, {"type": "node", "id": 3302339404, "lat": 39.4423745, "lon": -0.4105104}, {"type": "node", "id": 3302339405, "lat": 39.442301, "lon": -0.4105774}, {"type": "node", "id": 3302339406, "lat": 39.4421934, "lon": -0.4106591}, {"type": "node", "id": 3302339407, "lat": 39.4415356, "lon": -0.4111702, "tags": {"railway": "buffer_stop"}}, {"type": "node", "id": 3302339408, "lat": 39.4428137, "lon": -0.4096246}, {"type": "node", "id": 3302339409, "lat": 39.4427471, "lon": -0.4097771}, {"type": "node", "id": 3302339410, "lat": 39.4426591, "lon": -0.4099743}, {"type": "node", "id": 3302339411, "lat": 39.4425996, "lon": -0.4101007}, {"type": "node", "id": 3302339412, "lat": 39.442533, "lon": -0.4102239}, {"type": "node", "id": 3302339413, "lat": 39.4424711, "lon": -0.4103256}, {"type": "node", "id": 3302339414, "lat": 39.4423783, "lon": -0.4104349}, {"type": "node", "id": 3302339415, "lat": 39.442295, "lon": -0.4105151}, {"type": "node", "id": 3302339416, "lat": 39.4422129, "lon": -0.4105844}, {"type": "node", "id": 3302339417, "lat": 39.4421719, "lon": -0.4106135}, {"type": "node", "id": 3302339418, "lat": 39.4415134, "lon": -0.411122, "tags": {"railway": "buffer_stop"}}, {"type": "node", "id": 3302339419, "lat": 39.4427584, "lon": -0.4097513}, {"type": "node", "id": 3302339420, "lat": 39.4428364, "lon": -0.4096024}, {"type": "node", "id": 3302339421, "lat": 39.442603, "lon": -0.4100194}, {"type": "node", "id": 3302339422, "lat": 39.442546, "lon": -0.4101361}, {"type": "node", "id": 3302339423, "lat": 39.4424839, "lon": -0.410238}, {"type": "node", "id": 3302339424, "lat": 39.4424228, "lon": -0.4103198}, {"type": "node", "id": 3302339425, "lat": 39.4423513, "lon": -0.4104016}, {"type": "node", "id": 3302339426, "lat": 39.4422892, "lon": -0.4104606}, {"type": "node", "id": 3302339427, "lat": 39.4422094, "lon": -0.410525}, {"type": "node", "id": 3302339428, "lat": 39.4421491, "lon": -0.4105686}, {"type": "node", "id": 3302339429, "lat": 39.4414875, "lon": -0.4110802, "tags": {"railway": "buffer_stop"}}, {"type": "node", "id": 3302339430, "lat": 39.4427355, "lon": -0.409723}, {"type": "node", "id": 3302339431, "lat": 39.4424922, "lon": -0.4101227}, {"type": "node", "id": 3302339432, "lat": 39.4423813, "lon": -0.410289}, {"type": "node", "id": 3302339433, "lat": 39.4423275, "lon": -0.4103533}, {"type": "node", "id": 3302339434, "lat": 39.4421752, "lon": -0.4102139}, {"type": "node", "id": 3302339435, "lat": 39.4422394, "lon": -0.4101575}, {"type": "node", "id": 3302339436, "lat": 39.4423844, "lon": -0.4100033}, {"type": "node", "id": 3302339437, "lat": 39.4427148, "lon": -0.4094441}, {"type": "node", "id": 3302339438, "lat": 39.4423109, "lon": -0.4100207}, {"type": "node", "id": 3302339439, "lat": 39.442169, "lon": -0.4101991}, {"type": "node", "id": 3302339440, "lat": 39.4433271, "lon": -0.4087195}, {"type": "node", "id": 3302339441, "lat": 39.4429463, "lon": -0.4089922}, {"type": "node", "id": 3302339442, "lat": 39.4428174, "lon": -0.4091409}, {"type": "node", "id": 3302339443, "lat": 39.4425877, "lon": -0.4094878}, {"type": "node", "id": 3302339444, "lat": 39.4422804, "lon": -0.4099118}, {"type": "node", "id": 3302339445, "lat": 39.44236, "lon": -0.4098166}, {"type": "node", "id": 3302339446, "lat": 39.4420528, "lon": -0.4101075}, {"type": "node", "id": 3302339447, "lat": 39.4424456, "lon": -0.4096118}, {"type": "node", "id": 3302339448, "lat": 39.4425182, "lon": -0.4095374}, {"type": "node", "id": 3302339449, "lat": 39.4426139, "lon": -0.4094213}, {"type": "node", "id": 3302339450, "lat": 39.4427791, "lon": -0.4090104}, {"type": "node", "id": 3302339452, "lat": 39.4422542, "lon": -0.4094083}, {"type": "node", "id": 3302339453, "lat": 39.4422683, "lon": -0.4094905}, {"type": "node", "id": 3302339454, "lat": 39.4419591, "lon": -0.4097383}, {"type": "node", "id": 3302339455, "lat": 39.4421142, "lon": -0.4096926}, {"type": "node", "id": 3302339456, "lat": 39.4419661, "lon": -0.409857}, {"type": "node", "id": 3302339457, "lat": 39.441676, "lon": -0.4101218}, {"type": "node", "id": 3302339458, "lat": 39.4417838, "lon": -0.4100161}, {"type": "node", "id": 3302339459, "lat": 39.4402264, "lon": -0.4112554}, {"type": "node", "id": 3302339460, "lat": 39.4395555, "lon": -0.411738}, {"type": "node", "id": 3302339461, "lat": 39.4395565, "lon": -0.4117784}, {"type": "node", "id": 3302339462, "lat": 39.4421318, "lon": -0.4096442}, {"type": "node", "id": 3302339463, "lat": 39.4408244, "lon": -0.4105275, "tags": {"name": "Val\u00e8ncia Sud", "public_transport": "stop_position", "railway": "stop", "subway": "yes"}}, {"type": "node", "id": 3302339464, "lat": 39.4414153, "lon": -0.4099371}, {"type": "node", "id": 3302339465, "lat": 39.4419028, "lon": -0.4095332}, {"type": "node", "id": 3302339466, "lat": 39.4417187, "lon": -0.4097011}, {"type": "node", "id": 3302339467, "lat": 39.4418768, "lon": -0.4095746}, {"type": "node", "id": 3302339468, "lat": 39.4419463, "lon": -0.4095211}, {"type": "node", "id": 3302339469, "lat": 39.4422778, "lon": -0.4093163}, {"type": "node", "id": 3302339470, "lat": 39.4423493, "lon": -0.4092746}, {"type": "node", "id": 3302339471, "lat": 39.4387263, "lon": -0.412019}, {"type": "node", "id": 3302339472, "lat": 39.4387948, "lon": -0.4119525}, {"type": "node", "id": 3302339473, "lat": 39.4386487, "lon": -0.4124443}, {"type": "node", "id": 3302339474, "lat": 39.4382095, "lon": -0.4127365}, {"type": "node", "id": 3302339475, "lat": 39.4383264, "lon": -0.4124156}, {"type": "node", "id": 3302339477, "lat": 39.4378872, "lon": -0.4127748}, {"type": "node", "id": 3302339478, "lat": 39.4376554, "lon": -0.4130009}, {"type": "node", "id": 3302339480, "lat": 39.4366843, "lon": -0.4139013}, {"type": "node", "id": 3302339481, "lat": 39.4370842, "lon": -0.4135413}, {"type": "node", "id": 3302339482, "lat": 39.4372769, "lon": -0.4134429}, {"type": "node", "id": 3302339483, "lat": 39.436922, "lon": -0.41366}, {"type": "node", "id": 3348104721, "lat": 39.4506254, "lon": -0.4030134, "tags": {"name": "Sant Isidre", "name:ca": "Sant Isidre", "public_transport": "stop_position", "railway": "stop", "railway:atp": "yes", "subway": "yes"}}, {"type": "node", "id": 3348104722, "lat": 39.4506068, "lon": -0.4029879, "tags": {"name": "Sant Isidre", "name:ca": "Sant Isidre", "public_transport": "stop_position", "railway": "stop", "railway:atp": "yes", "subway": "yes"}}, {"type": "node", "id": 3348104723, "lat": 39.4501022, "lon": -0.4034146}, {"type": "node", "id": 3348104724, "lat": 39.450953, "lon": -0.4025466}, {"type": "node", "id": 3348104725, "lat": 39.4510306, "lon": -0.402689}, {"type": "node", "id": 3350222750, "lat": 39.4409113, "lon": -0.4107223, "tags": {"name": "Val\u00e8ncia Sud", "public_transport": "stop_position"}}, {"type": "node", "id": 3350222751, "lat": 39.4408122, "lon": -0.4104942, "tags": {"name": "Val\u00e8ncia Sud", "public_transport": "stop_position", "railway": "stop", "subway": "yes"}}, {"type": "node", "id": 3350222752, "lat": 39.4416329, "lon": -0.4102028}, {"type": "node", "id": 3350222753, "lat": 39.4416219, "lon": -0.4101806}, {"type": "node", "id": 3350222754, "lat": 39.4411021, "lon": -0.4105892}, {"type": "node", "id": 3350222755, "lat": 39.4407143, "lon": -0.4108949}, {"type": "node", "id": 3350222756, "lat": 39.4401309, "lon": -0.4113463}, {"type": "node", "id": 3350222757, "lat": 39.439567, "lon": -0.4117866}, {"type": "node", "id": 3350222758, "lat": 39.4395768, "lon": -0.411804}, {"type": "node", "id": 3350222759, "lat": 39.4403792, "lon": -0.41118}, {"type": "node", "id": 3350222760, "lat": 39.4403963, "lon": -0.4112148}, {"type": "node", "id": 3350222761, "lat": 39.4411938, "lon": -0.4105892}, {"type": "node", "id": 3350222762, "lat": 39.4411804, "lon": -0.4105575}, {"type": "node", "id": 3350222763, "lat": 39.4395303, "lon": -0.4117232}, {"type": "node", "id": 3350222764, "lat": 39.4404318, "lon": -0.4110105}, {"type": "node", "id": 3350222765, "lat": 39.4409663, "lon": -0.4105971}, {"type": "node", "id": 3350222766, "lat": 39.4419167, "lon": -0.4098622}, {"type": "node", "id": 3350222767, "lat": 39.4419228, "lon": -0.4098765}, {"type": "node", "id": 3350222768, "lat": 39.4410898, "lon": -0.4105195}, {"type": "node", "id": 3350222769, "lat": 39.4401933, "lon": -0.4112196}, {"type": "node", "id": 3350222770, "lat": 39.439534, "lon": -0.4117359}, {"type": "node", "id": 3350222771, "lat": 39.4419106, "lon": -0.409848}, {"type": "node", "id": 3350222772, "lat": 39.4412207, "lon": -0.4103833}, {"type": "node", "id": 3350222773, "lat": 39.440307, "lon": -0.4110913}, {"type": "node", "id": 3350222774, "lat": 39.4397566, "lon": -0.4115221}, {"type": "node", "id": 3350222775, "lat": 39.4395242, "lon": -0.4117074}, {"type": "node", "id": 3350222776, "lat": 39.439496, "lon": -0.4116488}, {"type": "node", "id": 3350222777, "lat": 39.4394875, "lon": -0.4116282}, {"type": "node", "id": 3350222778, "lat": 39.440296, "lon": -0.4109947}, {"type": "node", "id": 3350222779, "lat": 39.4407339, "lon": -0.4106557}, {"type": "node", "id": 3350222780, "lat": 39.4413651, "lon": -0.4101616}, {"type": "node", "id": 3350222781, "lat": 39.4419644, "lon": -0.4096959}, {"type": "node", "id": 3350222782, "lat": 39.4419717, "lon": -0.4097102}, {"type": "node", "id": 3350222783, "lat": 39.4415192, "lon": -0.410065}, {"type": "node", "id": 3350222784, "lat": 39.4410556, "lon": -0.4104261}, {"type": "node", "id": 3350222785, "lat": 39.4407192, "lon": -0.4106922}, {"type": "node", "id": 3350222786, "lat": 39.4402471, "lon": -0.4110549}, {"type": "node", "id": 3350222787, "lat": 39.4402813, "lon": -0.4109646}, {"type": "node", "id": 3350222788, "lat": 39.4408941, "lon": -0.4104926}, {"type": "node", "id": 3350222789, "lat": 39.441502, "lon": -0.4100175}, {"type": "node", "id": 3350222790, "lat": 39.4419509, "lon": -0.4096674}, {"type": "node", "id": 3350222791, "lat": 39.4395511, "lon": -0.4114318}, {"type": "node", "id": 3350222792, "lat": 39.439545, "lon": -0.411416}, {"type": "node", "id": 3350222893, "lat": 39.4402361, "lon": -0.4108696}, {"type": "node", "id": 3350222894, "lat": 39.440981, "lon": -0.4102994}, {"type": "node", "id": 3350222895, "lat": 39.4414152, "lon": -0.4099604}, {"type": "node", "id": 3350222896, "lat": 39.4419265, "lon": -0.4095566}, {"type": "node", "id": 3350222897, "lat": 39.4419363, "lon": -0.4095772}, {"type": "node", "id": 3350222898, "lat": 39.4410507, "lon": -0.4102725}, {"type": "node", "id": 3350222899, "lat": 39.4402434, "lon": -0.4108917}, {"type": "node", "id": 3350222900, "lat": 39.4419461, "lon": -0.4095962}, {"type": "node", "id": 3350222901, "lat": 39.4411767, "lon": -0.4101948}, {"type": "node", "id": 3350222902, "lat": 39.4405064, "lon": -0.4107143}, {"type": "node", "id": 3350222903, "lat": 39.4402544, "lon": -0.4109107}, {"type": "node", "id": 3350222904, "lat": 39.4394165, "lon": -0.4114382}, {"type": "node", "id": 3350222905, "lat": 39.4394055, "lon": -0.4114207}, {"type": "node", "id": 3350222906, "lat": 39.4403156, "lon": -0.410708}, {"type": "node", "id": 3350222907, "lat": 39.4409443, "lon": -0.4102265}, {"type": "node", "id": 3350222908, "lat": 39.4411363, "lon": -0.4100745}, {"type": "node", "id": 3350222909, "lat": 39.4411278, "lon": -0.4100475}, {"type": "node", "id": 3350222910, "lat": 39.4417748, "lon": -0.4095296}, {"type": "node", "id": 3350222911, "lat": 39.4417956, "lon": -0.4095724}, {"type": "node", "id": 3350222912, "lat": 39.4411057, "lon": -0.4101204}, {"type": "node", "id": 3350222913, "lat": 39.4403254, "lon": -0.4107238}, {"type": "node", "id": 3503150876, "lat": 39.4426161, "lon": -0.3824738}, {"type": "node", "id": 3503150877, "lat": 39.4426227, "lon": -0.3821505}, {"type": "node", "id": 3503150878, "lat": 39.4425887, "lon": -0.3816392}, {"type": "node", "id": 3503150879, "lat": 39.4424988, "lon": -0.3811589}, {"type": "node", "id": 3503150880, "lat": 39.4423437, "lon": -0.3806022}, {"type": "node", "id": 3503150881, "lat": 39.4423055, "lon": -0.3804472}, {"type": "node", "id": 3503150882, "lat": 39.4422361, "lon": -0.3800824}, {"type": "node", "id": 3503150883, "lat": 39.4421968, "lon": -0.3797305}, {"type": "node", "id": 3883234562, "lat": 39.4593967, "lon": -0.3796053, "tags": {"railway": "switch"}}, {"type": "node", "id": 3883234563, "lat": 39.458957, "lon": -0.379758, "tags": {"railway": "switch"}}, {"type": "node", "id": 3883234566, "lat": 39.456968, "lon": -0.3804385}, {"type": "node", "id": 3883234568, "lat": 39.4565026, "lon": -0.3805545}, {"type": "node", "id": 3883234571, "lat": 39.4554157, "lon": -0.3808214}, {"type": "node", "id": 3883234573, "lat": 39.4550511, "lon": -0.3809142}, {"type": "node", "id": 3883234574, "lat": 39.4559732, "lon": -0.3807094}, {"type": "node", "id": 3883234577, "lat": 39.4565076, "lon": -0.3806008}, {"type": "node", "id": 3883234578, "lat": 39.4568283, "lon": -0.3805235}, {"type": "node", "id": 3883234579, "lat": 39.4572142, "lon": -0.3804109}, {"type": "node", "id": 3883234582, "lat": 39.4581691, "lon": -0.3800783}, {"type": "node", "id": 3883234583, "lat": 39.4598584, "lon": -0.3794871, "tags": {"railway": "switch"}}, {"type": "node", "id": 3883234588, "lat": 39.4535973, "lon": -0.3814579}, {"type": "node", "id": 3883234589, "lat": 39.4544689, "lon": -0.3811521}, {"type": "node", "id": 3883234592, "lat": 39.4550709, "lon": -0.3809559}, {"type": "node", "id": 3883234593, "lat": 39.4552368, "lon": -0.3809112}, {"type": "node", "id": 3883234594, "lat": 39.4554258, "lon": -0.3808664}, {"type": "node", "id": 3883234595, "lat": 39.4556512, "lon": -0.3808175}, {"type": "node", "id": 3883234596, "lat": 39.4561415, "lon": -0.3807202}, {"type": "node", "id": 3883234597, "lat": 39.4563499, "lon": -0.3806786}, {"type": "node", "id": 3883234598, "lat": 39.4565143, "lon": -0.3806417}, {"type": "node", "id": 3883234600, "lat": 39.4568366, "lon": -0.3805663}, {"type": "node", "id": 3883234601, "lat": 39.4570864, "lon": -0.3804958}, {"type": "node", "id": 3883234602, "lat": 39.4572234, "lon": -0.3804545}, {"type": "node", "id": 3883234603, "lat": 39.4574605, "lon": -0.3803719}, {"type": "node", "id": 3883234604, "lat": 39.4577359, "lon": -0.3802758}, {"type": "node", "id": 3883234605, "lat": 39.4584084, "lon": -0.3800384}, {"type": "node", "id": 3883234606, "lat": 39.4593818, "lon": -0.3797018}, {"type": "node", "id": 3883234608, "lat": 39.4542195, "lon": -0.3812853, "tags": {"railway": "switch"}}, {"type": "node", "id": 3883234609, "lat": 39.4540226, "lon": -0.3813493}, {"type": "node", "id": 3883234610, "lat": 39.4545537, "lon": -0.3811689}, {"type": "node", "id": 3883234612, "lat": 39.4550778, "lon": -0.3809973}, {"type": "node", "id": 3883234613, "lat": 39.4552393, "lon": -0.3809543}, {"type": "node", "id": 3883234614, "lat": 39.4554348, "lon": -0.380907}, {"type": "node", "id": 3883234615, "lat": 39.4556539, "lon": -0.3808628}, {"type": "node", "id": 3883234616, "lat": 39.4558603, "lon": -0.3808218}, {"type": "node", "id": 3883234617, "lat": 39.4561455, "lon": -0.3807642}, {"type": "node", "id": 3883234618, "lat": 39.4563575, "lon": -0.3807223}, {"type": "node", "id": 3883234619, "lat": 39.4565213, "lon": -0.3806885}, {"type": "node", "id": 3883234620, "lat": 39.4566739, "lon": -0.3806506}, {"type": "node", "id": 3883234621, "lat": 39.4568456, "lon": -0.380608}, {"type": "node", "id": 3883234622, "lat": 39.4570928, "lon": -0.3805426}, {"type": "node", "id": 3883234623, "lat": 39.4572317, "lon": -0.3804996}, {"type": "node", "id": 3883234624, "lat": 39.4574277, "lon": -0.3804305}, {"type": "node", "id": 3883234625, "lat": 39.4577212, "lon": -0.3803304}, {"type": "node", "id": 3883234626, "lat": 39.4584306, "lon": -0.3800794}, {"type": "node", "id": 3883234627, "lat": 39.4593619, "lon": -0.3797519}, {"type": "node", "id": 3883234628, "lat": 39.459855, "lon": -0.3795827}, {"type": "node", "id": 3883234629, "lat": 39.4602202, "lon": -0.3794553}, {"type": "node", "id": 3883234630, "lat": 39.4604266, "lon": -0.3793795, "tags": {"railway": "switch"}}, {"type": "node", "id": 3883234778, "lat": 39.4601538, "lon": -0.3794305, "tags": {"railway": "switch"}}, {"type": "node", "id": 3883294540, "lat": 39.4534282, "lon": -0.3816556}, {"type": "node", "id": 3883294541, "lat": 39.4543685, "lon": -0.381329}, {"type": "node", "id": 3883294542, "lat": 39.4544535, "lon": -0.381307}, {"type": "node", "id": 3883294543, "lat": 39.4546222, "lon": -0.3812728}, {"type": "node", "id": 3883294544, "lat": 39.4547364, "lon": -0.3812611}, {"type": "node", "id": 3883294545, "lat": 39.4549082, "lon": -0.3812576}, {"type": "node", "id": 3883294547, "lat": 39.4538187, "lon": -0.3815772}, {"type": "node", "id": 3883294548, "lat": 39.4542797, "lon": -0.3814161}, {"type": "node", "id": 3883294549, "lat": 39.4543818, "lon": -0.3813785}, {"type": "node", "id": 3883294550, "lat": 39.4545461, "lon": -0.381334},