{"version": 0.6, "generator": "Overpass API 0.7.62.8 e802775f", "osm3s": {"timestamp_osm_base": "2026-01-14T23:53:50Z", "copyright": "The data included in this document is from www.openstreetmap.org. The data is made available under ODbL."}, "elements": [{"type": "node", "id": 30084268, "lat": 43.2483015, "lon": 5.374931, "tags": {"bus": "yes", "name": "Vieille Chapelle", "name:oc": "La Cap\u00e8la Vi\u00e8lha", "public_transport": "stop_position", "source:name:oc": "ieo-bdtopoc"}}, {"type": "node", "id": 30084297, "lat": 43.2686851, "lon": 5.3702484, "tags": {"bus": "yes", "name": "Corniche Talabot", "name:oc": "Cornissa - Talab\u00f2t", "public_transport": "stop_position", "source:name:oc": "ieo-bdtopoc"}}, {"type": "node", "id": 30084315, "lat": 43.2726717, "lon": 5.3628519, "tags": {"bus": "yes", "name": "Plage du Proph\u00e8te", "name:oc": "Lo Prof\u00e8ta", "public_transport": "stop_position", "source:name:oc": "ieo-bdtopoc"}}, {"type": "node", "id": 33955464, "lat": 43.2599584, "lon": 5.3754071, "tags": {"bus": "yes", "name": "Plage de l'Huveaune", "name:oc": "Platja de V\u00e8una", "public_transport": "stop_position", "source:name:oc": "ieo-bdtopoc"}}, {"type": "node", "id": 33955477, "lat": 43.2483991, "lon": 5.3748214, "tags": {"bus": "yes", "name": "Vieille Chapelle", "name:oc": "La Cap\u00e8la Vi\u00e8lha", "public_transport": "stop_position", "source:name:oc": "ieo-bdtopoc"}}, {"type": "node", "id": 33955540, "lat": 43.2759183, "lon": 5.3587838, "tags": {"bus": "yes", "name": "Vallon de l'Oriol", "name:oc": "Valon d\u2019En Auru\u00f2u", "public_transport": "stop_position", "source:name:oc": "ieo-bdtopoc"}}, {"type": "node", "id": 255880618, "lat": 43.3122587, "lon": 5.3641653, "tags": {"amenity": "ferry_terminal", "cargo": "passengers;vehicle", "ferry": "yes", "harbour": "yes", "name": "Gare Maritime d'Arenc", "name:ar": "\u0645\u062d\u0637\u0629 \u0622\u0631\u0646\u0643 \u0627\u0644\u0628\u062d\u0631\u064a\u0629", "name:oc": "Estacion maritima d'Arenh", "public_transport": "station", "seamark:harbour:category": "ferry", "seamark:type": "harbour", "source:name:oc": "ieo-bdtopoc"}}, {"type": "node", "id": 255880619, "lat": 43.2983471, "lon": 5.358287}, {"type": "node", "id": 255885515, "lat": 43.1582687, "lon": 5.3714573}, {"type": "node", "id": 262615176, "lat": 43.278793, "lon": 5.3678221, "tags": {"bus": "yes", "name": "Roucas Estrangin", "name:oc": "Roc\u00e0s - Estrangin", "public_transport": "stop_position", "source:name:oc": "ieo-bdtopoc"}}, {"type": "node", "id": 262615185, "lat": 43.2765143, "lon": 5.3658227, "tags": {"bus": "yes", "name": "Roucas Blanc", "name:oc": "Roc\u00e0s Blanc", "public_transport": "stop_position", "source:name:oc": "ieo-bdtopoc"}}, {"type": "node", "id": 498495269, "lat": 43.2788017, "lon": 5.3605161, "tags": {"bus": "yes", "name": "Bompard", "name:oc": "Bompar", "public_transport": "stop_position", "source:name:oc": "ieo-bdtopoc"}}, {"type": "node", "id": 498507675, "lat": 43.2774319, "lon": 5.3619204, "tags": {"bus": "yes", "name": "Traverse Nicolas", "name:oc": "Trav\u00e8rsa Nicolau", "public_transport": "stop_position", "source:name:oc": "ieo-bdtopoc"}}, {"type": "node", "id": 498507679, "lat": 43.2772768, "lon": 5.3618161, "tags": {"bus": "yes", "name": "Traverse Nicolas", "name:oc": "Trav\u00e8rsa Nicolau", "public_transport": "stop_position", "source:name:oc": "ieo-bdtopoc"}}, {"type": "node", "id": 498507792, "lat": 43.2779527, "lon": 5.3666529, "tags": {"bus": "yes", "name": "Roucas Blanc Duploy\u00e9", "name:oc": "Roc\u00e0s Blanc - Duploy\u00e9", "public_transport": "stop_position", "source": "cadastre-dgi-fr source : Direction G\u00e9n\u00e9rale des Imp\u00f4ts - Cadastre. Mise \u00e0 jour : 2009", "source:name:oc": "ieo-bdtopoc"}}, {"type": "node", "id": 498630869, "lat": 43.2768552, "lon": 5.372529, "tags": {"bus": "yes", "name": "Estrangin Colonies", "name:oc": "Estrangin - Colonias", "public_transport": "stop_position", "source:name:oc": "ieo-bdtopoc"}}, {"type": "node", "id": 567463867, "lat": 43.2962622, "lon": 5.3542871}, {"type": "node", "id": 673434521, "lat": 43.2770168, "lon": 5.3777935, "tags": {"bus": "yes", "name": "Eden Roc", "name:oc": "Eden Roc", "public_transport": "stop_position", "source": "survey", "source:name:oc": "ieo-bdtopoc"}}, {"type": "node", "id": 958315392, "lat": 43.2516365, "lon": 5.3755681, "tags": {"bus": "yes", "name": "Bowl du Prado", "name:oc": "Bowl dau Prad\u00f2t", "public_transport": "stop_position", "source:name:oc": "ieo-bdtopoc"}}, {"type": "node", "id": 1340345800, "lat": 43.277927, "lon": 5.3551096, "tags": {"bench": "yes", "bin": "yes", "bus": "yes", "check_date:shelter": "2023-06-13", "highway": "bus_stop", "lit": "no", "name": "Parc Valmer", "name:oc": "Pargue Valmar", "public_transport": "platform", "shelter": "yes", "source:name:oc": "ieo-bdtopoc", "tactile_paving": "yes", "wheelchair": "yes"}}, {"type": "node", "id": 1340345809, "lat": 43.263869, "lon": 5.3780451, "tags": {"bench": "yes", "bin": "yes", "bus": "yes", "highway": "bus_stop", "lit": "yes", "name": "Parc Bor\u00e9ly", "name:oc": "Pargue Boreli", "public_transport": "platform", "shelter": "yes", "source:name:oc": "ieo-bdtopoc", "tactile_paving": "yes", "wheelchair": "yes"}}, {"type": "node", "id": 1340345816, "lat": 43.2669317, "lon": 5.3725946, "tags": {"bench": "yes", "bin": "yes", "bus": "yes", "highway": "bus_stop", "lit": "no", "name": "Plage Roucas Blanc", "name:oc": "Plaja - Roc\u00e0s Blanc", "public_transport": "platform", "shelter": "yes", "source:name:oc": "ieo-bdtopoc", "tactile_paving": "yes", "wheelchair": "yes"}}, {"type": "node", "id": 1340345822, "lat": 43.26413, "lon": 5.3735653, "tags": {"bench": "yes", "bin": "yes", "bus": "yes", "check_date:shelter": "2023-05-18", "highway": "bus_stop", "lit": "no", "name": "Place Amiral Muselier", "name:oc": "Pla\u00e7a Amirau Muselier", "public_transport": "platform", "shelter": "yes", "source:name:oc": "ieo-bdtopoc", "tactile_paving": "yes", "wheelchair": "yes"}}, {"type": "node", "id": 1340345833, "lat": 43.2700783, "lon": 5.3649387, "tags": {"bench": "yes", "bin": "yes", "bus": "yes", "highway": "bus_stop", "lit": "no", "name": "Corniche Roucas Blanc", "name:oc": "Camin dau Roc\u00e0s Blanc", "public_transport": "platform", "shelter": "yes", "source:name:oc": "ieo-bdtopoc", "tactile_paving": "yes", "wheelchair": "yes"}}, {"type": "node", "id": 1340345837, "lat": 43.2688738, "lon": 5.3700133, "tags": {"bench": "no", "bin": "no", "bus": "yes", "check_date:shelter": "2023-06-13", "highway": "bus_stop", "lit": "no", "name": "Corniche Talabot", "name:oc": "Cornissa - Talab\u00f2t", "public_transport": "platform", "shelter": "no", "source:name:oc": "ieo-bdtopoc", "tactile_paving": "yes", "wheelchair": "yes"}}, {"type": "node", "id": 1340345840, "lat": 43.2746396, "lon": 5.3609724, "tags": {"bench": "no", "bin": "yes", "bus": "yes", "highway": "bus_stop", "lit": "no", "name": "Corniche Napoule", "name:oc": "Cornissa - Napola", "public_transport": "platform", "shelter": "no", "source:name:oc": "ieo-bdtopoc", "tactile_paving": "yes", "wheelchair": "yes"}}, {"type": "node", "id": 1340345844, "lat": 43.262385, "lon": 5.3757779, "tags": {"bench": "yes", "bin": "no", "bus": "yes", "description": "Ligne 83", "highway": "bus_stop", "lit": "yes", "name": "Plage du Prado", "name:oc": "Plaja dau Prad\u00f2t", "public_transport": "platform", "shelter": "yes", "source:name:oc": "ieo-bdtopoc", "tactile_paving": "yes", "wheelchair": "yes"}}, {"type": "node", "id": 1340345852, "lat": 43.2771719, "lon": 5.3570159, "tags": {"bench": "no", "bin": "yes", "bus": "yes", "check_date:shelter": "2023-06-13", "highway": "bus_stop", "lit": "no", "name": "Vallon de la Baudille", "name:oc": "Valon de la Baudilha", "public_transport": "platform", "shelter": "no", "source:name:oc": "ieo-bdtopoc", "tactile_paving": "yes", "wheelchair": "yes"}}, {"type": "node", "id": 1340345855, "lat": 43.2726549, "lon": 5.3629222, "tags": {"bench": "yes", "bin": "yes", "bus": "yes", "check_date:shelter": "2023-06-13", "highway": "bus_stop", "lit": "no", "name": "Plage du Proph\u00e8te", "name:oc": "Lo Prof\u00e8ta", "public_transport": "platform", "shelter": "yes", "source:name:oc": "ieo-bdtopoc", "tactile_paving": "yes", "wheelchair": "yes"}}, {"type": "node", "id": 1340345856, "lat": 43.2644942, "lon": 5.3736346, "tags": {"bench": "yes", "bin": "yes", "bus": "yes", "check_date:shelter": "2023-05-18", "highway": "bus_stop", "lit": "no", "name": "Place Amiral Muselier", "name:oc": "Pla\u00e7a Amirau Muselier", "public_transport": "platform", "shelter": "yes", "source:name:oc": "ieo-bdtopoc", "tactile_paving": "yes", "wheelchair": "yes"}}, {"type": "node", "id": 1340345865, "lat": 43.2754839, "lon": 5.3602592, "tags": {"bench": "no", "bin": "no", "bus": "yes", "check_date:shelter": "2023-06-13", "highway": "bus_stop", "lit": "yes", "name": "Oriol Corniche", "name:oc": "Auri\u00f2u - Cornissa", "public_transport": "platform", "shelter": "no", "source:name:oc": "ieo-bdtopoc", "tactile_paving": "no"}}, {"type": "node", "id": 1340345866, "lat": 43.2625967, "lon": 5.3756046, "tags": {"bench": "yes", "bin": "no", "bus": "yes", "highway": "bus_stop", "lit": "no", "name": "Plage du Prado", "name:oc": "Plaja dau Prad\u00f2t", "public_transport": "platform", "shelter": "yes", "source:name:oc": "ieo-bdtopoc", "tactile_paving": "yes", "wheelchair": "yes"}}, {"type": "node", "id": 1340345867, "lat": 43.2639723, "lon": 5.3778379, "tags": {"bench": "yes", "bin": "yes", "bus": "yes", "highway": "bus_stop", "lit": "no", "name": "Parc Bor\u00e9ly", "name:oc": "Pargue Boreli", "public_transport": "platform", "shelter": "yes", "source:name:oc": "ieo-bdtopoc", "tactile_paving": "yes", "wheelchair": "yes"}}, {"type": "node", "id": 1340345880, "lat": 43.2654448, "lon": 5.3730294, "tags": {"bench": "yes", "bin": "yes", "bus": "yes", "highway": "bus_stop", "lit": "no", "name": "Plage Roucas Blanc", "name:oc": "Plaja - Roc\u00e0s Blanc", "public_transport": "platform", "shelter": "yes", "source:name:oc": "ieo-bdtopoc", "tactile_paving": "yes", "wheelchair": "yes"}}, {"type": "node", "id": 1340345888, "lat": 43.2770293, "lon": 5.3569075, "tags": {"bench": "yes", "bin": "yes", "bus": "yes", "check_date:shelter": "2023-06-13", "highway": "bus_stop", "lit": "no", "name": "Vallon de la Baudille", "name:oc": "Valon de la Baudilha", "public_transport": "platform", "shelter": "yes", "source:name:oc": "ieo-bdtopoc", "tactile_paving": "yes", "wheelchair": "yes"}}, {"type": "node", "id": 1340345891, "lat": 43.2686321, "lon": 5.3701999, "tags": {"bench": "no", "bin": "yes", "bus": "yes", "highway": "bus_stop", "lit": "no", "name": "Corniche Talabot", "name:oc": "Cornissa - Talab\u00f2t", "public_transport": "platform", "shelter": "no", "source:name:oc": "ieo-bdtopoc", "tactile_paving": "yes", "wheelchair": "yes"}}, {"type": "node", "id": 1340345901, "lat": 43.2725532, "lon": 5.3626338, "tags": {"bench": "yes", "bin": "yes", "bus": "yes", "check_date:shelter": "2023-06-13", "highway": "bus_stop", "lit": "no", "name": "Plage du Proph\u00e8te", "name:oc": "Lo Prof\u00e8ta", "public_transport": "platform", "shelter": "yes", "source:name:oc": "ieo-bdtopoc", "tactile_paving": "no"}}, {"type": "node", "id": 1340345916, "lat": 43.2759862, "lon": 5.3589064, "tags": {"bench": "yes", "bin": "yes", "bus": "yes", "highway": "bus_stop", "lit": "yes", "name": "Vallon de l'Oriol", "name:oc": "Valon d\u2019En Auru\u00f2u", "public_transport": "platform", "shelter": "yes", "source:name:oc": "ieo-bdtopoc", "tactile_paving": "yes", "wheelchair": "yes"}}, {"type": "node", "id": 1340345925, "lat": 43.2702293, "lon": 5.3651094, "tags": {"bench": "yes", "bin": "yes", "bus": "yes", "check_date:shelter": "2023-06-13", "highway": "bus_stop", "lit": "no", "name": "Chemin du Roucas Blanc", "name:oc": "Camin dau Roc\u00e0s Blanc", "public_transport": "platform", "shelter": "yes", "source:name:oc": "ieo-bdtopoc", "tactile_paving": "yes", "wheelchair": "yes"}}, {"type": "node", "id": 1340345938, "lat": 43.2744285, "lon": 5.361107, "tags": {"bench": "yes", "bin": "yes", "bus": "yes", "highway": "bus_stop", "lit": "no", "name": "Corniche Napoule", "name:oc": "Cornissa - Napola", "public_transport": "platform", "shelter": "yes", "source:name:oc": "ieo-bdtopoc", "tactile_paving": "yes"}}, {"type": "node", "id": 1340345939, "lat": 43.2759008, "lon": 5.3587219, "tags": {"bench": "yes", "bin": "yes", "bus": "yes", "check_date:shelter": "2023-06-13", "highway": "bus_stop", "lit": "yes", "name": "Vallon de l'Oriol", "name:oc": "Valon d\u2019En Auru\u00f2u", "public_transport": "platform", "shelter": "yes", "source:name:oc": "ieo-bdtopoc", "tactile_paving": "yes", "wheelchair": "yes"}}, {"type": "node", "id": 1342706124, "lat": 43.2624569, "lon": 5.3756683, "tags": {"bus": "yes", "name": "Plage du Prado", "name:oc": "Plaja dau Prad\u00f2t", "public_transport": "stop_position", "source:name:oc": "ieo-bdtopoc"}}, {"type": "node", "id": 1342706134, "lat": 43.2639248, "lon": 5.3779516, "tags": {"bus": "yes", "name": "Parc Bor\u00e9ly", "name:oc": "Pargue Boreli", "public_transport": "stop_position", "source:name:oc": "ieo-bdtopoc"}}, {"type": "node", "id": 1351939682, "lat": 43.2452556, "lon": 5.3802196, "tags": {"bus": "yes", "name": "Parangon Neptune", "name:oc": "Parangon - Neptun", "operator": "RTM", "public_transport": "stop_position", "source:name:oc": "ieo-bdtopoc"}}, {"type": "node", "id": 1353105307, "lat": 43.2799576, "lon": 5.3784265, "tags": {"bench": "yes", "bin": "yes", "bus": "yes", "highway": "bus_stop", "lit": "yes", "name": "Montebello", "name:oc": "Montebello", "public_transport": "platform", "shelter": "yes", "source:name:oc": "ieo-bdtopoc", "tactile_paving": "no"}}, {"type": "node", "id": 1353105342, "lat": 43.2788674, "lon": 5.3804642, "tags": {"bench": "no", "bin": "no", "bus": "yes", "highway": "bus_stop", "lit": "yes", "name": "Gaston Cr\u00e9mieux", "name:oc": "Gaston Cremieus", "public_transport": "platform", "shelter": "no", "source:name:oc": "ieo-bdtopoc", "tactile_paving": "no"}}, {"type": "node", "id": 1353105347, "lat": 43.2789487, "lon": 5.3801845, "tags": {"bus": "yes", "name": "Gaston Cr\u00e9mieux", "name:oc": "Gaston Cremieus", "public_transport": "stop_position", "source:name:oc": "ieo-bdtopoc"}}, {"type": "node", "id": 1353105352, "lat": 43.2789079, "lon": 5.3801361, "tags": {"bench": "yes", "bin": "no", "bus": "yes", "highway": "bus_stop", "lit": "yes", "name": "Gaston Cr\u00e9mieux", "name:oc": "Gaston Cremieus", "public_transport": "platform", "shelter": "yes", "source:name:oc": "ieo-bdtopoc", "tactile_paving": "no"}}, {"type": "node", "id": 1353105437, "lat": 43.2788181, "lon": 5.38039, "tags": {"bus": "yes", "name": "Gaston Cr\u00e9mieux", "name:oc": "Gaston Cremieus", "public_transport": "stop_position", "source:name:oc": "ieo-bdtopoc"}}, {"type": "node", "id": 1354654298, "lat": 43.2779768, "lon": 5.3551447, "tags": {"bus": "yes", "name": "Parc Valmer", "name:oc": "Pargue Valmar", "public_transport": "stop_position", "source:name:oc": "ieo-bdtopoc"}}, {"type": "node", "id": 1354654300, "lat": 43.2744625, "lon": 5.3611953, "tags": {"bus": "yes", "name": "Corniche Napoule", "name:oc": "Cornissa - Napola", "public_transport": "stop_position", "source:name:oc": "ieo-bdtopoc"}}, {"type": "node", "id": 1354654302, "lat": 43.2669584, "lon": 5.3725217, "tags": {"bus": "yes", "name": "Plage Roucas Blanc", "name:oc": "Plaja - Roc\u00e0s Blanc", "public_transport": "stop_position", "source:name:oc": "ieo-bdtopoc"}}, {"type": "node", "id": 1354654304, "lat": 43.2641884, "lon": 5.3736036, "tags": {"bus": "yes", "name": "Place Amiral Muselier", "name:oc": "Pla\u00e7a Amirau Muselier", "public_transport": "stop_position", "source:name:oc": "ieo-bdtopoc"}}, {"type": "node", "id": 1354654308, "lat": 43.2771415, "lon": 5.356977, "tags": {"bus": "yes", "name": "Vallon de la Baudille", "name:oc": "Valon de la Baudilha", "public_transport": "stop_position", "source:name:oc": "ieo-bdtopoc"}}, {"type": "node", "id": 1354654311, "lat": 43.272514, "lon": 5.362697, "tags": {"bus": "yes", "name": "Plage du Proph\u00e8te", "name:oc": "Lo Prof\u00e8ta", "public_transport": "stop_position", "source:name:oc": "ieo-bdtopoc"}}, {"type": "node", "id": 1354654315, "lat": 43.2701773, "lon": 5.3650421, "tags": {"bus": "yes", "name": "Chemin du Roucas Blanc", "name:oc": "Cornissa Roc\u00e0s Blanc", "public_transport": "stop_position", "source:name:oc": "ieo-bdtopoc"}}, {"type": "node", "id": 1354654316, "lat": 43.2788295, "lon": 5.3542859, "tags": {"bus": "yes", "name": "Parc Valmer", "name:oc": "Pargue Valmar", "public_transport": "stop_position", "source:name:oc": "ieo-bdtopoc"}}, {"type": "node", "id": 1354654325, "lat": 43.2688008, "lon": 5.3700814, "tags": {"bus": "yes", "name": "Corniche Talabot", "name:oc": "Cornissa - Talab\u00f2t", "public_transport": "stop_position", "source:name:oc": "ieo-bdtopoc"}}, {"type": "node", "id": 1354654328, "lat": 43.2745739, "lon": 5.3609595, "tags": {"bus": "yes", "name": "Corniche Napoule", "name:oc": "Cornissa - Napola", "public_transport": "stop_position", "source:name:oc": "ieo-bdtopoc"}}, {"type": "node", "id": 1354654331, "lat": 43.2655052, "lon": 5.3730364, "tags": {"bus": "yes", "name": "Plage Roucas Blanc", "name:oc": "Plaja - Roc\u00e0s Blanc", "public_transport": "stop_position", "source:name:oc": "ieo-bdtopoc"}}, {"type": "node", "id": 1354654334, "lat": 43.2759595, "lon": 5.358844, "tags": {"bus": "yes", "name": "Vallon de l'Oriol", "name:oc": "Valon d\u2019En Auru\u00f2u", "public_transport": "stop_position", "source:name:oc": "ieo-bdtopoc"}}, {"type": "node", "id": 1354654335, "lat": 43.264418, "lon": 5.3736051, "tags": {"bus": "yes", "name": "Place Amiral Muselier", "name:oc": "Pla\u00e7a Amirau Muselier", "public_transport": "stop_position", "source:name:oc": "ieo-bdtopoc"}}, {"type": "node", "id": 1354654337, "lat": 43.2770657, "lon": 5.3569626, "tags": {"bus": "yes", "name": "Vallon de la Baudille", "name:oc": "Valon de la Baudilha", "public_transport": "stop_position", "source:name:oc": "ieo-bdtopoc"}}, {"type": "node", "id": 1354654340, "lat": 43.2701238, "lon": 5.3649916, "tags": {"bus": "yes", "name": "Corniche Roucas Blanc", "name:oc": "Cornissa Roc\u00e0s Blanc", "public_transport": "stop_position", "source:name:oc": "ieo-bdtopoc"}}, {"type": "node", "id": 1363933655, "lat": 43.2516645, "lon": 5.3755125, "tags": {"bench": "yes", "bin": "yes", "bus": "yes", "highway": "bus_stop", "name": "Bowl du Prado", "name:oc": "Bowl dau Prad\u00f2t", "public_transport": "platform", "shelter": "yes", "source:name:oc": "ieo-bdtopoc", "tactile_paving": "yes", "wheelchair": "yes"}}, {"type": "node", "id": 1363933656, "lat": 43.2452456, "lon": 5.3729384, "tags": {"bench": "yes", "bin": "yes", "bus": "yes", "highway": "bus_stop", "lit": "no", "name": "Tiboulen", "name:oc": "Tiborenc", "public_transport": "platform", "shelter": "yes", "source:name:oc": "ieo-bdtopoc", "tactile_paving": "yes", "wheelchair": "yes"}}, {"type": "node", "id": 1363933658, "lat": 43.2558606, "lon": 5.3763929, "tags": {"bench": "yes", "bin": "yes", "bus": "yes", "highway": "bus_stop", "name": "Escale Bor\u00e9ly", "name:oc": "Escala Bor\u00e8li", "public_transport": "platform", "shelter": "yes", "source:name:oc": "ieo-bdtopoc", "tactile_paving": "yes", "wheelchair": "yes"}}, {"type": "node", "id": 1363933660, "lat": 43.2517512, "lon": 5.3757476, "tags": {"bench": "yes", "bus": "yes", "highway": "bus_stop", "name": "Bowl du Prado", "name:oc": "Bowl dau Prad\u00f2t", "public_transport": "platform", "shelter": "yes", "source:name:oc": "ieo-bdtopoc", "tactile_paving": "yes", "wheelchair": "yes"}}, {"type": "node", "id": 1363933662, "lat": 43.2484417, "lon": 5.3747602, "tags": {"bench": "yes", "bin": "yes", "bus": "yes", "highway": "bus_stop", "lit": "yes", "name": "Vieille Chapelle", "name:oc": "La Cap\u00e8la Vi\u00e8lha", "public_transport": "platform", "shelter": "yes", "source:name:oc": "ieo-bdtopoc", "tactile_paving": "yes", "wheelchair": "yes"}}, {"type": "node", "id": 1363933673, "lat": 43.256584, "lon": 5.3766336, "tags": {"bus": "yes", "name": "Escale Bor\u00e9ly", "name:oc": "Escala Bor\u00e8li", "public_transport": "stop_position", "source:name:oc": "ieo-bdtopoc"}}, {"type": "node", "id": 1363933674, "lat": 43.2598721, "lon": 5.3753546, "tags": {"bench": "yes", "bin": "no", "bus": "yes", "highway": "bus_stop", "lit": "no", "name": "Plage de l'Huveaune", "name:oc": "Plaja de V\u00e8una", "public_transport": "platform", "shelter": "yes", "source:name:oc": "ieo-bdtopoc", "tactile_paving": "yes", "wheelchair": "yes"}}, {"type": "node", "id": 1363933678, "lat": 43.2483168, "lon": 5.3750179, "tags": {"bench": "yes", "bin": "no", "bus": "yes", "highway": "bus_stop", "name": "Vieille Chapelle", "name:oc": "La Cap\u00e8la Vi\u00e8lha", "public_transport": "platform", "shelter": "yes", "source:name:oc": "ieo-bdtopoc", "wheelchair": "no"}}, {"type": "node", "id": 1363933681, "lat": 43.2452295, "lon": 5.3729943, "tags": {"bus": "yes", "name": "Tiboulen", "name:oc": "Tiborenc", "public_transport": "stop_position", "source:name:oc": "ieo-bdtopoc"}}, {"type": "node", "id": 1363933683, "lat": 43.2458286, "lon": 5.3736268, "tags": {"bench": "yes", "bin": "yes", "bus": "yes", "highway": "bus_stop", "name": "Tiboulen", "name:oc": "Tiborenc", "public_transport": "platform", "shelter": "yes", "source:name:oc": "ieo-bdtopoc", "tactile_paving": "yes", "wheelchair": "yes"}}, {"type": "node", "id": 1363933685, "lat": 43.2565981, "lon": 5.3767139, "tags": {"bench": "yes", "bin": "yes", "bus": "yes", "highway": "bus_stop", "name": "Escale Bor\u00e9ly", "name:oc": "Escala Bor\u00e8li", "public_transport": "platform", "shelter": "yes", "source:name:oc": "ieo-bdtopoc", "tactile_paving": "yes", "wheelchair": "yes"}}, {"type": "node", "id": 1363933692, "lat": 43.25179, "lon": 5.3757022, "tags": {"bus": "yes", "name": "Bowl du Prado", "name:oc": "Bowl dau Prad\u00f2t", "public_transport": "stop_position", "source:name:oc": "ieo-bdtopoc"}}, {"type": "node", "id": 1363933693, "lat": 43.2458754, "lon": 5.3735976, "tags": {"bus": "yes", "name": "Tiboulen", "name:oc": "Tibolenc", "public_transport": "stop_position", "source:name:oc": "ieo-bdtopoc"}}, {"type": "node", "id": 1363933695, "lat": 43.25586, "lon": 5.3764845, "tags": {"bus": "yes", "name": "Escale Bor\u00e9ly", "name:oc": "Escala Bor\u00e8li", "public_transport": "stop_position", "source:name:oc": "ieo-bdtopoc"}}, {"type": "node", "id": 1378916326, "lat": 43.2762674, "lon": 5.3654128, "tags": {"bench": "no", "bin": "no", "bus": "yes", "highway": "bus_stop", "lit": "no", "name": "Roucas Blanc", "name:oc": "Roc\u00e0s Blanc", "public_transport": "platform", "shelter": "no", "source:name:oc": "ieo-bdtopoc", "tactile_paving": "no"}}, {"type": "node", "id": 1378916327, "lat": 43.2764989, "lon": 5.3658666, "tags": {"bench": "yes", "bin": "no", "bus": "yes", "highway": "bus_stop", "lit": "no", "name": "Roucas Blanc", "name:oc": "Roc\u00e0s Blanc", "public_transport": "platform", "shelter": "yes", "source:name:oc": "ieo-bdtopoc", "tactile_paving": "no"}}, {"type": "node", "id": 1378916328, "lat": 43.2777859, "lon": 5.36655, "tags": {"bench": "no", "bin": "no", "bus": "yes", "highway": "bus_stop", "lit": "no", "name": "Roucas Blanc Duploy\u00e9", "name:oc": "Roc\u00e0s Blanc - Duploy\u00e9", "public_transport": "platform", "shelter": "no", "source:name:oc": "ieo-bdtopoc", "tactile_paving": "no"}}, {"type": "node", "id": 1378916329, "lat": 43.2778088, "lon": 5.3664968, "tags": {"bus": "yes", "name": "Roucas Blanc Duploy\u00e9", "name:oc": "Roc\u00e0s Blanc - Duploy\u00e9", "public_transport": "stop_position", "source:name:oc": "ieo-bdtopoc"}}, {"type": "node", "id": 1378916330, "lat": 43.277996, "lon": 5.3666177, "tags": {"bench": "yes", "bin": "no", "bus": "yes", "highway": "bus_stop", "lit": "no", "name": "Roucas Blanc Duploy\u00e9", "name:oc": "Roc\u00e0s Blanc - Duploy\u00e9", "public_transport": "platform", "shelter": "no", "source:name:oc": "ieo-bdtopoc", "tactile_paving": "no"}}, {"type": "node", "id": 1378916331, "lat": 43.2787863, "lon": 5.3679056, "tags": {"bench": "yes", "bin": "no", "bus": "yes", "highway": "bus_stop", "lit": "no", "name": "Roucas Estrangin", "name:oc": "Roc\u00e0s - Estrangin", "public_transport": "platform", "shelter": "no", "source:name:oc": "ieo-bdtopoc", "tactile_paving": "no"}}, {"type": "node", "id": 1378916332, "lat": 43.2788064, "lon": 5.3677333, "tags": {"bench": "no", "bin": "no", "bus": "yes", "highway": "bus_stop", "lit": "no", "name": "Roucas Estrangin", "name:oc": "Roc\u00e0s - Estrangin", "public_transport": "platform", "shelter": "no", "source:name:oc": "ieo-bdtopoc", "tactile_paving": "no"}}, {"type": "node", "id": 1382005849, "lat": 43.2788085, "lon": 5.360454, "tags": {"bench": "no", "bin": "no", "bus": "yes", "highway": "bus_stop", "lit": "no", "name": "Bompard", "name:oc": "Bompar", "public_transport": "platform", "shelter": "no", "source:name:oc": "ieo-bdtopoc", "tactile_paving": "no"}}, {"type": "node", "id": 1382005851, "lat": 43.2791699, "lon": 5.3604437, "tags": {"bus": "yes", "name": "Bompard", "name:oc": "Bompar", "public_transport": "stop_position", "source:name:oc": "ieo-bdtopoc"}}, {"type": "node", "id": 1382005859, "lat": 43.2791724, "lon": 5.360497, "tags": {"bench": "no", "bin": "no", "bus": "yes", "highway": "bus_stop", "lit": "no", "name": "Bompard", "name:oc": "Bompar", "public_transport": "platform", "shelter": "no", "source:name:oc": "ieo-bdtopoc", "tactile_paving": "no"}}, {"type": "node", "id": 1390705028, "lat": 43.279433, "lon": 5.363373, "tags": {"bus": "yes", "name": "Roches Chanot", "public_transport": "stop_position", "source:name:oc": "ieo-bdtopoc"}}, {"type": "node", "id": 1438811928, "lat": 43.2779254, "lon": 5.374511, "tags": {"bus": "yes", "name": "P\u00e9rier Gagliardo", "name:oc": "Perier - Gagliardo", "public_transport": "stop_position", "source:name:oc": "ieo-bdtopoc"}}, {"type": "node", "id": 1438847114, "lat": 43.2767879, "lon": 5.3725847, "tags": {"bench": "yes", "bin": "no", "bus": "yes", "highway": "bus_stop", "lit": "no", "name": "Estrangin Colonies", "name:oc": "Estrangin - Colonias", "public_transport": "platform", "shelter": "yes", "source:name:oc": "ieo-bdtopoc", "tactile_paving": "no"}}, {"type": "node", "id": 1438847118, "lat": 43.2769859, "lon": 5.372693, "tags": {"bench": "yes", "bin": "no", "bus": "yes", "highway": "bus_stop", "lit": "no", "name": "Estrangin Colonies", "name:oc": "Estrangin - Colonias", "public_transport": "platform", "shelter": "no", "source:name:oc": "ieo-bdtopoc", "tactile_paving": "no"}}, {"type": "node", "id": 1438847122, "lat": 43.2785169, "lon": 5.3766863, "tags": {"bench": "no", "bin": "yes", "bus": "yes", "highway": "bus_stop", "lit": "no", "name": "P\u00e9rier Arles", "name:oc": "Perier - Arle", "public_transport": "platform", "shelter": "no", "source:name:oc": "ieo-bdtopoc", "tactile_paving": "no"}}, {"type": "node", "id": 1438847126, "lat": 43.2785194, "lon": 5.3764598, "tags": {"bench": "no", "bin": "yes", "bus": "yes", "highway": "bus_stop", "lit": "no", "name": "P\u00e9rier Arles", "name:oc": "Perier - Arle", "public_transport": "platform", "shelter": "no", "source:name:oc": "ieo-bdtopoc", "tactile_paving": "no"}}, {"type": "node", "id": 1438847130, "lat": 43.2785261, "lon": 5.3765787, "tags": {"bus": "yes", "name": "P\u00e9rier Arles", "name:oc": "Perier - Arle", "public_transport": "stop_position", "source:name:oc": "ieo-bdtopoc"}}, {"type": "node", "id": 1438847134, "lat": 43.2785131, "lon": 5.3803317, "tags": {"bench": "no", "bin": "no", "bus": "yes", "highway": "bus_stop", "lit": "no", "name": "P\u00e9rier Cr\u00e9mieux", "name:oc": "Perier - Cremieus", "public_transport": "platform", "shelter": "no", "source:name:oc": "ieo-bdtopoc", "tactile_paving": "yes"}}, {"type": "node", "id": 1438847137, "lat": 43.2785426, "lon": 5.3801759, "tags": {"bus": "yes", "name": "P\u00e9rier Cr\u00e9mieux", "name:oc": "Perier - Cremieus", "public_transport": "stop_position", "source:name:oc": "ieo-bdtopoc"}}, {"type": "node", "id": 1438847143, "lat": 43.2785462, "lon": 5.380008, "tags": {"bench": "no", "bin": "no", "bus": "yes", "highway": "bus_stop", "lit": "no", "name": "P\u00e9rier Cr\u00e9mieux", "name:oc": "Perier - Cremieus", "public_transport": "platform", "shelter": "no", "source:name:oc": "ieo-bdtopoc", "tactile_paving": "no"}}, {"type": "node", "id": 1438847144, "lat": 43.2779063, "lon": 5.3772595, "tags": {"bench": "no", "bin": "yes", "bus": "yes", "highway": "bus_stop", "lit": "no", "name": "P\u00e9rier Escaliers", "name:oc": "Perier - Escaliers", "public_transport": "platform", "shelter": "no", "source:name:oc": "ieo-bdtopoc", "tactile_paving": "no"}}, {"type": "node", "id": 1438847152, "lat": 43.2779608, "lon": 5.3772488, "tags": {"bus": "yes", "name": "P\u00e9rier Escaliers", "name:oc": "Perier - Escaliers", "public_transport": "stop_position", "source:name:oc": "ieo-bdtopoc"}}, {"type": "node", "id": 1438847154, "lat": 43.2780027, "lon": 5.3772276, "tags": {"bench": "no", "bin": "yes", "bus": "yes", "highway": "bus_stop", "lit": "no", "name": "P\u00e9rier Escaliers", "name:oc": "Perier - Escaliers", "public_transport": "platform", "shelter": "no", "source:name:oc": "ieo-bdtopoc", "tactile_paving": "no"}}, {"type": "node", "id": 1438847157, "lat": 43.2779404, "lon": 5.3744503, "tags": {"bench": "no", "bin": "no", "bus": "yes", "highway": "bus_stop", "lit": "no", "name": "P\u00e9rier Gagliardo", "name:oc": "Perier - Gagliardo", "public_transport": "platform", "shelter": "no", "source:name:oc": "ieo-bdtopoc", "tactile_paving": "no"}}, {"type": "node", "id": 1438847165, "lat": 43.2778507, "lon": 5.3748373, "tags": {"bench": "no", "bin": "no", "bus": "yes", "highway": "bus_stop", "lit": "no", "name": "P\u00e9rier Gagliardo", "name:oc": "Perier - Gagliardo", "public_transport": "platform", "shelter": "no", "source:name:oc": "ieo-bdtopoc", "tactile_paving": "no"}}, {"type": "node", "id": 1492452525, "lat": 43.2543842, "lon": 5.3779082, "tags": {"bench": "yes", "bin": "yes", "bus": "yes", "highway": "bus_stop", "name": "Escale Bor\u00e9ly", "name:oc": "Escala Bor\u00e8li", "public_transport": "platform", "shelter": "yes", "source:name:oc": "ieo-bdtopoc"}}, {"type": "node", "id": 1492452526, "lat": 43.2544237, "lon": 5.3779106, "tags": {"bus": "yes", "name": "Escale Bor\u00e9ly", "name:oc": "Escala Bor\u00e8li", "public_transport": "stop_position"}}, {"type": "node", "id": 1492452527, "lat": 43.2545146, "lon": 5.3775843, "tags": {"bus": "yes", "name": "Escale Bor\u00e9ly", "name:oc": "Escala Bor\u00e8li", "public_transport": "stop_position", "source:name:oc": "ieo-bdtopoc"}}, {"type": "node", "id": 1492452528, "lat": 43.2545552, "lon": 5.3775869, "tags": {"bench": "no", "bin": "yes", "bus": "yes", "highway": "bus_stop", "name": "Escale Bor\u00e9ly", "name:oc": "Escala Bor\u00e8li", "public_transport": "platform", "shelter": "no", "source:name:oc": "ieo-bdtopoc"}}, {"type": "node", "id": 1493483296, "lat": 43.2772869, "lon": 5.3617613, "tags": {"bench": "no", "bin": "no", "bus": "yes", "highway": "bus_stop", "lit": "yes", "name": "Traverse Nicolas", "name:oc": "Trav\u00e8rsa Nicolau", "public_transport": "platform", "shelter": "no", "source:name:oc": "ieo-bdtopoc", "tactile_paving": "no"}}, {"type": "node", "id": 1493483312, "lat": 43.2774021, "lon": 5.3619713, "tags": {"bench": "no", "bin": "yes", "bus": "yes", "highway": "bus_stop", "lit": "yes", "name": "Traverse Nicolas", "name:oc": "Trav\u00e8rsa Nicolau", "public_transport": "platform", "shelter": "no", "source:name:oc": "ieo-bdtopoc", "tactile_paving": "no"}}, {"type": "node", "id": 1493483319, "lat": 43.2794278, "lon": 5.3633267, "tags": {"bus": "yes", "highway": "bus_stop", "name": "Roches Chanot", "public_transport": "platform", "source:name:oc": "ieo-bdtopoc", "tactile_paving": "yes", "wheelchair": "yes"}}, {"type": "node", "id": 1500750858, "lat": 43.2755077, "lon": 5.3602164, "tags": {"bus": "yes", "name": "Oriol Corniche", "name:oc": "En Auru\u00f2u - Cornissa", "public_transport": "stop_position", "source:name:oc": "ieo-bdtopoc"}}, {"type": "node", "id": 1667691278, "lat": 43.2786649, "lon": 5.3685546, "tags": {"bus": "yes", "name": "Estrangin Roucas", "name:oc": "Estrangin - Roc\u00e0s", "public_transport": "stop_position", "source:name:oc": "ieo-bdtopoc"}}, {"type": "node", "id": 1667704698, "lat": 43.2763281, "lon": 5.3711631, "tags": {"bench": "no", "bus": "yes", "highway": "bus_stop", "name": "Estrangin C\u00e9lina", "name:oc": "Estrangin - Celina", "network": "RTM", "network:wikidata": "Q3454986", "public_transport": "platform", "shelter": "no"}}, {"type": "node", "id": 1667704699, "lat": 43.2764576, "lon": 5.3700703, "tags": {"bus": "yes", "name": "Estrangin C\u00e9lina", "name:oc": "Estrangin - Celina", "public_transport": "stop_position", "source:name:oc": "ieo-bdtopoc"}}, {"type": "node", "id": 1667704701, "lat": 43.2764518, "lon": 5.3701509, "tags": {"bench": "no", "bus": "yes", "highway": "bus_stop", "name": "Estrangin C\u00e9lina", "name:oc": "Estrangin - Celina", "network": "RTM", "network:wikidata": "Q3454986", "public_transport": "platform", "shelter": "no"}}, {"type": "node", "id": 1667704711, "lat": 43.2786343, "lon": 5.368533, "tags": {"bench": "no", "bin": "no", "bus": "yes", "highway": "bus_stop", "lit": "no", "name": "Estrangin Roucas", "name:oc": "Estrangin - Roc\u00e0s", "public_transport": "platform", "shelter": "no", "source:name:oc": "ieo-bdtopoc", "tactile_paving": "no"}}, {"type": "node", "id": 1667704712, "lat": 43.2788426, "lon": 5.3682668, "tags": {"bus": "yes", "name": "Estrangin Roucas", "name:oc": "Estrangin - Roc\u00e0s", "public_transport": "stop_position", "source:name:oc": "ieo-bdtopoc"}}, {"type": "node", "id": 1667704716, "lat": 43.2788695, "lon": 5.3682976, "tags": {"bench": "no", "bin": "no", "bus": "yes", "highway": "bus_stop", "lit": "no", "name": "Estrangin Roucas", "name:oc": "Estrangin - Roc\u00e0s", "public_transport": "platform", "shelter": "no", "source:name:oc": "ieo-bdtopoc", "tactile_paving": "no"}}, {"type": "node", "id": 1768566932, "lat": 43.2452073, "lon": 5.3803204, "tags": {"bench": "yes", "bus": "yes", "highway": "bus_stop", "name": "Parangon Neptune", "name:oc": "Parangon - Neptun", "public_transport": "platform", "shelter": "yes", "source:name:oc": "ieo-bdtopoc"}}, {"type": "node", "id": 1768566933, "lat": 43.2452411, "lon": 5.3801406, "tags": {"bench": "no", "bus": "yes", "highway": "bus_stop", "name": "Parangon Neptune", "name:oc": "Parangon - Neptun", "public_transport": "platform", "shelter": "no", "source:name:oc": "ieo-bdtopoc"}}, {"type": "node", "id": 1900085364, "lat": 41.5872542, "lon": 9.2912908, "tags": {"amenity": "ferry_terminal", "cargo": "passengers;vehicle", "ferry": "yes", "public_transport": "station"}}, {"type": "node", "id": 1900085407, "lat": 41.6015446, "lon": 9.3830539}, {"type": "node", "id": 1900085417, "lat": 41.2914992, "lon": 9.161989}, {"type": "node", "id": 1900085420, "lat": 41.6331365, "lon": 8.4787615}, {"type": "node", "id": 2134349203, "lat": 41.324454, "lon": 9.2900943}, {"type": "node", "id": 2134349204, "lat": 41.5066169, "lon": 9.3983959}, {"type": "node", "id": 2134349207, "lat": 41.6038494, "lon": 9.3797264}, {"type": "node", "id": 2134349208, "lat": 41.6050884, "lon": 9.3770286}, {"type": "node", "id": 2378870442, "lat": 43.2120448, "lon": 5.3091283}, {"type": "node", "id": 2378870444, "lat": 43.2811641, "lon": 5.3355258}, {"type": "node", "id": 2378870445, "lat": 43.2845676, "lon": 5.336555}, {"type": "node", "id": 3524371307, "lat": 41.607177, "lon": 9.3153967}, {"type": "node", "id": 3526597717, "lat": 43.2919308, "lon": 5.3445724}, {"type": "node", "id": 3561093350, "lat": 43.2762659, "lon": 5.365491, "tags": {"bus": "yes", "name": "Roucas Blanc", "name:oc": "Roc\u00e0s Blanc", "public_transport": "stop_position", "source:name:oc": "ieo-bdtopoc"}}, {"type": "node", "id": 4294444114, "lat": 43.2788541, "lon": 5.3543263, "tags": {"bench": "yes", "bin": "yes", "bus": "yes", "highway": "bus_stop", "lit": "no", "name": "Parc Valmer", "name:oc": "Pargue Valmar", "public_transport": "platform", "shelter": "yes", "source:name:oc": "ieo-bdtopoc", "tactile_paving": "yes", "wheelchair": "yes"}}, {"type": "node", "id": 4294444115, "lat": 43.2623716, "lon": 5.3755377, "tags": {"bus": "yes", "name": "Plage du Prado", "name:oc": "Plaja dau Prad\u00f2t", "public_transport": "stop_position", "source:name:oc": "ieo-bdtopoc"}}, {"type": "node", "id": 5409829973, "lat": 43.2770442, "lon": 5.377804, "tags": {"bench": "no", "bin": "no", "bus": "yes", "highway": "bus_stop", "lit": "no", "name": "Eden Roc", "name:oc": "Eden Roc", "public_transport": "platform", "shelter": "no", "source": "survey", "source:name:oc": "ieo-bdtopoc", "tactile_paving": "no"}}, {"type": "node", "id": 7935426146, "lat": 43.2981715, "lon": 5.3580091}, {"type": "node", "id": 7935426156, "lat": 43.2989137, "lon": 5.358641}, {"type": "node", "id": 7935426168, "lat": 43.3087053, "lon": 5.362655}, {"type": "node", "id": 7935426183, "lat": 43.2986598, "lon": 5.3585244}, {"type": "node", "id": 7935435893, "lat": 43.2924188, "lon": 5.3453052}, {"type": "node", "id": 7936639011, "lat": 43.2157626, "lon": 5.3082818}, {"type": "node", "id": 7936639022, "lat": 43.2865503, "lon": 5.3381957}, {"type": "node", "id": 7936639028, "lat": 43.2141583, "lon": 5.3082799}, {"type": "node", "id": 7936639038, "lat": 43.2131864, "lon": 5.308491}, {"type": "node", "id": 7936639044, "lat": 43.2125866, "lon": 5.3087401}, {"type": "node", "id": 7936639057, "lat": 43.2150405, "lon": 5.3082021}, {"type": "node", "id": 7937664883, "lat": 41.3264982, "lon": 9.2930078}, {"type": "node", "id": 7937664885, "lat": 41.2913157, "lon": 9.1605497}, {"type": "node", "id": 7937664886, "lat": 41.2916359, "lon": 9.1589055}, {"type": "node", "id": 11118128794, "lat": 43.2604436, "lon": 5.3753864, "tags": {"bus": "yes", "highway": "bus_stop", "name": "Plage de l'Huveaune", "name:oc": "Platja de V\u00e8una", "public_transport": "platform", "shelter": "no", "source:name:oc": "ieo-bdtopoc"}}, {"type": "node", "id": 11121716157, "lat": 43.2604277, "lon": 5.3753379, "tags": {"bus": "yes", "name": "Plage de l'Huveaune", "name:oc": "Plaja de V\u00e8una", "public_transport": "stop_position", "source:name:oc": "ieo-bdtopoc"}}, {"type": "node", "id": 12394024941, "lat": 43.2763445, "lon": 5.3711154, "tags": {"bus": "yes", "name": "Estrangin C\u00e9lina", "name:oc": "Estrangin - Celina", "public_transport": "stop_position"}}, {"type": "node", "id": 12396702392, "lat": 41.5270698, "lon": 9.4014644}, {"type": "node", "id": 12396702395, "lat": 41.5912656, "lon": 9.3934164}, {"type": "node", "id": 12396707802, "lat": 41.5942037, "lon": 9.391519}, {"type": "node", "id": 12396707803, "lat": 41.5999269, "lon": 9.3852057}, {"type": "node", "id": 12396707804, "lat": 41.598478, "lon": 9.3871454}, {"type": "node", "id": 12396707805, "lat": 41.5966519, "lon": 9.3892607}, {"type": "node", "id": 12396707806, "lat": 41.5866884, "lon": 9.3957781}, {"type": "node", "id": 12396707807, "lat": 41.4435794, "lon": 9.3836754}, {"type": "node", "id": 12396707808, "lat": 41.3762938, "lon": 9.344558}, {"type": "node", "id": 12396707809, "lat": 41.555754, "lon": 9.4008528}, {"type": "node", "id": 12396707811, "lat": 41.6052804, "lon": 9.31244}, {"type": "node", "id": 12396707814, "lat": 41.6085799, "lon": 9.3234918}, {"type": "node", "id": 12396707817, "lat": 41.6080873, "lon": 9.3180185}, {"type": "node", "id": 12396707825, "lat": 41.6064009, "lon": 9.3724849}, {"type": "node", "id": 12396707826, "lat": 41.6078405, "lon": 9.3584766}, {"type": "node", "id": 12396707827, "lat": 41.6084276, "lon": 9.350261}, {"type": "node", "id": 12396707828, "lat": 41.6087253, "lon": 9.3418162}, {"type": "node", "id": 12396707829, "lat": 41.6087043, "lon": 9.333905}, {"type": "node", "id": 12396707831, "lat": 41.6084872, "lon": 9.3204327}, {"type": "node", "id": 12396707834, "lat": 41.5925524, "lon": 9.2969645}, {"type": "node", "id": 12396707835, "lat": 41.5949517, "lon": 9.2998321}, {"type": "node", "id": 12419677852, "lat": 43.2665986, "lon": 5.3725742}, {"type": "node", "id": 13450504294, "lat": 43.275551, "lon": 5.3601376, "tags": {"bus": "yes", "name": "Oriol Corniche", "name:oc": "En Auru\u00f2u - Cornissa", "public_transport": "stop_position", "source:name:oc": "ieo-bdtopoc"}}, {"type": "node", "id": 13450504295, "lat": 43.2755658, "lon": 5.3601106, "tags": {"bus": "yes", "highway": "bus_stop", "name": "Oriol Corniche", "name:oc": "Auri\u00f2u - Cornissa", "public_transport": "platform", "source:name:oc": "ieo-bdtopoc"}}, {"type": "node", "id": 13450504296, "lat": 43.2794442, "lon": 5.3634422, "tags": {"bus": "yes", "name": "Roches Chanot", "public_transport": "stop_position", "source:name:oc": "ieo-bdtopoc"}}, {"type": "node", "id": 13450504297, "lat": 43.2794371, "lon": 5.363475, "tags": {"bus": "yes", "highway": "bus_stop", "name": "Roches Chanot", "public_transport": "platform", "source:name:oc": "ieo-bdtopoc", "wheelchair": "no"}}, {"type": "node", "id": 13450504298, "lat": 43.2778687, "lon": 5.3748915, "tags": {"bus": "yes", "name": "P\u00e9rier Gagliardo", "name:oc": "Perier - Gagliardo", "public_transport": "stop_position", "source:name:oc": "ieo-bdtopoc"}}, {"type": "way", "id": 174347425, "nodes": [255880618, 7935426168, 7935426156, 7935426183, 255880619, 7935426146, 567463867, 7935435893, 3526597717, 7936639022, 2378870445, 2378870444, 7936639011, 7936639057, 7936639028, 7936639038, 7936639044, 2378870442, 255885515, 1900085420, 7937664886, 7937664885, 1900085417, 2134349203, 7937664883, 12396707808, 12396707807, 2134349204, 12396702392, 12396707809, 12396707806, 12396702395, 12396707802, 12396707805, 12396707804, 12396707803, 1900085407, 2134349207, 2134349208, 12396707825, 12396707826, 12396707827, 12396707828, 12396707829, 12396707814, 12396707831, 12396707817, 3524371307, 12396707811, 12396707835, 12396707834, 1900085364], "tags": {"bicycle": "yes", "duration": "14:00", "fee": "yes", "foot": "yes", "hgv": "yes", "motor_vehicle": "yes", "motorcar": "yes", "motorcycle": "yes", "name": "Marseille - Porto Vecchio", "name:es": "Marsella - Porto Vecchio", "name:oc": "Marselha - Portivechju", "operator": "La M\u00e9ridionale;Corsica Linea", "railway": "no", "route": "ferry", "seamark:type": "ferry_route", "wheelchair": "yes"}}, {"type": "relation", "id": 6399995, "members": [{"type": "node", "ref": 1354654315, "role": "stop"}, {"type": "node", "ref": 1340345925, "role": "platform"}, {"type": "node", "ref": 1354654340, "role": "stop"}, {"type": "node", "ref": 1340345833, "role": "platform"}], "tags": {"name": "Chemin du Roucas Blanc", "name:oc": "Camin dau Roc\u00e0s Blanc", "network": "RTM", "operator": "R\u00e9gie des Transports M\u00e9tropolitains", "public_transport": "stop_area", "source:name:oc": "ieo-bdtopoc", "type": "public_transport"}}, {"type": "relation", "id": 6399997, "members": [{"type": "node", "ref": 1354654316, "role": "stop"}, {"type": "node", "ref": 4294444114, "role": "platform"}, {"type": "node", "ref": 1354654298, "role": "stop"}, {"type": "node", "ref": 1340345800, "role": "platform"}], "tags": {"name": "Corniche Jean Martin", "name:oc": "Cornissa Joan Martin", "network": "RTM", "operator": "R\u00e9gie des Transports M\u00e9tropolitains", "public_transport": "stop_area", "source:name:oc": "ieo-bdtopoc", "type": "public_transport"}}, {"type": "relation", "id": 6399998, "members": [{"type": "node", "ref": 1354654328, "role": "stop"}, {"type": "node", "ref": 1340345840, "role": "platform"}, {"type": "node", "ref": 1354654300, "role": "stop"}, {"type": "node", "ref": 1340345938, "role": "platform"}], "tags": {"name": "Corniche Napoule", "name:oc": "Cornissa - Napola", "network": "RTM", "operator": "R\u00e9gie des Transports M\u00e9tropolitains", "public_transport": "stop_area", "source:name:oc": "ieo-bdtopoc", "type": "public_transport"}}, {"type": "relation", "id": 6399999, "members": [{"type": "node", "ref": 1354654325, "role": "stop"}, {"type": "node", "ref": 1340345837, "role": "platform"}, {"type": "node", "ref": 30084297, "role": "stop"}, {"type": "node", "ref": 1340345891, "role": "platform"}], "tags": {"name": "Corniche Talabot", "name:oc": "Cornissa - Talab\u00f2t", "network": "RTM", "operator": "R\u00e9gie des Transports M\u00e9tropolitains", "public_transport": "stop_area", "source:name:oc": "ieo-bdtopoc", "type": "public_transport"}}, {"type": "relation", "id": 6400000, "members": [{"type": "node", "ref": 1354654334, "role": "stop"}, {"type": "node", "ref": 1340345916, "role": "platform"}, {"type": "node", "ref": 33955540, "role": "stop"}, {"type": "node", "ref": 1340345939, "role": "platform"}, {"type": "node", "ref": 13450504294, "role": "stop"}, {"type": "node", "ref": 13450504295, "role": ""}], "tags": {"name": "Corniche Vallon de L'Oriol", "name:oc": "Valon d\u2019En Auru\u00f2u", "network": "RTM", "operator": "R\u00e9gie des Transports M\u00e9tropolitains", "public_transport": "stop_area", "source:name:oc": "ieo-bdtopoc", "type": "public_transport"}}, {"type": "relation", "id": 6400003, "members": [{"type": "node", "ref": 1340345844, "role": "platform"}, {"type": "node", "ref": 4294444115, "role": "stop"}, {"type": "node", "ref": 1342706124, "role": "stop"}, {"type": "node", "ref": 1340345866, "role": "platform"}], "tags": {"name": "La Plage", "name:oc": "La Plaja", "network": "RTM", "operator": "R\u00e9gie des Transports M\u00e9tropolitains", "public_transport": "stop_area", "source:name:oc": "ieo-bdtopoc", "type": "public_transport"}}, {"type": "relation", "id": 6400004, "members": [{"type": "node", "ref": 1354654311, "role": "stop"}, {"type": "node", "ref": 1340345901, "role": "platform"}, {"type": "node", "ref": 30084315, "role": "stop"}, {"type": "node", "ref": 1340345855, "role": "platform"}], "tags": {"name": "Plage du Proph\u00e8te", "name:oc": "Lo Prof\u00e8ta", "network": "RTM", "operator": "R\u00e9gie des Transports M\u00e9tropolitains", "public_transport": "stop_area", "source:name:oc": "ieo-bdtopoc", "type": "public_transport"}}, {"type": "relation", "id": 6400005, "members": [{"type": "node", "ref": 1340345867, "role": "platform"}, {"type": "node", "ref": 1342706134, "role": "stop"}, {"type": "node", "ref": 1340345809, "role": "platform"}], "tags": {"name": "Parc Bor\u00e9ly", "name:oc": "Pargue Boreli", "network": "RTM", "operator": "R\u00e9gie des Transports Marseillais", "public_transport": "stop_area", "source:name:oc": "ieo-bdtopoc", "type": "public_transport"}}, {"type": "relation", "id": 6400006, "members": [{"type": "node", "ref": 1354654304, "role": "stop"}, {"type": "node", "ref": 1340345822, "role": "platform"}, {"type": "node", "ref": 1354654335, "role": "stop"}, {"type": "node", "ref": 1340345856, "role": "platform"}], "tags": {"name": "Place Amiral Muselier", "name:oc": "Pla\u00e7a Amirau Muselier", "network": "RTM", "operator": "R\u00e9gie des Transports M\u00e9tropolitains", "public_transport": "stop_area", "source:name:oc": "ieo-bdtopoc", "type": "public_transport"}}, {"type": "relation", "id": 6400007, "members": [{"type": "node", "ref": 12419677852, "role": "stop"}, {"type": "node", "ref": 1340345880, "role": "platform"}, {"type": "node", "ref": 1354654302, "role": "stop"}, {"type": "node", "ref": 1340345816, "role": "platform"}], "tags": {"name": "Plage Roucas Blanc", "name:oc": "Plaja - Roc\u00e0s Blanc", "network": "RTM", "operator": "R\u00e9gie des Transports M\u00e9tropolitains", "public_transport": "stop_area", "source:name:oc": "ieo-bdtopoc", "type": "public_transport"}}, {"type": "relation", "id": 6400010, "members": [{"type": "node", "ref": 1354654308, "role": "stop"}, {"type": "node", "ref": 1340345852, "role": "platform"}, {"type": "node", "ref": 1354654337, "role": "stop"}, {"type": "node", "ref": 1340345888, "role": "platform"}], "tags": {"name": "Vallon de la Baudille", "name:oc": "Valon de la Baudilha", "network": "RTM", "operator": "R\u00e9gie des Transports M\u00e9tropolitains", "public_transport": "stop_area", "source:name:oc": "ieo-bdtopoc", "type": "public_transport"}}, {"type": "relation", "id": 6408062, "members": [{"type": "node", "ref": 1363933673, "role": "stop"}, {"type": "node", "ref": 1363933685, "role": "platform"}, {"type": "node", "ref": 1363933695, "role": "stop"}, {"type": "node", "ref": 1363933658, "role": "platform"}, {"type": "node", "ref": 1492452525, "role": "platform"}, {"type": "node", "ref": 1492452526, "role": "stop"}, {"type": "node", "ref": 1492452527, "role": "stop"}, {"type": "node", "ref": 1492452528, "role": "platform"}], "tags": {"name": "Escale Bor\u00e9ly", "name:oc": "Escala Bor\u00e8li", "network": "RTM", "operator": "R\u00e9gie des Transports M\u00e9tropolitains", "public_transport": "stop_area", "source:name:oc": "ieo-bdtopoc", "type": "public_transport"}}, {"type": "relation", "id": 6408066, "members": [{"type": "node", "ref": 1363933655, "role": "platform"}, {"type": "node", "ref": 958315392, "role": "stop"}, {"type": "node", "ref": 1363933660, "role": "platform"}, {"type": "node", "ref": 1363933692, "role": "stop"}], "tags": {"name": "Bowl du Prado", "name:oc": "Bowl dau Prad\u00f2t", "network": "RTM", "operator": "R\u00e9gie des Transports M\u00e9tropolitains", "public_transport": "stop_area", "source:name:oc": "ieo-bdtopoc", "type": "public_transport"}}, {"type": "relation", "id": 6408072, "members": [{"type": "node", "ref": 33955464, "role": "stop"}, {"type": "node", "ref": 1363933674, "role": "platform"}, {"type": "node", "ref": 11121716157, "role": "stop"}, {"type": "node", "ref": 11118128794, "role": "platform"}], "tags": {"name": "Plage de l'Huveaune", "name:oc": "Platja de V\u00e8una", "network": "RTM", "operator": "R\u00e9gie des Transports M\u00e9tropolitains", "public_transport": "stop_area", "source:name:oc": "ieo-bdtopoc", "type": "public_transport"}}, {"type": "relation", "id": 6408078, "members": [{"type": "node", "ref": 1363933681, "role": "stop"}, {"type": "node", "ref": 1363933656, "role": "platform"}, {"type": "node", "ref": 1363933693, "role": "stop"}, {"type": "node", "ref": 1363933683, "role": "platform"}], "tags": {"name": "Tiboulen", "name:oc": "Tibolenc", "network": "RTM", "operator": "R\u00e9gie des Transports M\u00e9tropolitains", "public_transport": "stop_area", "source:name:oc": "ieo-bdtopoc", "type": "public_transport"}}, {"type": "relation", "id": 6408080, "members": [{"type": "node", "ref": 33955477, "role": "stop"}, {"type": "node", "ref": 1363933662, "role": "platform"}, {"type": "node", "ref": 30084268, "role": "stop"}, {"type": "node", "ref": 1363933678, "role": "platform"}], "tags": {"name": "Vieille Chapelle", "name:oc": "Cap\u00e8la Vi\u00e8lha", "network": "RTM", "operator": "R\u00e9gie des Transports M\u00e9tropolitains", "public_transport": "stop_area", "source:name:oc": "ieo-bdtopoc", "type": "public_transport"}}]}