{"version": 0.6, "generator": "Overpass API 0.7.62.8 e802775f", "osm3s": {"timestamp_osm_base": "2026-01-12T04:14:42Z", "copyright": "The data included in this document is from www.openstreetmap.org. The data is made available under ODbL."}, "elements": [{"type": "node", "id": 103865127, "lat": 40.7821764, "lon": -74.0125086, "tags": {"highway": "traffic_signals"}}, {"type": "node", "id": 166879004, "lat": 40.7357917, "lon": -73.9724965}, {"type": "node", "id": 357544577, "lat": 40.7012239, "lon": -73.9445117, "tags": {"amenity": "school", "ele": "5", "gnis:feature_id": "942331", "name": "All Saints High School"}}, {"type": "node", "id": 357548361, "lat": 40.732711, "lon": -73.9825978, "tags": {"addr:city": "Manhattan", "addr:housenumber": "345", "addr:postcode": "10003", "addr:street": "East 15th Street", "amenity": "school", "gnis:feature_id": "943768", "name": "High School for Health Professions and Human Services", "operator": "The New York City Department of Education", "phone": "+1 212 780 9175", "website": "https://www.hphsnyc.org/", "wikidata": "Q5756583", "wikipedia": "en:High School for Health Professions and Human Services"}}, {"type": "node", "id": 357548368, "lat": 40.7097874, "lon": -73.963484, "tags": {"amenity": "school", "ele": "13", "gnis:feature_id": "943769", "name": "Beth Jacob Seminary"}}, {"type": "node", "id": 357551778, "lat": 40.6971081, "lon": -73.9116987, "tags": {"amenity": "school", "ele": "15", "gnis:feature_id": "945328", "name": "Bushwick High School"}}, {"type": "node", "id": 357561095, "lat": 40.74528, "lon": -74.00472, "tags": {"amenity": "school", "ele": "4", "gnis:feature_id": "950991", "name": "General Theological Seminary", "wheelchair": "yes", "wikidata": "Q1501676", "wikipedia": "en:General Theological Seminary"}}, {"type": "node", "id": 357565063, "lat": 40.7234356, "lon": -73.9540269, "tags": {"amenity": "school", "ele": "4", "gnis:feature_id": "953064", "name": "Holy Family School"}}, {"type": "node", "id": 357567194, "lat": 40.701056, "lon": -73.9274398, "tags": {"amenity": "school", "ele": "18", "gnis:feature_id": "954238", "name": "Intermediate School 347"}}, {"type": "node", "id": 357567347, "lat": 40.7197963, "lon": -73.977488, "tags": {"amenity": "school", "ele": "3", "gnis:feature_id": "954282", "name": "Public School M188 The Island School"}}, {"type": "node", "id": 357567433, "lat": 40.6979009, "lon": -73.9809668, "tags": {"amenity": "school", "ele": "5", "gnis:feature_id": "954305", "name": "Intermediate/High School 265"}}, {"type": "node", "id": 357567542, "lat": 40.7295465, "lon": -73.982639, "tags": {"amenity": "school", "ele": "6", "gnis:feature_id": "954336", "name": "Twelfth Street Academy"}}, {"type": "node", "id": 357573242, "lat": 40.6984361, "lon": -73.9595827, "tags": {"amenity": "school", "ele": "5", "gnis:feature_id": "958471", "name": "New York Community College of Applied Arts and Sciences"}}, {"type": "node", "id": 357576745, "lat": 40.7753791, "lon": -73.9812499, "tags": {"amenity": "school", "ele": "24", "gnis:feature_id": "960269", "name": "Pharmacy College"}}, {"type": "node", "id": 357578424, "lat": 40.7442685, "lon": -74.0004172, "tags": {"amenity": "school", "check_date": "2024-04-28", "ele": "6", "gnis:feature_id": "961248", "name": "Public School 11"}}, {"type": "node", "id": 357578458, "lat": 40.7578503, "lon": -73.9389736}, {"type": "node", "id": 357578602, "lat": 40.7143829, "lon": -73.9956849, "tags": {"addr:city": "New York", "addr:housenumber": "40", "addr:postcode": "10002", "addr:state": "NY", "addr:street": "Division Street", "amenity": "school", "ele": "17", "name": "Yung Wing Elementary", "ref": "PS124", "website": "https://ps124m.org"}}, {"type": "node", "id": 357578738, "lat": 40.741213, "lon": -73.9801389, "tags": {"amenity": "school", "ele": "10", "gnis:feature_id": "961340", "name": "Public School 14"}}, {"type": "node", "id": 357579076, "lat": 40.7551017, "lon": -73.9659718, "tags": {"amenity": "school", "ele": "12", "gnis:feature_id": "961413", "name": "United Nations School"}}, {"type": "node", "id": 357579218, "lat": 40.7567683, "lon": -73.9723609, "tags": {"amenity": "school", "ele": "15", "gnis:feature_id": "961446", "name": "Public School 18"}}, {"type": "node", "id": 357579307, "lat": 40.7751107, "lon": -73.9526983, "tags": {"amenity": "school", "ele": "17", "gnis:feature_id": "961473", "name": "Public School 190"}}, {"type": "node", "id": 357579367, "lat": 40.7398643, "lon": -73.9251721}, {"type": "node", "id": 357579732, "lat": 40.7162135, "lon": -73.9987505, "tags": {"amenity": "school", "ele": "7", "gnis:feature_id": "961549", "name": "Public School 23"}}, {"type": "node", "id": 357579998, "lat": 40.6978029, "lon": -73.9809719, "tags": {"amenity": "school", "ele": "5", "gnis:feature_id": "961613", "name": "Public School 287"}}, {"type": "node", "id": 357580277, "lat": 40.779268, "lon": -73.9562492, "tags": {"amenity": "school", "ele": "27", "gnis:feature_id": "961668", "name": "Public School 37"}}, {"type": "node", "id": 357580621, "lat": 40.7591213, "lon": -73.9666402, "tags": {"addr:city": "New York", "addr:country": "US", "addr:housenumber": "233", "addr:postcode": "10022", "addr:state": "NY", "addr:street": "East 56th Street", "amenity": "school", "ele": "15", "gnis:feature_id": "961768", "grades": "3K-5", "internet_access": "yes", "name": "Public School 59", "polling_station": "yes", "website": "https://ps59.net/", "wheelchair": "yes"}}, {"type": "node", "id": 357580682, "lat": 40.7278799, "lon": -74.0040284, "tags": {"amenity": "school", "ele": "6", "gnis:feature_id": "961786", "name": "Public School 621"}}, {"type": "node", "id": 357580780, "lat": 40.7634348, "lon": -73.9795833, "tags": {"amenity": "school", "ele": "20", "gnis:feature_id": "961811", "name": "Public School 69"}}, {"type": "node", "id": 357580868, "lat": 40.7056583, "lon": -73.9115257, "tags": {"amenity": "school", "ele": "27", "gnis:feature_id": "961837", "name": "Public School 75"}}, {"type": "node", "id": 357580991, "lat": 40.703801, "lon": -73.9120307, "tags": {"amenity": "school", "ele": "21", "gnis:feature_id": "961870", "name": "Public School 81"}}, {"type": "node", "id": 357581046, "lat": 40.7006584, "lon": -73.9181926, "tags": {"amenity": "school", "ele": "11", "gnis:feature_id": "961886", "name": "Public School 86"}}, {"type": "node", "id": 357583594, "lat": 40.7076027, "lon": -73.9143036, "tags": {"amenity": "school", "ele": "26", "gnis:feature_id": "963273", "name": "Saint Aloysius School"}}, {"type": "node", "id": 357584102, "lat": 40.7195468, "lon": -73.94236, "tags": {"amenity": "school", "ele": "8", "gnis:feature_id": "963418", "name": "Saint Cecilia School"}}, {"type": "node", "id": 357584495, "lat": 40.71667, "lon": -73.95833, "tags": {"amenity": "school", "ele": "8", "gnis:feature_id": "963503", "name": "Saint Francis Preparatory School"}}, {"type": "node", "id": 357585517, "lat": 40.7628794, "lon": -73.9115257, "tags": {"amenity": "school", "ele": "21", "gnis:feature_id": "963772", "name": "Saint Josephs School"}}, {"type": "node", "id": 357586417, "lat": 40.7430624, "lon": -73.9531269, "tags": {"addr:housenumber": "10-08", "addr:postcode": "11101", "addr:street": "49th Avenue", "amenity": "school", "ele": "5", "gnis:feature_id": "963971", "name": "Saint Marys School"}}, {"type": "node", "id": 357593428, "lat": 40.707047, "lon": -73.9440266, "tags": {"amenity": "school", "ele": "9", "gnis:feature_id": "967830", "name": "Most Holy Trinity School"}}, {"type": "node", "id": 357610557, "lat": 40.7144444, "lon": -73.9975, "tags": {"amenity": "school", "ele": "11", "gnis:feature_id": "2063258", "name": "Public School 124", "wheelchair": "limited"}}, {"type": "node", "id": 357612389, "lat": 40.7847919, "lon": -73.957686, "tags": {"amenity": "school", "mascot": "Cardinals", "name": "Convent of the Sacred Heart"}}, {"type": "node", "id": 357618078, "lat": 40.7514099, "lon": -73.9368787, "tags": {"amenity": "school", "ele": "10", "gnis:feature_id": "2080357", "mascot": "Eagles", "name": "Academy of American Studies", "wikidata": "Q4671418", "wikipedia": "en:Academy of American Studies"}}, {"type": "node", "id": 357618139, "lat": 40.7590882, "lon": -73.9213947, "tags": {"addr:housenumber": "32-52", "addr:postcode": "11106", "addr:street": "37th Street", "amenity": "school", "ele": "15", "gnis:feature_id": "2080377", "name": "Most Precious Blood School"}}, {"type": "node", "id": 357618145, "lat": 40.7517275, "lon": -73.936783, "tags": {"amenity": "school", "ele": "10", "gnis:feature_id": "2080379", "name": "Newcomers School", "wikidata": "Q7017651", "wikipedia": "en:Newcomers High School"}}, {"type": "node", "id": 357618189, "lat": 40.7544444, "lon": -73.9311111, "tags": {"amenity": "school", "ele": "12", "gnis:feature_id": "2080394", "name": "Queens Lutheran School"}}, {"type": "node", "id": 357618546, "lat": 40.7194428, "lon": -73.9821917, "tags": {"addr:city": "New York", "addr:housenumber": "219", "addr:postcode": "10002", "addr:state": "NY", "addr:street": "Stanton Street", "amenity": "school", "gnis:feature_id": "2080642", "name": "Our Lady of Sorrows School", "religion": "christian"}}, {"type": "node", "id": 357618564, "lat": 40.7313624, "lon": -73.9944525, "tags": {"addr:street": "East 8th Street", "alt_name": "Cantor Film Center", "amenity": "school", "ele": "9", "gnis:feature_id": "2080741", "name": "Iris and B Gerald Cantor Film Center"}}, {"type": "node", "id": 357618567, "lat": 40.7288889, "lon": -73.9952778, "tags": {"amenity": "school", "ele": "11", "gnis:feature_id": "2080751", "name": "Brookdale Center Hebrew Union College"}}, {"type": "node", "id": 357618575, "lat": 40.7305142, "lon": -73.9988154, "tags": {"amenity": "school", "ele": "7", "gnis:feature_id": "2080757", "name": "Hagop Kevorkian Center for Near Eastern Studies", "website": "https://as.nyu.edu"}}, {"type": "node", "id": 357618581, "lat": 40.7291677, "lon": -74.0002418, "tags": {"amenity": "school", "ele": "7", "gnis:feature_id": "2080762", "name": "Lower West Side Children's Center"}}, {"type": "node", "id": 357618765, "lat": 40.6951195, "lon": -73.9924114}, {"type": "node", "id": 357619111, "lat": 40.7061075, "lon": -73.963051, "tags": {"addr:housenumber": "505", "addr:postcode": "11211", "addr:street": "Bedford Avenue", "amenity": "school", "ele": "16", "gnis:feature_id": "2081633", "name": "Yeshiva Yesoda Hatora of K'Hal Adas Yereim"}}, {"type": "node", "id": 357619272, "lat": 40.7011228, "lon": -73.9445018, "tags": {"amenity": "school", "ele": "5", "gnis:feature_id": "2081877", "name": "All Saints Elementary School"}}, {"type": "node", "id": 357619312, "lat": 40.702408, "lon": -73.9598031, "tags": {"amenity": "school", "ele": "8", "gnis:feature_id": "2081890", "name": "Beth Chana School for Girls"}}, {"type": "node", "id": 357619314, "lat": 40.705, "lon": -73.9597222, "tags": {"amenity": "school", "ele": "16", "gnis:feature_id": "2081891", "name": "Beth Rachel School for Girls"}}, {"type": "node", "id": 357619348, "lat": 40.705, "lon": -73.9530556, "tags": {"amenity": "school", "ele": "9", "gnis:feature_id": "2081901", "name": "Bnos Yakov School for Girls"}}, {"type": "node", "id": 357619376, "lat": 40.6972222, "lon": -73.9141667, "tags": {"amenity": "school", "ele": "12", "gnis:feature_id": "2082095", "name": "All Leadership Secondary School"}}, {"type": "node", "id": 357619392, "lat": 40.6968035, "lon": -73.9118129, "tags": {"amenity": "school", "ele": "15", "gnis:feature_id": "2082100", "name": "Bushwick High School for Social Justice", "wikidata": "Q5001596"}}, {"type": "node", "id": 357619396, "lat": 40.6969455, "lon": -73.9121377, "tags": {"amenity": "school", "ele": "15", "gnis:feature_id": "2082101", "name": "New York Harbor School"}}, {"type": "node", "id": 357619399, "lat": 40.6965933, "lon": -73.9123186, "tags": {"amenity": "school", "ele": "15", "gnis:feature_id": "2082102", "name": "High School of Urban Planning"}}, {"type": "node", "id": 357619470, "lat": 40.7049705, "lon": -73.9618503, "tags": {"amenity": "school", "ele": "15", "gnis:feature_id": "2082147", "name": "Hychel Hatorah"}}, {"type": "node", "id": 357619495, "lat": 40.7008333, "lon": -73.9277778, "tags": {"amenity": "school", "ele": "19", "gnis:feature_id": "2082154", "name": "Intermediate School 349"}}, {"type": "node", "id": 357619538, "lat": 40.7040001, "lon": -73.9605387, "tags": {"amenity": "school", "ele": "13", "gnis:feature_id": "2082168", "name": "Kedishas Naftoli"}}, {"type": "node", "id": 357619609, "lat": 40.7021304, "lon": -73.9557045, "tags": {"amenity": "school", "ele": "5", "gnis:feature_id": "2082191", "name": "Mesivta Tifereth Zvi Spinka"}}, {"type": "node", "id": 357619668, "lat": 40.7173889, "lon": -73.9572791, "tags": {"addr:housenumber": "180", "addr:postcode": "11211", "addr:street": "North 7th Street", "amenity": "school", "ele": "8", "gnis:feature_id": "2082227", "name": "Northside Catholic School at Saint Vincent De Paul"}}, {"type": "node", "id": 357619823, "lat": 40.7112526, "lon": -73.9427495, "tags": {"amenity": "school", "ele": "12", "gnis:feature_id": "2082277", "name": "Saint John the Evangelist Lutheran School"}}, {"type": "node", "id": 357619908, "lat": 40.7018969, "lon": -73.9626396, "tags": {"amenity": "school", "ele": "5", "gnis:feature_id": "2082296", "name": "Talmud Torah Dnitra"}}, {"type": "node", "id": 357619914, "lat": 40.7049431, "lon": -73.9618226, "tags": {"amenity": "school", "ele": "15", "gnis:feature_id": "2082298", "name": "Talmud Torah Tashbar"}}, {"type": "node", "id": 357619918, "lat": 40.7008684, "lon": -73.9621416, "tags": {"addr:housenumber": "35", "addr:postcode": "11249", "addr:street": "Hewes Street", "amenity": "school", "ele": "4", "gnis:feature_id": "2082299", "name": "Talmud Torah Toldos Hillel-Krasna"}}, {"type": "node", "id": 357619933, "lat": 40.7050203, "lon": -73.9491762, "tags": {"amenity": "school", "ele": "4", "gnis:feature_id": "2082387", "name": "Tiferes Bnos Girls School"}}, {"type": "node", "id": 357619959, "lat": 40.7038906, "lon": -73.9605387, "tags": {"amenity": "school", "ele": "13", "gnis:feature_id": "2082395", "name": "Yeshiva Beth Yitzchok D Spinka"}}, {"type": "node", "id": 357619969, "lat": 40.7002578, "lon": -73.9535793, "tags": {"amenity": "school", "ele": "3", "gnis:feature_id": "2082398", "name": "Yeshiva Bnos Ahavas Israel"}}, {"type": "node", "id": 357619986, "lat": 40.7061623, "lon": -73.9631007, "tags": {"addr:housenumber": "505", "addr:postcode": "11211", "addr:street": "Bedford Avenue", "amenity": "school", "ele": "16", "gnis:feature_id": "2082404", "name": "Yeshiva Jesode Hatorah"}}, {"type": "node", "id": 357620024, "lat": 40.7030556, "lon": -73.9508333, "tags": {"amenity": "school", "ele": "5", "gnis:feature_id": "2082416", "name": "Yeshiva Sharie Torah"}}, {"type": "node", "id": 357620039, "lat": 40.7061399, "lon": -73.9594877, "tags": {"addr:housenumber": "188", "addr:postcode": "11211", "addr:street": "Ross Street", "amenity": "school", "ele": "16", "gnis:feature_id": "2082421", "name": "Yeshiva Tzemach Tzadik Viznitz"}}, {"type": "node", "id": 357620046, "lat": 40.7025848, "lon": -73.9597653, "tags": {"amenity": "school", "ele": "8", "gnis:feature_id": "2082423", "name": "Yeshiva Yesode Hatorah"}}, {"type": "node", "id": 357620261, "lat": 40.7326857, "lon": -74.0009895, "tags": {"amenity": "school", "ele": "6", "gnis:feature_id": "2082893", "name": "Saint Joseph's Washington Place School"}}, {"type": "node", "id": 357620429, "lat": 40.7438889, "lon": -73.9822222, "tags": {"amenity": "school", "ele": "12", "gnis:feature_id": "2083088", "name": "Lexington Avenue Campus Touro College"}}, {"type": "node", "id": 357620637, "lat": 40.7708333, "lon": -73.9801592, "tags": {"amenity": "school", "ele": "23", "gnis:feature_id": "2083444", "name": "Ethical Culture School"}}, {"type": "node", "id": 357620705, "lat": 40.7658333, "lon": -73.9646959, "tags": {"amenity": "school", "ele": "19", "gnis:feature_id": "2083511", "mascot": "Falcons", "name": "Saint Vincent Ferrer School", "wikidata": "Q7592088"}}, {"type": "node", "id": 357620708, "lat": 40.7672109, "lon": -73.9641727, "tags": {"amenity": "school", "ele": "23", "gnis:feature_id": "2083516", "name": "Kennedy Child Study Center"}}, {"type": "node", "id": 357620798, "lat": 40.7847222, "lon": -73.9575, "tags": {"amenity": "school", "ele": "33", "gnis:feature_id": "2083554", "name": "Duchesne Residence School"}}, {"type": "node", "id": 357620803, "lat": 40.784046, "lon": -73.9571, "tags": {"amenity": "school", "ele": "33", "gnis:feature_id": "2083556", "mascot": "Sabers", "name": "Spence School", "website": "https://www.spenceschool.org/", "wikidata": "Q7575953"}}, {"type": "node", "id": 357620806, "lat": 40.7838889, "lon": -73.9558333, "tags": {"amenity": "school", "ele": "33", "gnis:feature_id": "2083557", "grades": "K-12", "mascot": "Tigers", "mascot:name": "Ivan the Tiger", "name": "Dalton School", "wikidata": "Q3508986"}}, {"type": "node", "id": 357621335, "lat": 40.768641, "lon": -73.9666795, "tags": {"amenity": "school", "ele": "21", "gnis:feature_id": "2083880", "mascot": "Tigers", "mascot:name": "Dominic the Tiger", "name": "Dominican Academy", "wikidata": "Q5290722"}}, {"type": "node", "id": 357621359, "lat": 40.7653352, "lon": -73.9597364, "tags": {"amenity": "school", "ele": "17", "gnis:feature_id": "2083886", "name": "Ella Baker School"}}, {"type": "node", "id": 357621363, "lat": 40.7653519, "lon": -73.9597637, "tags": {"addr:housenumber": "317", "addr:street": "East 67th Street", "amenity": "school", "ele": "17", "gnis:feature_id": "2083887", "name": "Vanguard High School", "operator": "New York City Department of Education", "operator:short": "NYC Public Schools", "operator:type": "public", "operator:wikidata": "Q408230", "ref": "02M449", "website": "https://vanguardhighschool.org/"}}, {"type": "node", "id": 357621367, "lat": 40.7655687, "lon": -73.9595921, "tags": {"amenity": "school", "ele": "17", "gnis:feature_id": "2083888", "name": "M459 Manhattan International High School"}}, {"type": "node", "id": 357621383, "lat": 40.7324983, "lon": -73.9827378, "tags": {"amenity": "school", "ele": "7", "gnis:feature_id": "2083892", "name": "Institute for Collaborative Education"}}, {"type": "node", "id": 357621469, "lat": 40.7172222, "lon": -73.9894492, "tags": {"amenity": "school", "ele": "11", "gnis:feature_id": "2083912", "name": "Manhattan Bridges High School"}}, {"type": "node", "id": 357621474, "lat": 40.7747746, "lon": -73.9853025, "tags": {"addr:city": "New York", "addr:housenumber": "122", "addr:postcode": "10023", "addr:state": "NY", "addr:street": "Amsterdam Avenue", "amenity": "school", "fax": "+1-917-441-3693", "grades": "9-12", "name": "High School of Arts and Technology", "phone": "+1-212-501-1198", "ref": "M494", "religion": "none", "website": "https://www.hsartstech.org/", "wikidata": "Q5756646", "wikipedia": "en:High School of the Arts and Technology"}}, {"type": "node", "id": 357621494, "lat": 40.7354798, "lon": -73.9813483, "tags": {"addr:housenumber": "320", "addr:postcode": "10003", "addr:street": "East 20th Street", "alt_name": "Middle School 255", "amenity": "school", "ele": "6", "fax": "+1-212-614-0095", "gnis:feature_id": "2083918", "name": "Salk School of Science", "phone": "+1-212-614-8785", "short_name": "M.S. 255", "website": "https://www.salkschool.org"}}, {"type": "node", "id": 357621498, "lat": 40.7441667, "lon": -74.0005556, "tags": {"amenity": "school", "ele": "6", "gnis:feature_id": "2083920", "name": "Middle School 260"}}, {"type": "node", "id": 357621515, "lat": 40.7172739, "lon": -73.9895047, "tags": {"amenity": "school", "ele": "11", "gnis:feature_id": "2083925", "name": "New Design High School"}}, {"type": "node", "id": 357621536, "lat": 40.7424139, "lon": -74.0025156, "tags": {"addr:city": "New York", "addr:housenumber": "333", "addr:postcode": "10011", "addr:state": "NY", "addr:street": "West 17th Street", "amenity": "school", "ele": "5", "fax": "+1-212-675-6524", "fee": "no", "gnis:feature_id": "2083930", "grades": "9-12", "isced:level": "2-3", "name": "New York City Museum School", "operator": "New York City Department of Education", "operator:short": "NYC Public Schools", "operator:type": "public", "operator:wikidata": "Q408230", "phone": "+1-212-675-6206", "ref": "M414", "religion": "none", "website": "https://www.nycmuseumschool.org", "wheelchair": "yes", "wikidata": "Q12063910"}}, {"type": "node", "id": 357621549, "lat": 40.7808333, "lon": -73.9483333, "tags": {"amenity": "school", "ele": "9", "gnis:feature_id": "2083933", "name": "Our Lady of Good Counsel School"}}, {"type": "node", "id": 357621553, "lat": 40.7655631, "lon": -73.9935861, "tags": {"addr:city": "New York", "addr:housenumber": "525", "addr:postcode": "10019", "addr:state": "NY", "addr:street": "West 50th Street", "amenity": "school", "ele": "8", "gnis:feature_id": "2083934", "name": "Park West Educational Campus"}}, {"type": "node", "id": 357621557, "lat": 40.7686111, "lon": -73.9663889, "tags": {"amenity": "school", "ele": "22", "gnis:feature_id": "2083935", "name": "Peter G Peterson Center for International Studies"}}, {"type": "node", "id": 357621583, "lat": 40.7355177, "lon": -73.9814466, "tags": {"addr:housenumber": "320", "addr:postcode": "10003", "addr:street": "East 20th Street", "alt_name": "Augustus Saint-Gaudens Elementary School", "amenity": "school", "ele": "6", "fax": "+1-212-533-5388", "gnis:feature_id": "2083941", "name": "Public School 40", "phone": "+1-212-475-5500", "short_name": "P.S. 40", "website": "https://www.ps40.org/"}}, {"type": "node", "id": 357621600, "lat": 40.7847222, "lon": -73.95, "tags": {"amenity": "school", "ele": "15", "gnis:feature_id": "2083945", "name": "Public School 77"}}, {"type": "node", "id": 357621626, "lat": 40.7185361, "lon": -73.9984892, "tags": {"amenity": "school", "education": "school", "ele": "6", "gnis:feature_id": "2083951", "name": "Public School 130"}}, {"type": "node", "id": 357621633, "lat": 40.7115959, "lon": -73.9850058}, {"type": "node", "id": 357621676, "lat": 40.7611111, "lon": -73.9883333, "tags": {"amenity": "school", "ele": "15", "gnis:feature_id": "2083997", "name": "Public School 212"}}, {"type": "node", "id": 357621680, "lat": 40.7751724, "lon": -73.9529245, "tags": {"amenity": "school", "check_date": "2025-07-16", "gnis:feature_id": "2083998", "name": "Public School 290"}}, {"type": "node", "id": 357621684, "lat": 40.7751127, "lon": -73.9618052, "tags": {"addr:city": "New York", "addr:housenumber": "60", "addr:postcode": "10075", "addr:state": "NY", "addr:street": "East 78th Street", "amenity": "school", "denomination": "orthodox", "ele": "22", "email": "us@ramaz.org", "gnis:feature_id": "2083999", "name": "Ramaz Upper School", "operator": "Ramaz", "phone": "+1 212-774-8070", "religion": "jewish", "website": "https://www.ramaz.org/"}}, {"type": "node", "id": 357621702, "lat": 40.7780616, "lon": -73.9474884, "tags": {"addr:city": "New York", "addr:housenumber": "421", "addr:postcode": "10128", "addr:state": "NY", "addr:street": "East 88th Street", "amenity": "school", "ele": "10", "gnis:feature_id": "2084003", "name": "Yorkville Community School", "operator": "NYC Department of Education", "operator:type": "public", "website": "https://yorkvillecommunityschool.org/"}}, {"type": "node", "id": 357621746, "lat": 40.7737335, "lon": -73.9505729, "tags": {"amenity": "school", "gnis:feature_id": "2084014", "name": "Saint Stephen of Hungary School", "website": "https://www.saintstephenschool.org/"}}, {"type": "node", "id": 357621754, "lat": 40.7390224, "lon": -73.9853705, "tags": {"addr:city": "New York", "addr:housenumber": "127", "addr:postcode": "10010", "addr:state": "NY", "addr:street": "East 22nd Street", "amenity": "school", "ele": "9", "gnis:feature_id": "2084016", "name": "School of the Future"}}, {"type": "node", "id": 357621758, "lat": 40.7172511, "lon": -73.9894777, "tags": {"amenity": "school", "ele": "11", "gnis:feature_id": "2084017", "mascot": "Bears", "name": "Seward Park High School"}}, {"type": "node", "id": 357621884, "lat": 40.7466876, "lon": -74.0050109, "tags": {"amenity": "school", "check_date": "2024-04-28", "ele": "3", "gnis:feature_id": "2091592", "name": "Guardian Angel School"}}, {"type": "node", "id": 357622032, "lat": 40.7747751, "lon": -73.9853689, "tags": {"addr:city": "New York", "addr:housenumber": "122", "addr:postcode": "10023", "addr:state": "NY", "addr:street": "Amsterdam Avenue", "amenity": "school", "ele": "18", "fax": "+1-212-501-1171", "fee": "no", "gnis:feature_id": "2091989", "grades": "9-12", "name": "Manhattan Hunter Science High School", "phone": "+1-212-501-1235", "ref": "M541", "religion": "none", "website": "https://www.mhshs.org/", "wheelchair": "limited", "wikidata": "Q6749217", "wikipedia": "en:Manhattan/Hunter College High School for Sciences"}}, {"type": "node", "id": 357623980, "lat": 40.7154162, "lon": -73.9617216, "tags": {"amenity": "school", "ele": "12", "gnis:feature_id": "2097561", "name": "Our Lady of Consolation School"}}, {"type": "node", "id": 357624025, "lat": 40.7113396, "lon": -73.9427699, "tags": {"amenity": "school", "ele": "12", "gnis:feature_id": "2097577", "name": "Saint Johns Evangelical Lutheran School"}}, {"type": "node", "id": 357624501, "lat": 40.7849572, "lon": -73.9552015, "tags": {"addr:city": "New York", "addr:housenumber": "56", "addr:postcode": "10128", "addr:street": "East 93rd Street", "amenity": "school", "gnis:feature_id": "2099753", "name": "Spence Lower School", "old_name": "Smithers Alcoholism Center", "operator": "The Spence School", "phone": "+1 212-289-5940", "website": "https://www.spenceschool.org/page/program/lower-school"}}, {"type": "node", "id": 357625187, "lat": 40.7788889, "lon": -73.9572222, "tags": {"amenity": "school", "ele": "28", "gnis:feature_id": "2104352", "mascot": "Rams", "name": "Ramaz School", "religion": "jewish", "wikidata": "Q7289144"}}, {"type": "node", "id": 357630693, "lat": 40.7095462, "lon": -73.9447343, "tags": {"addr:city": "Brooklyn", "addr:housenumber": "223", "addr:postcode": "11206", "addr:state": "NY", "addr:street": "Graham Avenue", "amenity": "school", "ele": "12", "gnis:feature_id": "2363677", "name": "Lyons Community School", "operator": "New York City Department of Education", "operator:short": "NYC Public Schools", "operator:type": "public", "operator:wikidata": "Q408230", "operator:wikipedia": "en:New York City Department of Education", "website": "https://www.lyonscommunityschool.org/"}}, {"type": "node", "id": 357632422, "lat": 40.7388889, "lon": -73.9936111, "tags": {"amenity": "school", "ele": "11", "gnis:feature_id": "2368020", "name": "Taylor Business Institute"}}, {"type": "node", "id": 357648433, "lat": 40.7199987, "lon": -73.9773764, "tags": {"amenity": "school", "ele": "3", "gnis:feature_id": "2493021", "name": "Public School MO94"}}, {"type": "node", "id": 357648477, "lat": 40.7849411, "lon": -73.9737421, "tags": {"addr:city": "New York", "addr:housenumber": "100", "addr:postcode": "10024", "addr:state": "NY", "addr:street": "West 84th Street", "amenity": "school", "education": "school", "ele": "20", "fax": "+1-212-579-9728", "gnis:feature_id": "2493035", "grades": "5-8", "isced:level": "1-2", "name": "M.S. 243 Center School", "operator": "New York City Department of Education", "operator:short": "NYC Public Schools", "operator:type": "public", "operator:wikidata": "Q408230", "phone": "+1-212-799-1477", "ref": "M243", "religion": "none", "website": "https://thecenterschool.org/", "wheelchair": "limited", "wikidata": "Q102123850"}}, {"type": "node", "id": 357648487, "lat": 40.7435086, "lon": -73.9335532, "tags": {"amenity": "school", "ele": "8", "gnis:feature_id": "2493038", "name": "Q530 International High School at LaGuardia Community College", "wheelchair": "yes"}}, {"type": "node", "id": 357648532, "lat": 40.7654825, "lon": -73.9595892, "tags": {"amenity": "school", "ele": "17", "gnis:feature_id": "2493060", "name": "M565 Urban Academy Laboratory High School"}}, {"type": "node", "id": 357648600, "lat": 40.7836269, "lon": -73.9522654, "tags": {"amenity": "school", "ele": "27", "gnis:feature_id": "2493092", "name": "Public School M333 Manhattan School for Children"}}, {"type": "node", "id": 357648621, "lat": 40.7615114, "lon": -73.9886384, "tags": {"amenity": "school", "ele": "15", "gnis:feature_id": "2493099", "name": "M408 Professional Performing Arts High School"}}, {"type": "node", "id": 357650837, "lat": 40.7598662, "lon": -73.9750298, "tags": {"amenity": "school", "ele": "19", "gnis:feature_id": "2501238", "name": "Laboratory Institute of Merchandising"}}, {"type": "node", "id": 357653013, "lat": 40.7322655, "lon": -74.0030561, "tags": {"amenity": "school", "ele": "6", "gnis:feature_id": "2515677", "name": "Greenwich House Preschool"}}, {"type": "node", "id": 357653017, "lat": 40.7322415, "lon": -74.003083, "tags": {"amenity": "school", "ele": "6", "gnis:feature_id": "2515678", "name": "Barrow Street Nursery School"}}, {"type": "node", "id": 357729842, "lat": 40.7764048, "lon": -74.0153378}, {"type": "node", "id": 357731572, "lat": 40.7757059, "lon": -74.0260381}, {"type": "node", "id": 357744909, "lat": 40.7833304, "lon": -74.0134391}, {"type": "node", "id": 357745405, "lat": 40.775625, "lon": -74.0249054}, {"type": "node", "id": 357746581, "lat": 40.7416006, "lon": -74.0286587, "tags": {"amenity": "school", "ele": "9", "gnis:feature_id": "2060316", "name": "Hoboken Catholic Academy"}}, {"type": "node", "id": 387183813, "lat": 40.7364197, "lon": -73.9744263}, {"type": "node", "id": 387183814, "lat": 40.7357726, "lon": -73.9728699}, {"type": "node", "id": 440243693, "lat": 40.7684892, "lon": -74.0286853, "tags": {"highway": "traffic_signals"}}, {"type": "node", "id": 617342584, "lat": 40.7150693, "lon": -73.945353}, {"type": "node", "id": 617357397, "lat": 40.7099117, "lon": -73.9400848}, {"type": "node", "id": 617357398, "lat": 40.7101718, "lon": -73.9373402}, {"type": "node", "id": 617357400, "lat": 40.7124115, "lon": -73.9383756}, {"type": "node", "id": 617357401, "lat": 40.7119097, "lon": -73.9404277}, {"type": "node", "id": 617357403, "lat": 40.7116478, "lon": -73.94034}, {"type": "node", "id": 617375609, "lat": 40.7084876, "lon": -73.9398081}, {"type": "node", "id": 617375628, "lat": 40.7089921, "lon": -73.9398867}, {"type": "node", "id": 888905617, "lat": 40.7150849, "lon": -73.9569057, "tags": {"amenity": "school", "name": "Middle School 577"}}, {"type": "node", "id": 1009245501, "lat": 40.7365621, "lon": -73.9728289}, {"type": "node", "id": 1009245506, "lat": 40.736871, "lon": -73.9735853}, {"type": "node", "id": 1240900780, "lat": 40.768013, "lon": -73.9709581, "tags": {"amenity": "school", "name": "Zoo School"}}, {"type": "node", "id": 1251960767, "lat": 40.7073611, "lon": -74.0069841, "tags": {"amenity": "school", "name": "Montessori School of Manhattan", "wheelchair": "yes"}}, {"type": "node", "id": 1253070573, "lat": 40.7108968, "lon": -74.001545}, {"type": "node", "id": 1253071013, "lat": 40.7111408, "lon": -74.0012565}, {"type": "node", "id": 1253071017, "lat": 40.7112489, "lon": -74.0011771}, {"type": "node", "id": 1253071032, "lat": 40.7111763, "lon": -74.0013409}, {"type": "node", "id": 1273439123, "lat": 40.7406754, "lon": -73.9964838, "tags": {"addr:housename": "Metropolitan Gallery", "addr:housenumber": "123", "addr:street": "West 18th Street", "amenity": "school", "name": "Metropolitan Gallery / Meeting Site"}}, {"type": "node", "id": 1595140630, "lat": 40.7611783, "lon": -73.9890815}, {"type": "node", "id": 1602659282, "lat": 40.7364542, "lon": -73.9725643}, {"type": "node", "id": 1602659286, "lat": 40.7365075, "lon": -73.9738494}, {"type": "node", "id": 1606835749, "lat": 40.7179303, "lon": -73.9760493}, {"type": "node", "id": 1606835806, "lat": 40.7181449, "lon": -73.976783}, {"type": "node", "id": 1606835928, "lat": 40.7188113, "lon": -73.975625}, {"type": "node", "id": 1606835943, "lat": 40.7189564, "lon": -73.9763234}, {"type": "node", "id": 1606908163, "lat": 40.7187811, "lon": -73.9795009}, {"type": "node", "id": 1606908176, "lat": 40.7198499, "lon": -73.9789775}, {"type": "node", "id": 1606908178, "lat": 40.7200859, "lon": -73.9798036}, {"type": "node", "id": 1606915847, "lat": 40.7190367, "lon": -73.980332}, {"type": "node", "id": 1728793881, "lat": 40.7664323, "lon": -73.9903252}, {"type": "node", "id": 1728793882, "lat": 40.7656514, "lon": -73.9892254}, {"type": "node", "id": 1728793885, "lat": 40.7658664, "lon": -73.9889704}, {"type": "node", "id": 1728793886, "lat": 40.7656199, "lon": -73.9891499}, {"type": "node", "id": 1728793887, "lat": 40.7654099, "lon": -73.9894012}, {"type": "node", "id": 1728793890, "lat": 40.7609763, "lon": -73.9886109}, {"type": "node", "id": 1728793893, "lat": 40.7614649, "lon": -73.9882524}, {"type": "node", "id": 1729141648, "lat": 40.7318434, "lon": -73.9908441}, {"type": "node", "id": 1729141660, "lat": 40.7318982, "lon": -73.9908277}, {"type": "node", "id": 1729141671, "lat": 40.7318803, "lon": -73.9907236}, {"type": "node", "id": 1729141672, "lat": 40.7319202, "lon": -73.9907116}, {"type": "node", "id": 1729141677, "lat": 40.7320458, "lon": -73.9906297}, {"type": "node", "id": 1729141678, "lat": 40.7319579, "lon": -73.9904243}, {"type": "node", "id": 1729141685, "lat": 40.7319895, "lon": -73.9906143}, {"type": "node", "id": 1729141692, "lat": 40.7319077, "lon": -73.9906388}, {"type": "node", "id": 1729141694, "lat": 40.7321609, "lon": -73.9903678}, {"type": "node", "id": 1767286893, "lat": 40.7003182, "lon": -73.9942882, "tags": {"amenity": "school", "name": "The Robert Fulton School"}}, {"type": "node", "id": 1827758532, "lat": 40.7137873, "lon": -73.9805941, "tags": {"addr:city": "New York", "addr:country": "US", "addr:housenumber": "551", "addr:postcode": "10002", "addr:state": "NY", "addr:street": "Grand Street", "amenity": "school", "name": "Paul Taylor Dance Company"}}, {"type": "node", "id": 2017277997, "lat": 40.7562462, "lon": -73.9122848}, {"type": "node", "id": 2017278001, "lat": 40.7557341, "lon": -73.9118583}, {"type": "node", "id": 2017278006, "lat": 40.7558337, "lon": -73.9120648}, {"type": "node", "id": 2043949443, "lat": 40.7357716, "lon": -73.9728492}, {"type": "node", "id": 2043949449, "lat": 40.7357767, "lon": -73.9728892}, {"type": "node", "id": 2178450632, "lat": 40.7189377, "lon": -73.9840743}, {"type": "node", "id": 2178450640, "lat": 40.7191692, "lon": -73.9842428}, {"type": "node", "id": 2178450650, "lat": 40.7192434, "lon": -73.984494}, {"type": "node", "id": 2178527853, "lat": 40.7175186, "lon": -73.9840424}, {"type": "node", "id": 2178527857, "lat": 40.7177216, "lon": -73.9847129}, {"type": "node", "id": 2178527962, "lat": 40.7185386, "lon": -73.9835048}, {"type": "node", "id": 2178527988, "lat": 40.7186644, "lon": -73.9834646}, {"type": "node", "id": 2178527997, "lat": 40.7187416, "lon": -73.984175}, {"type": "node", "id": 2273010160, "lat": 40.7196323, "lon": -73.9866444}, {"type": "node", "id": 2273010161, "lat": 40.7194279, "lon": -73.9859634}, {"type": "node", "id": 2273010162, "lat": 40.7204581, "lon": -73.985425}, {"type": "node", "id": 2273010163, "lat": 40.7206625, "lon": -73.9861063}, {"type": "node", "id": 2294835825, "lat": 40.767878, "lon": -73.9227977}, {"type": "node", "id": 2294835826, "lat": 40.7677498, "lon": -73.9229129}, {"type": "node", "id": 2294835829, "lat": 40.7682202, "lon": -73.9221011}, {"type": "node", "id": 2297322327, "lat": 40.7682514, "lon": -73.9220718}, {"type": "node", "id": 2297322346, "lat": 40.768039, "lon": -73.9232461}, {"type": "node", "id": 2297322348, "lat": 40.7685677, "lon": -73.9227272}, {"type": "node", "id": 2300199359, "lat": 40.780468, "lon": -73.9122302}, {"type": "node", "id": 2300199360, "lat": 40.7790036, "lon": -73.91403}, {"type": "node", "id": 2300199361, "lat": 40.7781404, "lon": -73.9128042}, {"type": "node", "id": 2300199362, "lat": 40.7796109, "lon": -73.9110214}, {"type": "node", "id": 2300199399, "lat": 40.7802993, "lon": -73.9124335}, {"type": "node", "id": 2300199401, "lat": 40.7800802, "lon": -73.9116962}, {"type": "node", "id": 2300199402, "lat": 40.7801288, "lon": -73.9117662}, {"type": "node", "id": 2300199404, "lat": 40.7804319, "lon": -73.9122758}, {"type": "node", "id": 2300199421, "lat": 40.7786908, "lon": -73.9121364}, {"type": "node", "id": 2300199422, "lat": 40.7787649, "lon": -73.9120411}, {"type": "node", "id": 2300199433, "lat": 40.7797376, "lon": -73.9131352}, {"type": "node", "id": 2300199441, "lat": 40.7800797, "lon": -73.9127079}, {"type": "node", "id": 2300199443, "lat": 40.7798762, "lon": -73.912962}, {"type": "node", "id": 2300199445, "lat": 40.7799266, "lon": -73.9128991}, {"type": "node", "id": 2300268434, "lat": 40.7804493, "lon": -73.9166109}, {"type": "node", "id": 2300268437, "lat": 40.779888, "lon": -73.9158092}, {"type": "node", "id": 2300268439, "lat": 40.7805912, "lon": -73.9149511}, {"type": "node", "id": 2300268441, "lat": 40.7811525, "lon": -73.9157524}, {"type": "node", "id": 2300268444, "lat": 40.7810134, "lon": -73.9159229}, {"type": "node", "id": 2300268448, "lat": 40.7810374, "lon": -73.9155892}, {"type": "node", "id": 2300268501, "lat": 40.7800112, "lon": -73.9156588}, {"type": "node", "id": 2300268503, "lat": 40.7801733, "lon": -73.9162167}, {"type": "node", "id": 2300268507, "lat": 40.780524, "lon": -73.9165197, "tags": {"barrier": "gate"}}, {"type": "node", "id": 2300268522, "lat": 40.7806937, "lon": -73.9163125, "tags": {"barrier": "gate"}}, {"type": "node", "id": 2482941856, "lat": 40.7615711, "lon": -73.9415934}, {"type": "node", "id": 2482941857, "lat": 40.7609981, "lon": -73.9419479}, {"type": "node", "id": 2482941860, "lat": 40.7610658, "lon": -73.9411047}, {"type": "node", "id": 2482941861, "lat": 40.7613379, "lon": -73.9409363}, {"type": "node", "id": 2494052235, "lat": 40.7118985, "lon": -73.9593907}, {"type": "node", "id": 2494052377, "lat": 40.7115448, "lon": -73.9596192}, {"type": "node", "id": 2494052418, "lat": 40.7119423, "lon": -73.9595089}, {"type": "node", "id": 2494052427, "lat": 40.7119582, "lon": -73.9595517}, {"type": "node", "id": 2494052430, "lat": 40.7119602, "lon": -73.959557}, {"type": "node", "id": 2494052433, "lat": 40.7119645, "lon": -73.9595686}, {"type": "node", "id": 2494052453, "lat": 40.7120003, "lon": -73.959665}, {"type": "node", "id": 2494052628, "lat": 40.7122257, "lon": -73.9604744}, {"type": "node", "id": 2494052674, "lat": 40.7123062, "lon": -73.9606994}, {"type": "node", "id": 2494160717, "lat": 40.7281531, "lon": -73.9900981}, {"type": "node", "id": 2494161908, "lat": 40.727931, "lon": -73.9895691}, {"type": "node", "id": 2494162042, "lat": 40.7281479, "lon": -73.9894117}, {"type": "node", "id": 2494162121, "lat": 40.7282197, "lon": -73.9897515}, {"type": "node", "id": 2494162140, "lat": 40.7282297, "lon": -73.9897754}, {"type": "node", "id": 2494162163, "lat": 40.728262, "lon": -73.9896833}, {"type": "node", "id": 2494162209, "lat": 40.7283157, "lon": -73.9899801}, {"type": "node", "id": 2494178158, "lat": 40.6950431, "lon": -73.9921367}, {"type": "node", "id": 2494178163, "lat": 40.6951515, "lon": -73.9923974}, {"type": "node", "id": 2494178176, "lat": 40.6952431, "lon": -73.9923323}, {"type": "node", "id": 2494178179, "lat": 40.6952476, "lon": -73.9923487}, {"type": "node", "id": 2494178190, "lat": 40.6953159, "lon": -73.9920048}, {"type": "node", "id": 2494178206, "lat": 40.6953597, "lon": -73.9922759}, {"type": "node", "id": 2494178215, "lat": 40.6953642, "lon": -73.9922921}, {"type": "node", "id": 2494178221, "lat": 40.6953921, "lon": -73.9922786}, {"type": "node", "id": 2496629204, "lat": 40.7123854, "lon": -73.9977829}, {"type": "node", "id": 2496629205, "lat": 40.7124512, "lon": -73.9970977}, {"type": "node", "id": 2547055454, "lat": 40.7255591, "lon": -73.9877133}, {"type": "node", "id": 2547055503, "lat": 40.7256074, "lon": -73.9876783}, {"type": "node", "id": 2547055520, "lat": 40.7256249, "lon": -73.9876657}, {"type": "node", "id": 2547055535, "lat": 40.725646, "lon": -73.9876504}, {"type": "node", "id": 2547055567, "lat": 40.7256977, "lon": -73.987613}, {"type": "node", "id": 2547055574, "lat": 40.7257121, "lon": -73.9876025}, {"type": "node", "id": 2547055585, "lat": 40.7257251, "lon": -73.9881095}, {"type": "node", "id": 2547055595, "lat": 40.725758, "lon": -73.9875694}, {"type": "node", "id": 2547055629, "lat": 40.725829, "lon": -73.9883497}, {"type": "node", "id": 2547055665, "lat": 40.7259038, "lon": -73.9882955}, {"type": "node", "id": 2547055699, "lat": 40.7259666, "lon": -73.9882501}, {"type": "node", "id": 2547055714, "lat": 40.7260196, "lon": -73.9882117}, {"type": "node", "id": 2547055770, "lat": 40.7262118, "lon": -73.9884383}, {"type": "node", "id": 2547055782, "lat": 40.7262602, "lon": -73.9884033}, {"type": "node", "id": 2547055806, "lat": 40.7263575, "lon": -73.9883328}, {"type": "node", "id": 2547122345, "lat": 40.7295404, "lon": -73.9841399}, {"type": "node", "id": 2547122878, "lat": 40.729764, "lon": -73.9846675}, {"type": "node", "id": 2547123158, "lat": 40.7299951, "lon": -73.9852476}, {"type": "node", "id": 2547123163, "lat": 40.7300155, "lon": -73.983792}, {"type": "node", "id": 2547123184, "lat": 40.7301682, "lon": -73.9851202}, {"type": "node", "id": 2547123193, "lat": 40.7302391, "lon": -73.9843196}, {"type": "node", "id": 2547123239, "lat": 40.7303722, "lon": -73.9848682}, {"type": "node", "id": 2547123271, "lat": 40.730484, "lon": -73.984878}, {"type": "node", "id": 2547193456, "lat": 40.7315927, "lon": -73.9905097}, {"type": "node", "id": 2547193459, "lat": 40.7316398, "lon": -73.9907913}, {"type": "node", "id": 2547193462, "lat": 40.7317244, "lon": -73.9904727}, {"type": "node", "id": 2547193465, "lat": 40.73176, "lon": -73.9906798}, {"type": "node", "id": 2547193468, "lat": 40.7317718, "lon": -73.9907532}, {"type": "node", "id": 2547193487, "lat": 40.7319039, "lon": -73.990419}, {"type": "node", "id": 2547193491, "lat": 40.7319123, "lon": -73.990468}, {"type": "node", "id": 2547193494, "lat": 40.7319617, "lon": -73.9904532}, {"type": "node", "id": 2547193506, "lat": 40.732167, "lon": -73.9905934}, {"type": "node", "id": 2547193508, "lat": 40.7321857, "lon": -73.9905224}, {"type": "node", "id": 2547193511, "lat": 40.7321942, "lon": -73.990751}, {"type": "node", "id": 2547193528, "lat": 40.7322913, "lon": -73.9904924}, {"type": "node", "id": 2547193531, "lat": 40.7323281, "lon": -73.9907124}, {"type": "node", "id": 2547218712, "lat": 40.7303404, "lon": -73.9820953}, {"type": "node", "id": 2547218781, "lat": 40.7305043, "lon": -73.9819761}, {"type": "node", "id": 2547218785, "lat": 40.73051, "lon": -73.9820914}, {"type": "node", "id": 2547218808, "lat": 40.7305355, "lon": -73.9819534}, {"type": "node", "id": 2547218814, "lat": 40.7305392, "lon": -73.9825675}, {"type": "node", "id": 2547218816, "lat": 40.7305411, "lon": -73.9819668}, {"type": "node", "id": 2547218820, "lat": 40.7305571, "lon": -73.981973}, {"type": "node", "id": 2547218823, "lat": 40.7305674, "lon": -73.9820291}, {"type": "node", "id": 2547218825, "lat": 40.7305725, "lon": -73.9820096}, {"type": "node", "id": 2547218827, "lat": 40.730574, "lon": -73.9820449}, {"type": "node", "id": 2547218836, "lat": 40.7305821, "lon": -73.9822627}, {"type": "node", "id": 2547218867, "lat": 40.7306702, "lon": -73.9824721}, {"type": "node", "id": 2549930598, "lat": 40.7287898, "lon": -73.9823694}, {"type": "node", "id": 2549930613, "lat": 40.7288414, "lon": -73.9824996}, {"type": "node", "id": 2549930653, "lat": 40.7289362, "lon": -73.9827242}, {"type": "node", "id": 2549930675, "lat": 40.7290191, "lon": -73.9829263}, {"type": "node", "id": 2549930707, "lat": 40.7291569, "lon": -73.9821074}, {"type": "node", "id": 2549930712, "lat": 40.7291854, "lon": -73.9820863}, {"type": "node", "id": 2549930723, "lat": 40.72928, "lon": -73.9820164}, {"type": "node", "id": 2549930726, "lat": 40.7293223, "lon": -73.9821163}, {"type": "node", "id": 2549930728, "lat": 40.7293494, "lon": -73.982686}, {"type": "node", "id": 2549930737, "lat": 40.7294167, "lon": -73.9826371}, {"type": "node", "id": 2549930743, "lat": 40.7294707, "lon": -73.9824671}, {"type": "node", "id": 2549930747, "lat": 40.7295136, "lon": -73.9825665}, {"type": "node", "id": 2550013129, "lat": 40.7291372, "lon": -74.0019705}, {"type": "node", "id": 2550013143, "lat": 40.7291547, "lon": -74.0019556}, {"type": "node", "id": 2550013159, "lat": 40.7291776, "lon": -74.0020526}, {"type": "node", "id": 2550013180, "lat": 40.7292116, "lon": -74.0021216}, {"type": "node", "id": 2550013193, "lat": 40.7293554, "lon": -74.0017849}, {"type": "node", "id": 2550013199, "lat": 40.7294297, "lon": -74.001936}, {"type": "node", "id": 2550785035, "lat": 40.7241058, "lon": -73.9861451}, {"type": "node", "id": 2550785098, "lat": 40.724303, "lon": -73.9866154}, {"type": "node", "id": 2550785166, "lat": 40.7245671, "lon": -73.985811}, {"type": "node", "id": 2550785217, "lat": 40.7247652, "lon": -73.9862834}, {"type": "node", "id": 2555137454, "lat": 40.735872, "lon": -73.9921626}, {"type": "node", "id": 2555137482, "lat": 40.7361152, "lon": -73.9919842}, {"type": "node", "id": 2555137483, "lat": 40.7361281, "lon": -73.9927004}, {"type": "node", "id": 2555137502, "lat": 40.7363486, "lon": -73.9925386}, {"type": "node", "id": 2562432745, "lat": 40.7325065, "lon": -73.9843101}, {"type": "node", "id": 2562432758, "lat": 40.7325441, "lon": -73.9842825}, {"type": "node", "id": 2562432770, "lat": 40.7325944, "lon": -73.9845175}, {"type": "node", "id": 2562432780, "lat": 40.7326142, "lon": -73.9842312}, {"type": "node", "id": 2562432785, "lat": 40.7326308, "lon": -73.9842704}, {"type": "node", "id": 2562432793, "lat": 40.7326643, "lon": -73.9841944}, {"type": "node", "id": 2562432805, "lat": 40.732681, "lon": -73.9842336}, {"type": "node", "id": 2562432839, "lat": 40.7327716, "lon": -73.9841158}, {"type": "node", "id": 2562432860, "lat": 40.7328596, "lon": -73.9843232}, {"type": "node", "id": 2562464129, "lat": 40.7324335, "lon": -74.0057768}, {"type": "node", "id": 2562464130, "lat": 40.7324868, "lon": -74.0063303}, {"type": "node", "id": 2562464131, "lat": 40.7324883, "lon": -74.0055585}, {"type": "node", "id": 2562464178, "lat": 40.732758, "lon": -74.0059178}, {"type": "node", "id": 2562464187, "lat": 40.7327696, "lon": -74.0060375}, {"type": "node", "id": 2562464189, "lat": 40.732774, "lon": -74.005925}, {"type": "node", "id": 2562464193, "lat": 40.7327847, "lon": -74.0058935}, {"type": "node", "id": 2562464196, "lat": 40.7327929, "lon": -74.0062793}, {"type": "node", "id": 2562464212, "lat": 40.7328303, "lon": -74.00576}, {"type": "node", "id": 2567527055, "lat": 40.7258534, "lon": -73.9746133}, {"type": "node", "id": 2567527057, "lat": 40.7258654, "lon": -73.9754388}, {"type": "node", "id": 2567527063, "lat": 40.7259515, "lon": -73.9756429}, {"type": "node", "id": 2567527065, "lat": 40.726083, "lon": -73.9744461}, {"type": "node", "id": 2567527069, "lat": 40.7261719, "lon": -73.974657}, {"type": "node", "id": 2567527074, "lat": 40.7262436, "lon": -73.974827}, {"type": "node", "id": 2567527080, "lat": 40.7264381, "lon": -73.9752884}, {"type": "node", "id": 2567528202, "lat": 40.7275967, "lon": -73.9780221}, {"type": "node", "id": 2567528208, "lat": 40.7276358, "lon": -73.9788847}, {"type": "node", "id": 2567528211, "lat": 40.727643, "lon": -73.9781328}, {"type": "node", "id": 2567528219, "lat": 40.7278265, "lon": -73.978572}, {"type": "node", "id": 2567528220, "lat": 40.7278728, "lon": -73.9786827}, {"type": "node", "id": 2567528221, "lat": 40.7278823, "lon": -73.9787054}, {"type": "node", "id": 2567534989, "lat": 40.7216616, "lon": -73.9784565}, {"type": "node", "id": 2567535076, "lat": 40.7218508, "lon": -73.9783185}, {"type": "node", "id": 2567535088, "lat": 40.7218865, "lon": -73.9782924}, {"type": "node", "id": 2567535099, "lat": 40.7219624, "lon": -73.9791681}, {"type": "node", "id": 2567535106, "lat": 40.7220561, "lon": -73.9784291}, {"type": "node", "id": 2567535111, "lat": 40.7221027, "lon": -73.9790679}, {"type": "node", "id": 2567535131, "lat": 40.722188, "lon": -73.9783327}, {"type": "node", "id": 2567538862, "lat": 40.7231651, "lon": -73.9820012}, {"type": "node", "id": 2567538880, "lat": 40.7233118, "lon": -73.9823378}, {"type": "node", "id": 2567538882, "lat": 40.7233294, "lon": -73.982325}, {"type": "node", "id": 2567538885, "lat": 40.7233367, "lon": -73.9823425}, {"type": "node", "id": 2567538905, "lat": 40.723508, "lon": -73.9815904}, {"type": "node", "id": 2567538916, "lat": 40.7235625, "lon": -73.9815501}, {"type": "node", "id": 2567538920, "lat": 40.7235883, "lon": -73.981161}, {"type": "node", "id": 2567538924, "lat": 40.7235996, "lon": -73.9821275}, {"type": "node", "id": 2567538926, "lat": 40.7236071, "lon": -73.9821454}, {"type": "node", "id": 2567538940, "lat": 40.7236414, "lon": -73.9811224}, {"type": "node", "id": 2567538948, "lat": 40.7236821, "lon": -73.9816243}, {"type": "node", "id": 2567538952, "lat": 40.7236907, "lon": -73.9820427}, {"type": "node", "id": 2567538955, "lat": 40.7236966, "lon": -73.9820568}, {"type": "node", "id": 2567538959, "lat": 40.7237299, "lon": -73.981054}, {"type": "node", "id": 2567538965, "lat": 40.7237694, "lon": -73.9819853}, {"type": "node", "id": 2567538966, "lat": 40.7237722, "lon": -73.9819921}, {"type": "node", "id": 2567538967, "lat": 40.7237893, "lon": -73.9810107}, {"type": "node", "id": 2567538969, "lat": 40.7238149, "lon": -73.9819521}, {"type": "node", "id": 2567538972, "lat": 40.7238178, "lon": -73.9819589}, {"type": "node", "id": 2567538977, "lat": 40.7238716, "lon": -73.9809655}, {"type": "node", "id": 2567538984, "lat": 40.7240144, "lon": -73.9808615}, {"type": "node", "id": 2567538985, "lat": 40.7240165, "lon": -73.9808665}, {"type": "node", "id": 2567538986, "lat": 40.7240197, "lon": -73.9808642}, {"type": "node", "id": 2567538987, "lat": 40.724044, "lon": -73.9809317}, {"type": "node", "id": 2567538988, "lat": 40.7240472, "lon": -73.9809294}, {"type": "node", "id": 2567538991, "lat": 40.7241761, "lon": -73.9816888}, {"type": "node", "id": 2567538992, "lat": 40.7241835, "lon": -73.9817062}, {"type": "node", "id": 2567538993, "lat": 40.7242092, "lon": -73.981323}, {"type": "node", "id": 2567538994, "lat": 40.7242184, "lon": -73.9813163}, {"type": "node", "id": 2567538995, "lat": 40.7242607, "lon": -73.9814452}, {"type": "node", "id": 2567538996, "lat": 40.72427, "lon": -73.9814384}, {"type": "node", "id": 2567538997, "lat": 40.7243268, "lon": -73.9816018}, {"type": "node", "id": 2567547328, "lat": 40.7209053, "lon": -73.9861978}, {"type": "node", "id": 2567547370, "lat": 40.7210629, "lon": -73.9867215}, {"type": "node", "id": 2567547461, "lat": 40.7214405, "lon": -73.9859173}, {"type": "node", "id": 2567547531, "lat": 40.7215983, "lon": -73.986441}, {"type": "node", "id": 2567558879, "lat": 40.7157531, "lon": -73.9936873}, {"type": "node", "id": 2567558891, "lat": 40.7157856, "lon": -73.9937975}, {"type": "node", "id": 2567558906, "lat": 40.7158214, "lon": -73.9936019}, {"type": "node", "id": 2567558909, "lat": 40.7158284, "lon": -73.9937758}, {"type": "node", "id": 2567558924, "lat": 40.7158632, "lon": -73.993965}, {"type": "node", "id": 2567558925, "lat": 40.7158634, "lon": -73.9939426}, {"type": "node", "id": 2567558926, "lat": 40.7158652, "lon": -73.9939872}, {"type": "node", "id": 2567558927, "lat": 40.7158657, "lon": -73.9939205}, {"type": "node", "id": 2567558928, "lat": 40.7158677, "lon": -73.9939096}, {"type": "node", "id": 2567558929, "lat": 40.7158694, "lon": -73.9940088}, {"type": "node", "id": 2567558931, "lat": 40.7158723, "lon": -73.9940194}, {"type": "node", "id": 2567558934, "lat": 40.7158796, "lon": -73.9940395}, {"type": "node", "id": 2567558938, "lat": 40.7158888, "lon": -73.9940583}, {"type": "node", "id": 2567558942, "lat": 40.7158998, "lon": -73.9940754}, {"type": "node", "id": 2567558945, "lat": 40.7159059, "lon": -73.9940831}, {"type": "node", "id": 2567558951, "lat": 40.7159193, "lon": -73.9940971}, {"type": "node", "id": 2567558954, "lat": 40.7159338, "lon": -73.9941086}, {"type": "node", "id": 2567558960, "lat": 40.7159494, "lon": -73.9941176}, {"type": "node", "id": 2567558962, "lat": 40.7159575, "lon": -73.994121}, {"type": "node", "id": 2567558968, "lat": 40.7159741, "lon": -73.9941259}, {"type": "node", "id": 2567558971, "lat": 40.715991, "lon": -73.9941278}, {"type": "node", "id": 2567558972, "lat": 40.7159995, "lon": -73.9941277}, {"type": "node", "id": 2567558975, "lat": 40.7160164, "lon": -73.9941254}, {"type": "node", "id": 2567558976, "lat": 40.7160189, "lon": -73.9932337}, {"type": "node", "id": 2567558977, "lat": 40.7160192, "lon": -73.9932245}, {"type": "node", "id": 2567558978, "lat": 40.7160198, "lon": -73.9932522}, {"type": "node", "id": 2567558979, "lat": 40.7160218, "lon": -73.9932062}, {"type": "node", "id": 2567558980, "lat": 40.716023, "lon": -73.9932703}, {"type": "node", "id": 2567558982, "lat": 40.7160239, "lon": -73.9931974}, {"type": "node", "id": 2567558984, "lat": 40.7160279, "lon": -73.9932831}, {"type": "node", "id": 2567558985, "lat": 40.7160281, "lon": -73.9931846}, {"type": "node", "id": 2567558987, "lat": 40.716033, "lon": -73.9941201}, {"type": "node", "id": 2567558988, "lat": 40.7160334, "lon": -73.9931726}, {"type": "node", "id": 2567558991, "lat": 40.7160421, "lon": -73.9931581}, {"type": "node", "id": 2567558994, "lat": 40.7160472, "lon": -73.9931516}, {"type": "node", "id": 2567558995, "lat": 40.7160584, "lon": -73.9931403}, {"type": "node", "id": 2567558998, "lat": 40.7160645, "lon": -73.9931356}, {"type": "node", "id": 2567559004, "lat": 40.7160956, "lon": -73.9935133}, {"type": "node", "id": 2567559018, "lat": 40.7161252, "lon": -73.9939966}, {"type": "node", "id": 2567559025, "lat": 40.7161449, "lon": -73.9940636}, {"type": "node", "id": 2567559038, "lat": 40.7162231, "lon": -73.9939469}, {"type": "node", "id": 2567559044, "lat": 40.7162475, "lon": -73.9940298}, {"type": "node", "id": 2567559046, "lat": 40.7162557, "lon": -73.9940355}, {"type": "node", "id": 2567559047, "lat": 40.7162617, "lon": -73.9940365}, {"type": "node", "id": 2567559050, "lat": 40.7162676, "lon": -73.9940345}, {"type": "node", "id": 2567559053, "lat": 40.7162725, "lon": -73.9940297}, {"type": "node", "id": 2567559057, "lat": 40.7162756, "lon": -73.9940229}, {"type": "node", "id": 2567559059, "lat": 40.7162766, "lon": -73.994015}, {"type": "node", "id": 2567559061, "lat": 40.7162802, "lon": -73.9940271}, {"type": "node", "id": 2567559063, "lat": 40.716285, "lon": -73.9930236}, {"type": "node", "id": 2567559065, "lat": 40.7163166, "lon": -73.9930098}, {"type": "node", "id": 2567559068, "lat": 40.7163427, "lon": -73.9930021}, {"type": "node", "id": 2567559069, "lat": 40.7163602, "lon": -73.9929999}, {"type": "node", "id": 2567559070, "lat": 40.7163778, "lon": -73.9930009}, {"type": "node", "id": 2567559071, "lat": 40.7163865, "lon": -73.9930025}, {"type": "node", "id": 2567559073, "lat": 40.7164036, "lon": -73.9930079}, {"type": "node", "id": 2567559074, "lat": 40.7164119, "lon": -73.9930118}, {"type": "node", "id": 2567559075, "lat": 40.7164278, "lon": -73.9930216}, {"type": "node", "id": 2567559076, "lat": 40.7164354, "lon": -73.9930276}, {"type": "node", "id": 2567559077, "lat": 40.7164495, "lon": -73.9930414}, {"type": "node", "id": 2567559078, "lat": 40.7164621, "lon": -73.9930575}, {"type": "node", "id": 2567559079, "lat": 40.7164625, "lon": -73.9935099}, {"type": "node", "id": 2567559080, "lat": 40.7164681, "lon": -73.993529}, {"type": "node", "id": 2567559081, "lat": 40.7164701, "lon": -73.9939306}, {"type": "node", "id": 2567559082, "lat": 40.7164718, "lon": -73.9935271}, {"type": "node", "id": 2567559083, "lat": 40.716473, "lon": -73.9930757}, {"type": "node", "id": 2567559084, "lat": 40.7164777, "lon": -73.9930854}, {"type": "node", "id": 2567559085, "lat": 40.7164792, "lon": -73.9939617}, {"type": "node", "id": 2567559086, "lat": 40.7164819, "lon": -73.9932654}, {"type": "node", "id": 2567559087, "lat": 40.7164899, "lon": -73.9935885}, {"type": "node", "id": 2567559088, "lat": 40.7165167, "lon": -73.9935798}, {"type": "node", "id": 2567559089, "lat": 40.7165168, "lon": -73.9934351}, {"type": "node", "id": 2567559090, "lat": 40.7165243, "lon": -73.9932439}, {"type": "node", "id": 2567559091, "lat": 40.7165257, "lon": -73.9934383}, {"type": "node", "id": 2567559092, "lat": 40.7165288, "lon": -73.9934762}, {"type": "node", "id": 2567559093, "lat": 40.7165298, "lon": -73.9934285}, {"type": "node", "id": 2567559094, "lat": 40.7165308, "lon": -73.9934431}, {"type": "node", "id": 2567559095, "lat": 40.7165312, "lon": -73.9934734}, {"type": "node", "id": 2567559096, "lat": 40.7165335, "lon": -73.9935783}, {"type": "node", "id": 2567559097, "lat": 40.7165343, "lon": -73.99345}, {"type": "node", "id": 2567559098, "lat": 40.7165345, "lon": -73.9934663}, {"type": "node", "id": 2567559099, "lat": 40.7165355, "lon": -73.9934581}, {"type": "node", "id": 2567559100, "lat": 40.7165419, "lon": -73.9935788}, {"type": "node", "id": 2567559101, "lat": 40.7165585, "lon": -73.9935823}, {"type": "node", "id": 2567559103, "lat": 40.7165745, "lon": -73.9935891}, {"type": "node", "id": 2567559104, "lat": 40.7165994, "lon": -73.9938998}, {"type": "node", "id": 2567559105, "lat": 40.7166044, "lon": -73.9935658}, {"type": "node", "id": 2567559108, "lat": 40.7166115, "lon": -73.9935643}, {"type": "node", "id": 2567559109, "lat": 40.7166138, "lon": -73.9938885}, {"type": "node", "id": 2567559110, "lat": 40.7166187, "lon": -73.9935657}, {"type": "node", "id": 2567559111, "lat": 40.7166251, "lon": -73.9935699}, {"type": "node", "id": 2567559112, "lat": 40.7166269, "lon": -73.9938748}, {"type": "node", "id": 2567559113, "lat": 40.7166279, "lon": -73.9935729}, {"type": "node", "id": 2567559115, "lat": 40.7166322, "lon": -73.9935805}, {"type": "node", "id": 2567559116, "lat": 40.7166378, "lon": -73.9935971}, {"type": "node", "id": 2567559117, "lat": 40.7166385, "lon": -73.9938589}, {"type": "node", "id": 2567559118, "lat": 40.7166484, "lon": -73.9938411}, {"type": "node", "id": 2567559121, "lat": 40.7166531, "lon": -73.9936738}, {"type": "node", "id": 2567559122, "lat": 40.7166567, "lon": -73.9936829}, {"type": "node", "id": 2567559123, "lat": 40.7166588, "lon": -73.993671}, {"type": "node", "id": 2567559124, "lat": 40.7166598, "lon": -73.9938117}, {"type": "node", "id": 2567559125, "lat": 40.7166648, "lon": -73.9937141}, {"type": "node", "id": 2567559127, "lat": 40.7166664, "lon": -73.9937798}, {"type": "node", "id": 2567559128, "lat": 40.7166681, "lon": -73.9937469}, {"type": "node", "id": 2568056290, "lat": 40.6988031, "lon": -73.9463203}, {"type": "node", "id": 2568056303, "lat": 40.6988798, "lon": -73.9463346}, {"type": "node", "id": 2568056304, "lat": 40.6989137, "lon": -73.9454242}, {"type": "node", "id": 2568056305, "lat": 40.6989275, "lon": -73.9453093}, {"type": "node", "id": 2568056311, "lat": 40.6989596, "lon": -73.9450052}, {"type": "node", "id": 2568056314, "lat": 40.6989694, "lon": -73.9463532}, {"type": "node", "id": 2568056316, "lat": 40.6989735, "lon": -73.9448892}, {"type": "node", "id": 2568056321, "lat": 40.6990361, "lon": -73.9463656}, {"type": "node", "id": 2568056322, "lat": 40.6990365, "lon": -73.9449023}, {"type": "node", "id": 2568056344, "lat": 40.6991591, "lon": -73.9449276}, {"type": "node", "id": 2568056371, "lat": 40.6993285, "lon": -73.9449627}, {"type": "node", "id": 2568056392, "lat": 40.6994562, "lon": -73.9449891}, {"type": "node", "id": 2568056405, "lat": 40.699517, "lon": -73.9450017}, {"type": "node", "id": 2568361389, "lat": 40.6973333, "lon": -73.9848904, "tags": {"addr:housenumber": "49", "addr:postcode": "11201", "addr:street": "Flatbush Avenue Extension", "entrance": "main"}}, {"type": "node", "id": 2568361742, "lat": 40.6972112, "lon": -73.984218}, {"type": "node", "id": 2568361744, "lat": 40.697214, "lon": -73.9842945}, {"type": "node", "id": 2568361747, "lat": 40.6972347, "lon": -73.9841767}, {"type": "node", "id": 2568361748, "lat": 40.6972351, "lon": -73.9845346}, {"type": "node", "id": 2568361749, "lat": 40.6972362, "lon": -73.9842165}, {"type": "node", "id": 2568361750, "lat": 40.697239, "lon": -73.984293}, {"type": "node", "id": 2568361751, "lat": 40.6972471, "lon": -73.9848794}, {"type": "node", "id": 2568361752, "lat": 40.697248, "lon": -73.9845338}, {"type": "node", "id": 2568361754, "lat": 40.6972759, "lon": -73.9848939}, {"type": "node", "id": 2568361807, "lat": 40.6975003, "lon": -73.9841607}, {"type": "node", "id": 2568361809, "lat": 40.6975253, "lon": -73.9848788}, {"type": "node", "id": 2568494563, "lat": 40.7016117, "lon": -73.9822685}, {"type": "node", "id": 2568494591, "lat": 40.7017481, "lon": -73.9812985}, {"type": "node", "id": 2568494620, "lat": 40.7014357, "lon": -73.9822789}, {"type": "node", "id": 2568494727, "lat": 40.7019504, "lon": -73.9812866}, {"type": "node", "id": 2568698068, "lat": 40.7009707, "lon": -73.9126662}, {"type": "node", "id": 2568698096, "lat": 40.7010077, "lon": -73.9127286}, {"type": "node", "id": 2568698113, "lat": 40.7010242, "lon": -73.9127117}, {"type": "node", "id": 2568698142, "lat": 40.7010497, "lon": -73.9127997}, {"type": "node", "id": 2568698157, "lat": 40.7010662, "lon": -73.9127828}, {"type": "node", "id": 2568698171, "lat": 40.7010864, "lon": -73.9128616}, {"type": "node", "id": 2568698176, "lat": 40.7010906, "lon": -73.9126738}, {"type": "node", "id": 2568698189, "lat": 40.7011136, "lon": -73.9127126}, {"type": "node", "id": 2568698210, "lat": 40.7011512, "lon": -73.9126119}, {"type": "node", "id": 2568698219, "lat": 40.7011742, "lon": -73.9126507}, {"type": "node", "id": 2568698221, "lat": 40.7011781, "lon": -73.9124542}, {"type": "node", "id": 2568698231, "lat": 40.7011969, "lon": -73.9125327}, {"type": "node", "id": 2568698235, "lat": 40.7012142, "lon": -73.912515}, {"type": "node", "id": 2568698249, "lat": 40.7012393, "lon": -73.9126042}, {"type": "node", "id": 2568698268, "lat": 40.7012579, "lon": -73.9125852}, {"type": "node", "id": 2568698274, "lat": 40.7012952, "lon": -73.9126482}, {"type": "node", "id": 2569063799, "lat": 40.7372169, "lon": -73.9993267}, {"type": "node", "id": 2569063806, "lat": 40.7372379, "lon": -73.9993117}, {"type": "node", "id": 2569063810, "lat": 40.7372484, "lon": -73.9994029}, {"type": "node", "id": 2569063815, "lat": 40.7372631, "lon": -73.9993925}, {"type": "node", "id": 2569063819, "lat": 40.7372694, "lon": -73.9994077}, {"type": "node", "id": 2569063826, "lat": 40.7372898, "lon": -73.9994571}, {"type": "node", "id": 2569063832, "lat": 40.7373067, "lon": -73.999445}, {"type": "node", "id": 2569063834, "lat": 40.7373118, "lon": -73.9994572}, {"type": "node", "id": 2569063842, "lat": 40.7373428, "lon": -73.9995321}, {"type": "node", "id": 2569063845, "lat": 40.7373527, "lon": -73.9992296}, {"type": "node", "id": 2569063858, "lat": 40.7373905, "lon": -73.999321}, {"type": "node", "id": 2569063865, "lat": 40.737416, "lon": -73.9993827}, {"type": "node", "id": 2569063870, "lat": 40.737447, "lon": -73.9994576}, {"type": "node", "id": 2569065716, "lat": 40.7351784, "lon": -73.9990335}, {"type": "node", "id": 2569065730, "lat": 40.7352203, "lon": -73.9989138}, {"type": "node", "id": 2569065735, "lat": 40.7352412, "lon": -73.9988497}, {"type": "node", "id": 2569065736, "lat": 40.7352484, "lon": -73.9995286}, {"type": "node", "id": 2569065737, "lat": 40.7352621, "lon": -73.9987833}, {"type": "node", "id": 2569065740, "lat": 40.7352716, "lon": -73.9992155}, {"type": "node", "id": 2569065742, "lat": 40.7352727, "lon": -73.9988084}, {"type": "node", "id": 2569065743, "lat": 40.7352837, "lon": -73.9994274}, {"type": "node", "id": 2569065747, "lat": 40.7352919, "lon": -73.9987185}, {"type": "node", "id": 2569065750, "lat": 40.7352948, "lon": -73.9987084}, {"type": "node", "id": 2569065751, "lat": 40.7352985, "lon": -73.9987057}, {"type": "node", "id": 2569065756, "lat": 40.7353085, "lon": -73.9995648}, {"type": "node", "id": 2569065758, "lat": 40.7353106, "lon": -73.9986685}, {"type": "node", "id": 2569065759, "lat": 40.735313, "lon": -73.9986611}, {"type": "node", "id": 2569065761, "lat": 40.7353238, "lon": -73.9986225}, {"type": "node", "id": 2569065767, "lat": 40.7353629, "lon": -73.9985011}, {"type": "node", "id": 2569065770, "lat": 40.7354009, "lon": -73.9985975}, {"type": "node", "id": 2569065791, "lat": 40.7354995, "lon": -73.9996371}, {"type": "node", "id": 2569065797, "lat": 40.7355277, "lon": -73.9996167}, {"type": "node", "id": 2569065801, "lat": 40.7355584, "lon": -73.9997778}, {"type": "node", "id": 2569065802, "lat": 40.7355586, "lon": -74.0001417}, {"type": "node", "id": 2569065814, "lat": 40.7356147, "lon": -73.9991075}, {"type": "node", "id": 2569065823, "lat": 40.7356419, "lon": -73.9990878}, {"type": "node", "id": 2569065884, "lat": 40.7357533, "lon": -73.9994533}, {"type": "node", "id": 2569065914, "lat": 40.7357853, "lon": -73.9994301}, {"type": "node", "id": 2569263853, "lat": 40.7362948, "lon": -74.009527, "tags": {"addr:city": "New York", "addr:housenumber": "155", "addr:postcode": "10014", "addr:state": "NY", "addr:street": "Bank Street", "alt_name": "SFPC", "amenity": "school", "description": "Artist run school where students and faculty work closely to explore the intersections of code, design, hardware and theory focusing especially on artistic intervention.", "email": "info@sfpc.io", "name": "School for Poetic Computation", "operator": "School for Poetic Computation", "start_date": "2013", "toilets": "yes", "toilets:unisex": "yes", "toilets:wheelchair": "yes", "website": "http://sfpc.io", "wikidata": "Q22061065"}}, {"type": "node", "id": 2569923731, "lat": 40.7175455, "lon": -74.0134072}, {"type": "node", "id": 2569923813, "lat": 40.717903, "lon": -74.0133234}, {"type": "node", "id": 2569923844, "lat": 40.7180684, "lon": -74.0145586}, {"type": "node", "id": 2569923847, "lat": 40.7180844, "lon": -74.0145348}, {"type": "node", "id": 2569923849, "lat": 40.7180882, "lon": -74.0145431}, {"type": "node", "id": 2569923852, "lat": 40.7181109, "lon": -74.0145167}, {"type": "node", "id": 2569923863, "lat": 40.7181998, "lon": -74.0132507}, {"type": "node", "id": 2569923865, "lat": 40.7182513, "lon": -74.0136173}, {"type": "node", "id": 2569923867, "lat": 40.7182177, "lon": -74.0144298}, {"type": "node", "id": 2569923876, "lat": 40.7182874, "lon": -74.0138755}, {"type": "node", "id": 2569923884, "lat": 40.718327, "lon": -74.0143481}, {"type": "node", "id": 2569923888, "lat": 40.7183389, "lon": -74.0142432}, {"type": "node", "id": 2693364221, "lat": 40.7679165, "lon": -73.9223897}, {"type": "node", "id": 2693364227, "lat": 40.7677477, "lon": -73.9225451}, {"type": "node", "id": 2693396903, "lat": 40.76794, "lon": -73.9233431}, {"type": "node", "id": 2693396905, "lat": 40.7678826, "lon": -73.9232187, "tags": {"barrier": "gate", "maxwidth:physical": "7'8\"", "school": "entrance", "source:maxwidth:physical": "ARCore"}}, {"type": "node", "id": 2693476374, "lat": 40.7686066, "lon": -73.9226883}, {"type": "node", "id": 2693476450, "lat": 40.7678908, "lon": -73.9232367}, {"type": "node", "id": 2693476452, "lat": 40.7680242, "lon": -73.9232606}, {"type": "node", "id": 2693513064, "lat": 40.7669867, "lon": -73.9225548}, {"type": "node", "id": 2693513066, "lat": 40.7672681, "lon": -73.9231677}, {"type": "node", "id": 2693513070, "lat": 40.7667867, "lon": -73.923553}, {"type": "node", "id": 2693513073, "lat": 40.7665054, "lon": -73.9229401}, {"type": "node", "id": 2702831996, "lat": 40.7405675, "lon": -74.0031641}, {"type": "node", "id": 2702832022, "lat": 40.7406315, "lon": -74.0031175}, {"type": "node", "id": 2702832026, "lat": 40.7406502, "lon": -74.0031039}, {"type": "node", "id": 2702832029, "lat": 40.7406604, "lon": -74.0030965}, {"type": "node", "id": 2702832044, "lat": 40.7407164, "lon": -74.0033679}, {"type": "node", "id": 2702832052, "lat": 40.7407471, "lon": -74.0033456}, {"type": "node", "id": 2702832058, "lat": 40.7407657, "lon": -74.0030199}, {"type": "node", "id": 2702832071, "lat": 40.7408011, "lon": -74.003104}, {"type": "node", "id": 2702832081, "lat": 40.7408321, "lon": -74.0031777}, {"type": "node", "id": 2702832095, "lat": 40.7408663, "lon": -74.0032589}, {"type": "node", "id": 2702857245, "lat": 40.7421351, "lon": -74.0019942}, {"type": "node", "id": 2702857313, "lat": 40.7425651, "lon": -74.0016784}, {"type": "node", "id": 2702857316, "lat": 40.7425843, "lon": -74.0030579}, {"type": "node", "id": 2702857320, "lat": 40.7427041, "lon": -74.0029698}, {"type": "node", "id": 2702857329, "lat": 40.7427935, "lon": -74.0028884}, {"type": "node", "id": 2702857330, "lat": 40.7427986, "lon": -74.0029007}, {"type": "node", "id": 2702857333, "lat": 40.7428255, "lon": -74.002865}, {"type": "node", "id": 2702857387, "lat": 40.7429499, "lon": -74.0026074}, {"type": "node", "id": 2702857391, "lat": 40.7429551, "lon": -74.0026036}, {"type": "node", "id": 2702857413, "lat": 40.7430034, "lon": -74.0027344}, {"type": "node", "id": 2702937391, "lat": 40.7394756, "lon": -73.9968306}, {"type": "node", "id": 2702937428, "lat": 40.7396073, "lon": -73.9970573}, {"type": "node", "id": 2702937444, "lat": 40.7396504, "lon": -73.997026}, {"type": "node", "id": 2702937460, "lat": 40.7396936, "lon": -73.9966719}, {"type": "node", "id": 2702937474, "lat": 40.7397976, "lon": -73.9969188}, {"type": "node", "id": 2702958597, "lat": 40.737728, "lon": -73.9949206}, {"type": "node", "id": 2702958608, "lat": 40.737807, "lon": -73.9945982}, {"type": "node", "id": 2702958611, "lat": 40.7378135, "lon": -73.995176}, {"type": "node", "id": 2702958617, "lat": 40.7378221, "lon": -73.9951967}, {"type": "node", "id": 2702958621, "lat": 40.7378297, "lon": -73.9951643}, {"type": "node", "id": 2702958634, "lat": 40.7378922, "lon": -73.9948021}, {"type": "node", "id": 2702958643, "lat": 40.7379335, "lon": -73.9951163}, {"type": "node", "id": 2702958647, "lat": 40.7379435, "lon": -73.9951401}, {"type": "node", "id": 2702958651, "lat": 40.7379685, "lon": -73.9944817}, {"type": "node", "id": 2702958657, "lat": 40.7380378, "lon": -73.9946476}, {"type": "node", "id": 2702958659, "lat": 40.7380626, "lon": -73.9946297}, {"type": "node", "id": 2702958670, "lat": 40.7381792, "lon": -73.9949188}, {"type": "node", "id": 2702958672, "lat": 40.7381823, "lon": -73.9949165}, {"type": "node", "id": 2702958674, "lat": 40.7381956, "lon": -73.9949582}, {"type": "node", "id": 2703020810, "lat": 40.7438613, "lon": -74.0006645}, {"type": "node", "id": 2703020812, "lat": 40.743863, "lon": -74.0006632}, {"type": "node", "id": 2703020836, "lat": 40.7439061, "lon": -74.0007706}, {"type": "node", "id": 2703020911, "lat": 40.7440153, "lon": -74.0010296}, {"type": "node", "id": 2703020915, "lat": 40.7440325, "lon": -74.0005397}, {"type": "node", "id": 2703020939, "lat": 40.7440616, "lon": -74.0011395}, {"type": "node", "id": 2703020975, "lat": 40.7441197, "lon": -74.0004761}, {"type": "node", "id": 2703021020, "lat": 40.744173, "lon": -74.001057}, {"type": "node", "id": 2703021025, "lat": 40.7441714, "lon": -74.0004384}, {"type": "node", "id": 2703021053, "lat": 40.7442114, "lon": -74.0004092}, {"type": "node", "id": 2703021105, "lat": 40.7443014, "lon": -74.0003436}, {"type": "node", "id": 2703021127, "lat": 40.7443414, "lon": -74.0004384}, {"type": "node", "id": 2703021187, "lat": 40.744459, "lon": -74.0007173}, {"type": "node", "id": 2703021221, "lat": 40.7445015, "lon": -74.000818}, {"type": "node", "id": 2703021334, "lat": 40.7446448, "lon": -74.0015374}, {"type": "node", "id": 2703021380, "lat": 40.7447067, "lon": -74.0014901}, {"type": "node", "id": 2703021431, "lat": 40.7447699, "lon": -74.0014456}, {"type": "node", "id": 2703159974, "lat": 40.7491156, "lon": -74.0033368}, {"type": "node", "id": 2703160011, "lat": 40.7492461, "lon": -74.0036477}, {"type": "node", "id": 2703160047, "lat": 40.7495875, "lon": -74.0029942}, {"type": "node", "id": 2703160060, "lat": 40.749718, "lon": -74.003305}, {"type": "node", "id": 2703228174, "lat": 40.748592, "lon": -74.0001305}, {"type": "node", "id": 2703228175, "lat": 40.7485929, "lon": -74.0000725}, {"type": "node", "id": 2703228176, "lat": 40.7486018, "lon": -74.0002068}, {"type": "node", "id": 2703228177, "lat": 40.7486029, "lon": -74.0001308}, {"type": "node", "id": 2703228178, "lat": 40.7486038, "lon": -74.0000728}, {"type": "node", "id": 2703228179, "lat": 40.7486051, "lon": -73.9999924}, {"type": "node", "id": 2703228180, "lat": 40.7489011, "lon": -74.0007371}, {"type": "node", "id": 2703228181, "lat": 40.7489092, "lon": -74.0002151}, {"type": "node", "id": 2703228186, "lat": 40.7489605, "lon": -74.0007532}, {"type": "node", "id": 2703228188, "lat": 40.7489607, "lon": -74.0007387}, {"type": "node", "id": 2703228190, "lat": 40.7489638, "lon": -74.000002}, {"type": "node", "id": 2703228192, "lat": 40.748964, "lon": -73.9999903}, {"type": "node", "id": 2703228194, "lat": 40.7490021, "lon": -74.0007543}, {"type": "node", "id": 2703228196, "lat": 40.7490023, "lon": -74.0007398}, {"type": "node", "id": 2703228198, "lat": 40.7490114, "lon": -73.9999916}, {"type": "node", "id": 2703228200, "lat": 40.7490155, "lon": -73.9997298}, {"type": "node", "id": 2703228202, "lat": 40.7490628, "lon": -74.0007414}, {"type": "node", "id": 2703228204, "lat": 40.7490668, "lon": -74.0004847}, {"type": "node", "id": 2703228211, "lat": 40.7491484, "lon": -74.0004869}, {"type": "node", "id": 2703228213, "lat": 40.7491526, "lon": -74.0002225}, {"type": "node", "id": 2703228215, "lat": 40.7491559, "lon": -74.0000072}, {"type": "node", "id": 2703228217, "lat": 40.7491602, "lon": -73.9997337}, {"type": "node", "id": 2703228242, "lat": 40.7492813, "lon": -74.0002259}, {"type": "node", "id": 2703228244, "lat": 40.7492825, "lon": -74.0001447}, {"type": "node", "id": 2703228246, "lat": 40.7492834, "lon": -74.0000897}, {"type": "node", "id": 2703228247, "lat": 40.7492846, "lon": -74.0000106}, {"type": "node", "id": 2703228250, "lat": 40.7492927, "lon": -74.000145}, {"type": "node", "id": 2703228252, "lat": 40.7492935, "lon": -74.00009}, {"type": "node", "id": 2704022017, "lat": 40.7350205, "lon": -73.9878029, "tags": {"amenity": "school", "check_date": "2024-03-28", "fax": "+1-212-439-8705", "name": "Goethe Institut", "name:de": "Goethe Institut", "name:en": "Goethe Institute", "phone": "+1-212-439-8700", "website:de": "https://www.goethe.de/ins/us/de/sta/ney.html", "website:en": "https://www.goethe.de/ins/us/en/sta/ney.html"}}, {"type": "node", "id": 2704046138, "lat": 40.7350562, "lon": -73.9807382}, {"type": "node", "id": 2704046178, "lat": 40.7350831, "lon": -73.9808025}, {"type": "node", "id": 2704046188, "lat": 40.7351071, "lon": -73.980701}, {"type": "node", "id": 2704046192, "lat": 40.7351093, "lon": -73.9807834}, {"type": "node", "id": 2704046241, "lat": 40.7352264, "lon": -73.980614}, {"type": "node", "id": 2704046248, "lat": 40.7352534, "lon": -73.9806783}, {"type": "node", "id": 2704081198, "lat": 40.7372085, "lon": -73.9820234}, {"type": "node", "id": 2704081204, "lat": 40.7372259, "lon": -73.9820059}, {"type": "node", "id": 2704081206, "lat": 40.7372274, "lon": -73.9820095}, {"type": "node", "id": 2704081210, "lat": 40.7372355, "lon": -73.9820867}, {"type": "node", "id": 2704081219, "lat": 40.7372544, "lon": -73.9820727}, {"type": "node", "id": 2704081232, "lat": 40.7372764, "lon": -73.9821826}, {"type": "node", "id": 2704081241, "lat": 40.7372911, "lon": -73.9819578}, {"type": "node", "id": 2704081244, "lat": 40.7372953, "lon": -73.9821686}, {"type": "node", "id": 2704081250, "lat": 40.7373039, "lon": -73.9822471}, {"type": "node", "id": 2704081259, "lat": 40.7373228, "lon": -73.9822331}, {"type": "node", "id": 2704081271, "lat": 40.7373246, "lon": -73.9822373}, {"type": "node", "id": 2704081281, "lat": 40.7373466, "lon": -73.981917}, {"type": "node", "id": 2704081320, "lat": 40.7374453, "lon": -73.9821484}, {"type": "node", "id": 2704114481, "lat": 40.7413823, "lon": -73.9773228}, {"type": "node", "id": 2704114503, "lat": 40.7415487, "lon": -73.9777228}, {"type": "node", "id": 2704114507, "lat": 40.7415883, "lon": -73.9771734}, {"type": "node", "id": 2704114511, "lat": 40.7416012, "lon": -73.9776742}, {"type": "node", "id": 2704114512, "lat": 40.7416046, "lon": -73.9776823}, {"type": "node", "id": 2704114515, "lat": 40.7416285, "lon": -73.9776544}, {"type": "node", "id": 2704114519, "lat": 40.7416677, "lon": -73.9777485}, {"type": "node", "id": 2704114521, "lat": 40.7417054, "lon": -73.9775705}, {"type": "node", "id": 2704114525, "lat": 40.7417424, "lon": -73.9775437}, {"type": "node", "id": 2704114526, "lat": 40.7417536, "lon": -73.9776863}, {"type": "node", "id": 2705023058, "lat": 40.7276924, "lon": -74.0022708, "tags": {"addr:city": "New York", "addr:housenumber": "60", "addr:street": "MacDougal Street", "amenity": "school", "name": "Cooke Center Academy"}}, {"type": "node", "id": 2709389314, "lat": 40.7441377, "lon": -73.9781113}, {"type": "node", "id": 2709389375, "lat": 40.7441959, "lon": -73.9780689}, {"type": "node", "id": 2709389408, "lat": 40.7442362, "lon": -73.977538}, {"type": "node", "id": 2709389422, "lat": 40.7442676, "lon": -73.9784222}, {"type": "node", "id": 2709389425, "lat": 40.7442756, "lon": -73.977509}, {"type": "node", "id": 2709389431, "lat": 40.7442999, "lon": -73.977993}, {"type": "node", "id": 2709389453, "lat": 40.7443444, "lon": -73.9779591}, {"type": "node", "id": 2709389479, "lat": 40.7444047, "lon": -73.9774141}, {"type": "node", "id": 2709389486, "lat": 40.7444433, "lon": -73.9773857}, {"type": "node", "id": 2709389488, "lat": 40.7444448, "lon": -73.9773846}, {"type": "node", "id": 2709389508, "lat": 40.7444883, "lon": -73.9782599}, {"type": "node", "id": 2709389563, "lat": 40.7445992, "lon": -73.9781784}, {"type": "node", "id": 2709389566, "lat": 40.7446103, "lon": -73.9777608}, {"type": "node", "id": 2709389682, "lat": 40.7447421, "lon": -73.9780734}, {"type": "node", "id": 2709860771, "lat": 40.7615988, "lon": -73.9956193, "tags": {"amenity": "school", "ele": "6", "gnis:feature_id": "961742", "name": "Public School 51"}}, {"type": "node", "id": 2709879101, "lat": 40.7601043, "lon": -73.9932888}, {"type": "node", "id": 2709879123, "lat": 40.7601394, "lon": -73.9932631}, {"type": "node", "id": 2709879145, "lat": 40.7601581, "lon": -73.9934161}, {"type": "node", "id": 2709879188, "lat": 40.7602459, "lon": -73.9931853}, {"type": "node", "id": 2709879225, "lat": 40.7602997, "lon": -73.9933126}, {"type": "node", "id": 2709936742, "lat": 40.7631712, "lon": -73.9899191}, {"type": "node", "id": 2709936788, "lat": 40.7633562, "lon": -73.9897847}, {"type": "node", "id": 2709936830, "lat": 40.7634067, "lon": -73.9897272}, {"type": "node", "id": 2709936832, "lat": 40.7634082, "lon": -73.9897468}, {"type": "node", "id": 2709936850, "lat": 40.7634558, "lon": -73.9896915}, {"type": "node", "id": 2709936916, "lat": 40.7636498, "lon": -73.9895504}, {"type": "node", "id": 2709936920, "lat": 40.7636604, "lon": -73.9910858}, {"type": "node", "id": 2709936927, "lat": 40.7636979, "lon": -73.9910586}, {"type": "node", "id": 2709936962, "lat": 40.7637949, "lon": -73.9909881}, {"type": "node", "id": 2709936974, "lat": 40.7638148, "lon": -73.9909736}, {"type": "node", "id": 2709937005, "lat": 40.7638665, "lon": -73.9909371}, {"type": "node", "id": 2709937019, "lat": 40.7639028, "lon": -73.9909107}, {"type": "node", "id": 2709937063, "lat": 40.7640065, "lon": -73.990995}, {"type": "node", "id": 2709937088, "lat": 40.7640392, "lon": -73.9909713}, {"type": "node", "id": 2709937311, "lat": 40.7641959, "lon": -73.9908572}, {"type": "node", "id": 2709937313, "lat": 40.7641985, "lon": -73.9908553}, {"type": "node", "id": 2709956033, "lat": 40.7658599, "lon": -73.9904671}, {"type": "node", "id": 2709956055, "lat": 40.7659797, "lon": -73.9903798}, {"type": "node", "id": 2709956078, "lat": 40.7660625, "lon": -73.9905763}, {"type": "node", "id": 2709967883, "lat": 40.7638814, "lon": -73.985773}, {"type": "node", "id": 2709967911, "lat": 40.763958, "lon": -73.9857167}, {"type": "node", "id": 2709967930, "lat": 40.7640193, "lon": -73.9856717}, {"type": "node", "id": 2709967942, "lat": 40.76408, "lon": -73.9862411}, {"type": "node", "id": 2709967945, "lat": 40.7640831, "lon": -73.9856249}, {"type": "node", "id": 2709967963, "lat": 40.7641248, "lon": -73.9862082}, {"type": "node", "id": 2709967981, "lat": 40.7641567, "lon": -73.9861848}, {"type": "node", "id": 2709967999, "lat": 40.7641765, "lon": -73.9855564}, {"type": "node", "id": 2709968000, "lat": 40.7641773, "lon": -73.9861697}, {"type": "node", "id": 2709968018, "lat": 40.7641963, "lon": -73.9856031}, {"type": "node", "id": 2709968071, "lat": 40.7642427, "lon": -73.9861216}, {"type": "node", "id": 2709968120, "lat": 40.7642867, "lon": -73.9858161}, {"type": "node", "id": 2709968122, "lat": 40.7642898, "lon": -73.9860871}, {"type": "node", "id": 2709968141, "lat": 40.7643188, "lon": -73.9860658}, {"type": "node", "id": 2709968170, "lat": 40.7643415, "lon": -73.9859452}, {"type": "node", "id": 2709968183, "lat": 40.7643534, "lon": -73.9861473}, {"type": "node", "id": 2709968210, "lat": 40.7643815, "lon": -73.9859159}, {"type": "node", "id": 2709968212, "lat": 40.7643886, "lon": -73.9861214}, {"type": "node", "id": 2709968228, "lat": 40.7644355, "lon": -73.9858763}, {"type": "node", "id": 2709968230, "lat": 40.7644397, "lon": -73.9860839}, {"type": "node", "id": 2709968251, "lat": 40.7644879, "lon": -73.9860486}, {"type": "node", "id": 2709968258, "lat": 40.7645037, "lon": -73.986037}, {"type": "node", "id": 2710082448, "lat": 40.7695287, "lon": -73.9828091}, {"type": "node", "id": 2710082471, "lat": 40.7693495, "lon": -73.9829155}, {"type": "node", "id": 2710082476, "lat": 40.7694457, "lon": -73.9831451}, {"type": "node", "id": 2710082482, "lat": 40.7694946, "lon": -73.9828103}, {"type": "node", "id": 2710082483, "lat": 40.7695006, "lon": -73.9830527}, {"type": "node", "id": 2710082484, "lat": 40.7695021, "lon": -73.9828283}, {"type": "node", "id": 2710082485, "lat": 40.7695107, "lon": -73.9830011}, {"type": "node", "id": 2710082486, "lat": 40.7695175, "lon": -73.9830931}, {"type": "node", "id": 2710082489, "lat": 40.7695212, "lon": -73.982791}, {"type": "node", "id": 2710082490, "lat": 40.7695249, "lon": -73.9830351}, {"type": "node", "id": 2710082493, "lat": 40.7695498, "lon": -73.9827703}, {"type": "node", "id": 2710082494, "lat": 40.7695562, "lon": -73.9829681}, {"type": "node", "id": 2710082495, "lat": 40.7695874, "lon": -73.9830425}, {"type": "node", "id": 2710082498, "lat": 40.769646, "lon": -73.983}, {"type": "node", "id": 2710195161, "lat": 40.7679539, "lon": -73.9881627, "tags": {"addr:city": "New York", "addr:housenumber": "444", "addr:postcode": "10019", "addr:state": "NY", "addr:street": "West 56th Street", "amenity": "school", "ele": "15", "gnis:feature_id": "2083889", "name": "High School for Environmental Studies", "website": "https://www.envirostudies.org/", "wikidata": "Q16975684", "wikipedia": "en:High School for Environmental Studies"}}, {"type": "node", "id": 2710195173, "lat": 40.7680257, "lon": -73.9891224, "tags": {"addr:city": "New York", "addr:housenumber": "850", "addr:postcode": "10019", "addr:state": "NY", "addr:street": "10th Avenue", "amenity": "school", "fax": "+1-212-262-8110", "name": "Independence High School", "phone": "+1-212-262-8067", "website": "https://www.ihsnyc.com/"}}, {"type": "node", "id": 2710212275, "lat": 40.7702439, "lon": -73.985978}, {"type": "node", "id": 2710212276, "lat": 40.7703693, "lon": -73.9862747}, {"type": "node", "id": 2710212278, "lat": 40.7703991, "lon": -73.9858646}, {"type": "node", "id": 2710212280, "lat": 40.7705245, "lon": -73.9861613}, {"type": "node", "id": 2711693196, "lat": 40.7508603, "lon": -73.972359}, {"type": "node", "id": 2711693216, "lat": 40.7509718, "lon": -73.9726251}, {"type": "node", "id": 2711693250, "lat": 40.7511, "lon": -73.9721841}, {"type": "node", "id": 2711693276, "lat": 40.7512115, "lon": -73.9724503}, {"type": "node", "id": 2712510965, "lat": 40.7685165, "lon": -73.9514065}, {"type": "node", "id": 2712510979, "lat": 40.7686825, "lon": -73.9517955}, {"type": "node", "id": 2712510983, "lat": 40.7687363, "lon": -73.9517558}, {"type": "node", "id": 2712511017, "lat": 40.7688696, "lon": -73.9520684}, {"type": "node", "id": 2712511036, "lat": 40.7689342, "lon": -73.9520207}, {"type": "node", "id": 2712511043, "lat": 40.7689597, "lon": -73.9509744}, {"type": "node", "id": 2712511098, "lat": 40.7691591, "lon": -73.9514418}, {"type": "node", "id": 2713422339, "lat": 40.7194404, "lon": -73.9821787, "tags": {"addr:city": "New York", "addr:housenumber": "219", "addr:postcode": "10002", "addr:state": "NY", "addr:street": "Stanton Street", "alt_name": "Cooke Center Grammar School", "amenity": "school", "email": "schooladmin@cookeschool.org", "name": "Cooke School and Institute Lower School", "phone": "+1-646-273-5555", "website": "https://cookeschool.org/"}}, {"type": "node", "id": 2715577157, "lat": 40.7144843, "lon": -73.9459921}, {"type": "node", "id": 2715577161, "lat": 40.7145545, "lon": -73.9452663}, {"type": "node", "id": 2715577162, "lat": 40.7149991, "lon": -73.9460788}, {"type": "node", "id": 2715578922, "lat": 40.7113178, "lon": -73.940306}, {"type": "node", "id": 2715582210, "lat": 40.7086257, "lon": -73.9383541}, {"type": "node", "id": 2715582211, "lat": 40.7090198, "lon": -73.939892}, {"type": "node", "id": 2715582212, "lat": 40.7091785, "lon": -73.9384474}, {"type": "node", "id": 2715605024, "lat": 40.7194372, "lon": -73.9830671}, {"type": "node", "id": 2715605026, "lat": 40.719778, "lon": -73.9842192}, {"type": "node", "id": 2715613628, "lat": 40.711963, "lon": -73.9597393}, {"type": "node", "id": 2715613629, "lat": 40.712012, "lon": -73.9608961}, {"type": "node", "id": 2715613630, "lat": 40.7120153, "lon": -73.9597054}, {"type": "node", "id": 2715613631, "lat": 40.7122339, "lon": -73.9604691}, {"type": "node", "id": 2715647074, "lat": 40.7708571, "lon": -73.9282193}, {"type": "node", "id": 2715647078, "lat": 40.7708995, "lon": -73.9297296}, {"type": "node", "id": 2715647083, "lat": 40.7713835, "lon": -73.9293523}, {"type": "node", "id": 2715841828, "lat": 40.7003691, "lon": -73.9926831}, {"type": "node", "id": 2715841830, "lat": 40.7005249, "lon": -73.9932485}, {"type": "node", "id": 2715841831, "lat": 40.700896, "lon": -73.9924304}, {"type": "node", "id": 2715841832, "lat": 40.7010519, "lon": -73.9929957}, {"type": "node", "id": 2716231720, "lat": 40.7582745, "lon": -73.9908869}, {"type": "node", "id": 2716231800, "lat": 40.7583736, "lon": -73.9911241}, {"type": "node", "id": 2716231807, "lat": 40.7583855, "lon": -73.9908067}, {"type": "node", "id": 2716231813, "lat": 40.7584064, "lon": -73.9911002}, {"type": "node", "id": 2716231826, "lat": 40.758433, "lon": -73.9907724}, {"type": "node", "id": 2716231861, "lat": 40.7585321, "lon": -73.9910088}, {"type": "node", "id": 2716714107, "lat": 40.7632927, "lon": -73.9898307}, {"type": "node", "id": 2716714108, "lat": 40.7634014, "lon": -73.9897308}, {"type": "node", "id": 2716714109, "lat": 40.7639537, "lon": -73.9908693}, {"type": "node", "id": 2723789385, "lat": 40.7702282, "lon": -73.9593847}, {"type": "node", "id": 2723789394, "lat": 40.7702411, "lon": -73.9594378}, {"type": "node", "id": 2723789399, "lat": 40.7702485, "lon": -73.9594324}, {"type": "node", "id": 2723789414, "lat": 40.7702912, "lon": -73.959556}, {"type": "node", "id": 2723789457, "lat": 40.7704129, "lon": -73.9592493}, {"type": "node", "id": 2723789483, "lat": 40.7704609, "lon": -73.9594317}, {"type": "node", "id": 2723789485, "lat": 40.7704665, "lon": -73.95921}, {"type": "node", "id": 2723789497, "lat": 40.7704975, "lon": -73.9592942}, {"type": "node", "id": 2723789507, "lat": 40.7704996, "lon": -73.9591858}, {"type": "node", "id": 2723789520, "lat": 40.7705333, "lon": -73.9593786}, {"type": "node", "id": 2723789562, "lat": 40.770695, "lon": -73.9591495}, {"type": "node", "id": 2723789563, "lat": 40.7706976, "lon": -73.9590407}, {"type": "node", "id": 2723789566, "lat": 40.7707285, "lon": -73.9591249}, {"type": "node", "id": 2723789568, "lat": 40.7707321, "lon": -73.9591222}, {"type": "node", "id": 2723958292, "lat": 40.7761554, "lon": -73.9635666}, {"type": "node", "id": 2723958348, "lat": 40.7763386, "lon": -73.9640072}, {"type": "node", "id": 2723958351, "lat": 40.7763636, "lon": -73.9634167}, {"type": "node", "id": 2723958353, "lat": 40.7763767, "lon": -73.9635606}, {"type": "node", "id": 2723958359, "lat": 40.7764127, "lon": -73.9635347}, {"type": "node", "id": 2723958371, "lat": 40.7765109, "lon": -73.9638832}, {"type": "node", "id": 2723968634, "lat": 40.7723105, "lon": -73.9576838}, {"type": "node", "id": 2723968656, "lat": 40.7723704, "lon": -73.95764}, {"type": "node", "id": 2723968662, "lat": 40.7723883, "lon": -73.9578679}, {"type": "node", "id": 2723968678, "lat": 40.7724211, "lon": -73.9578439}, {"type": "node", "id": 2723968686, "lat": 40.7724365, "lon": -73.9575916}, {"type": "node", "id": 2723968693, "lat": 40.772455, "lon": -73.9576354}, {"type": "node", "id": 2723968700, "lat": 40.7724739, "lon": -73.9577458}, {"type": "node", "id": 2723968706, "lat": 40.7724844, "lon": -73.9575567}, {"type": "node", "id": 2723968711, "lat": 40.7724931, "lon": -73.9577912}, {"type": "node", "id": 2723968716, "lat": 40.7725029, "lon": -73.9576004}, {"type": "node", "id": 2723968734, "lat": 40.772543, "lon": -73.9576953}, {"type": "node", "id": 2723968740, "lat": 40.772556, "lon": -73.9575043}, {"type": "node", "id": 2723968743, "lat": 40.7725622, "lon": -73.9577408}, {"type": "node", "id": 2723968768, "lat": 40.7726338, "lon": -73.9576885}, {"type": "node", "id": 2724014660, "lat": 40.7767683, "lon": -73.9479099}, {"type": "node", "id": 2724014682, "lat": 40.7768689, "lon": -73.9478054}, {"type": "node", "id": 2724014685, "lat": 40.7768789, "lon": -73.9478289}, {"type": "node", "id": 2724014691, "lat": 40.7769285, "lon": -73.9482886}, {"type": "node", "id": 2724014696, "lat": 40.776972, "lon": -73.9477299}, {"type": "node", "id": 2724014699, "lat": 40.7770115, "lon": -73.9482278}, {"type": "node", "id": 2724014701, "lat": 40.7770165, "lon": -73.9482396}, {"type": "node", "id": 2724014704, "lat": 40.7770272, "lon": -73.9482164}, {"type": "node", "id": 2724014705, "lat": 40.7770321, "lon": -73.9482281}, {"type": "node", "id": 2724014716, "lat": 40.7771421, "lon": -73.9481322}, {"type": "node", "id": 2724094309, "lat": 40.7781101, "lon": -73.9491916}, {"type": "node", "id": 2724094318, "lat": 40.778176, "lon": -73.9493493}, {"type": "node", "id": 2724094319, "lat": 40.7781797, "lon": -73.9491413}, {"type": "node", "id": 2724094334, "lat": 40.778271, "lon": -73.9492807}, {"type": "node", "id": 2724094340, "lat": 40.7783047, "lon": -73.9490511}, {"type": "node", "id": 2724094346, "lat": 40.778331, "lon": -73.9490321}, {"type": "node", "id": 2724094360, "lat": 40.7783968, "lon": -73.9491898}, {"type": "node", "id": 2724095352, "lat": 40.7792828, "lon": -73.9532328, "tags": {"addr:housenumber": "200", "addr:postcode": "10028", "addr:street": "East 87th Street", "amenity": "school", "name": "The Dalton School Physical Education Center"}}, {"type": "node", "id": 2724132965, "lat": 40.782945, "lon": -73.9458768}, {"type": "node", "id": 2724133004, "lat": 40.7831008, "lon": -73.9457641}, {"type": "node", "id": 2724133017, "lat": 40.7831417, "lon": -73.9463475}, {"type": "node", "id": 2724133028, "lat": 40.783177, "lon": -73.945709}, {"type": "node", "id": 2724133034, "lat": 40.7831873, "lon": -73.9457336}, {"type": "node", "id": 2724133039, "lat": 40.7831966, "lon": -73.9463078}, {"type": "node", "id": 2724133069, "lat": 40.7832563, "lon": -73.9456408}, {"type": "node", "id": 2724133076, "lat": 40.7832701, "lon": -73.9456737}, {"type": "node", "id": 2724133117, "lat": 40.7833453, "lon": -73.9457158}, {"type": "node", "id": 2724133127, "lat": 40.7833646, "lon": -73.9461514}, {"type": "node", "id": 2724133131, "lat": 40.7833712, "lon": -73.9455577}, {"type": "node", "id": 2724133133, "lat": 40.7833758, "lon": -73.9461782}, {"type": "node", "id": 2724133138, "lat": 40.7833823, "lon": -73.9458043}, {"type": "node", "id": 2724133144, "lat": 40.7833977, "lon": -73.9457932}, {"type": "node", "id": 2724133153, "lat": 40.7834208, "lon": -73.9458964}, {"type": "node", "id": 2724133155, "lat": 40.7834225, "lon": -73.9455206}, {"type": "node", "id": 2724133159, "lat": 40.7834362, "lon": -73.9458852}, {"type": "node", "id": 2724133166, "lat": 40.7834447, "lon": -73.9460934}, {"type": "node", "id": 2724133167, "lat": 40.783456, "lon": -73.9461202}, {"type": "node", "id": 2724133168, "lat": 40.7834575, "lon": -73.9459843}, {"type": "node", "id": 2724133173, "lat": 40.7834672, "lon": -73.9456277}, {"type": "node", "id": 2724133177, "lat": 40.7834827, "lon": -73.9461009}, {"type": "node", "id": 2724133189, "lat": 40.7835091, "lon": -73.9459471}, {"type": "node", "id": 2724133224, "lat": 40.7835813, "lon": -73.9458948}, {"type": "node", "id": 2724133229, "lat": 40.7835997, "lon": -73.9460163}, {"type": "node", "id": 2724133243, "lat": 40.7836245, "lon": -73.9459983}, {"type": "node", "id": 2724143682, "lat": 40.783461, "lon": -73.9448141}, {"type": "node", "id": 2724143683, "lat": 40.7835561, "lon": -73.9450392}, {"type": "node", "id": 2724143684, "lat": 40.7836983, "lon": -73.9449353}, {"type": "node", "id": 2724143685, "lat": 40.7837605, "lon": -73.9455267}, {"type": "node", "id": 2724143686, "lat": 40.7838551, "lon": -73.9457507}, {"type": "node", "id": 2724143687, "lat": 40.7838677, "lon": -73.9448115}, {"type": "node", "id": 2724143688, "lat": 40.7839038, "lon": -73.945422}, {"type": "node", "id": 2724143689, "lat": 40.7839145, "lon": -73.9444826}, {"type": "node", "id": 2724143690, "lat": 40.7839226, "lon": -73.9457014}, {"type": "node", "id": 2724143691, "lat": 40.7839367, "lon": -73.9457348}, {"type": "node", "id": 2724143692, "lat": 40.7840096, "lon": -73.9447078}, {"type": "node", "id": 2724143693, "lat": 40.7840738, "lon": -73.9452996}, {"type": "node", "id": 2724143694, "lat": 40.784216, "lon": -73.9451956}, {"type": "node", "id": 2724143695, "lat": 40.7842314, "lon": -73.9454757}, {"type": "node", "id": 2724143696, "lat": 40.7842455, "lon": -73.9455091}, {"type": "node", "id": 2724143697, "lat": 40.78431, "lon": -73.9454182}, {"type": "node", "id": 2724205295, "lat": 40.7767521, "lon": -73.9627784}, {"type": "node", "id": 2724205316, "lat": 40.776803, "lon": -73.9628981}, {"type": "node", "id": 2724205350, "lat": 40.776879, "lon": -73.9628421}, {"type": "node", "id": 2724205395, "lat": 40.7769202, "lon": -73.9626547}, {"type": "node", "id": 2724205420, "lat": 40.7769723, "lon": -73.9626163}, {"type": "node", "id": 2724205451, "lat": 40.7770394, "lon": -73.962724}, {"type": "node", "id": 2724224405, "lat": 40.7797055, "lon": -73.9611421}, {"type": "node", "id": 2724224410, "lat": 40.7797483, "lon": -73.9611107}, {"type": "node", "id": 2724224411, "lat": 40.7797558, "lon": -73.9611283}, {"type": "node", "id": 2724224413, "lat": 40.7797705, "lon": -73.9611175}, {"type": "node", "id": 2724224418, "lat": 40.7798161, "lon": -73.9610822}, {"type": "node", "id": 2724224421, "lat": 40.77984, "lon": -73.9614595}, {"type": "node", "id": 2724224424, "lat": 40.7798917, "lon": -73.9610267}, {"type": "node", "id": 2724224425, "lat": 40.7799147, "lon": -73.9610099}, {"type": "node", "id": 2724224427, "lat": 40.7799257, "lon": -73.9613967}, {"type": "node", "id": 2724224428, "lat": 40.7799265, "lon": -73.9610378}, {"type": "node", "id": 2724224430, "lat": 40.7799684, "lon": -73.9610071}, {"type": "node", "id": 2724224431, "lat": 40.7800194, "lon": -73.961328}, {"type": "node", "id": 2724224432, "lat": 40.7800842, "lon": -73.9612804}, {"type": "node", "id": 2724232543, "lat": 40.7792121, "lon": -73.9587726}, {"type": "node", "id": 2724232596, "lat": 40.77931, "lon": -73.9586602}, {"type": "node", "id": 2724232599, "lat": 40.7793232, "lon": -73.9586915}, {"type": "node", "id": 2724232631, "lat": 40.7793921, "lon": -73.959199}, {"type": "node", "id": 2724232643, "lat": 40.7794063, "lon": -73.9591886}, {"type": "node", "id": 2724232663, "lat": 40.7794188, "lon": -73.9585807}, {"type": "node", "id": 2724232753, "lat": 40.7795111, "lon": -73.9585311}, {"type": "node", "id": 2724232756, "lat": 40.7795147, "lon": -73.9591091}, {"type": "node", "id": 2724232764, "lat": 40.7795179, "lon": -73.9585262}, {"type": "node", "id": 2724232769, "lat": 40.7795274, "lon": -73.9591392}, {"type": "node", "id": 2724232831, "lat": 40.7796074, "lon": -73.9590805}, {"type": "node", "id": 2724232868, "lat": 40.7796811, "lon": -73.9584069}, {"type": "node", "id": 2724232878, "lat": 40.7796947, "lon": -73.958397}, {"type": "node", "id": 2724232936, "lat": 40.7798292, "lon": -73.9590286}, {"type": "node", "id": 2724232960, "lat": 40.7799293, "lon": -73.9589554}, {"type": "node", "id": 2744840804, "lat": 40.7714477, "lon": -73.9878916}, {"type": "node", "id": 2744840811, "lat": 40.7714872, "lon": -73.9879871}, {"type": "node", "id": 2744840842, "lat": 40.7715455, "lon": -73.9881278}, {"type": "node", "id": 2744840845, "lat": 40.7715631, "lon": -73.9881151}, {"type": "node", "id": 2744840867, "lat": 40.771753, "lon": -73.9878737}, {"type": "node", "id": 2744840871, "lat": 40.7717862, "lon": -73.9879542}, {"type": "node", "id": 2744840903, "lat": 40.7719918, "lon": -73.9877109}, {"type": "node", "id": 2744840930, "lat": 40.7721144, "lon": -73.9894694}, {"type": "node", "id": 2744840948, "lat": 40.7722457, "lon": -73.9897851}, {"type": "node", "id": 2744840950, "lat": 40.7722522, "lon": -73.9890606}, {"type": "node", "id": 2744840954, "lat": 40.7722797, "lon": -73.9890406}, {"type": "node", "id": 2744840965, "lat": 40.7723228, "lon": -73.9890093}, {"type": "node", "id": 2744840974, "lat": 40.7723478, "lon": -73.9892997}, {"type": "node", "id": 2744840975, "lat": 40.7723515, "lon": -73.9892971}, {"type": "node", "id": 2744840984, "lat": 40.7723879, "lon": -73.9889619}, {"type": "node", "id": 2744840988, "lat": 40.7724113, "lon": -73.9889449}, {"type": "node", "id": 2744840994, "lat": 40.7724456, "lon": -73.98892}, {"type": "node", "id": 2744840996, "lat": 40.7724838, "lon": -73.989612}, {"type": "node", "id": 2744840997, "lat": 40.7724898, "lon": -73.9888879}, {"type": "node", "id": 2744840999, "lat": 40.7727214, "lon": -73.9894392}, {"type": "node", "id": 2744978884, "lat": 40.7739437, "lon": -73.9793963}, {"type": "node", "id": 2744978893, "lat": 40.7739503, "lon": -73.9794886}, {"type": "node", "id": 2744978899, "lat": 40.773975, "lon": -73.9794706}, {"type": "node", "id": 2744978903, "lat": 40.7739775, "lon": -73.9793716}, {"type": "node", "id": 2744978907, "lat": 40.7739892, "lon": -73.9795808}, {"type": "node", "id": 2744978908, "lat": 40.7739936, "lon": -73.9794099}, {"type": "node", "id": 2744978913, "lat": 40.7740137, "lon": -73.9795629}, {"type": "node", "id": 2744978922, "lat": 40.7740263, "lon": -73.9795928}, {"type": "node", "id": 2744978933, "lat": 40.774067, "lon": -73.9793403}, {"type": "node", "id": 2744978935, "lat": 40.7740744, "lon": -73.9793009}, {"type": "node", "id": 2744978940, "lat": 40.7740854, "lon": -73.979327}, {"type": "node", "id": 2744978958, "lat": 40.7741536, "lon": -73.979243}, {"type": "node", "id": 2744978959, "lat": 40.7741572, "lon": -73.9794972}, {"type": "node", "id": 2744978961, "lat": 40.7741589, "lon": -73.9792391}, {"type": "node", "id": 2744978963, "lat": 40.7741649, "lon": -73.9795155}, {"type": "node", "id": 2744978965, "lat": 40.7741688, "lon": -73.9795127}, {"type": "node", "id": 2744978971, "lat": 40.7741821, "lon": -73.9795442}, {"type": "node", "id": 2744978986, "lat": 40.7742575, "lon": -73.9794892}, {"type": "node", "id": 2744978988, "lat": 40.7742628, "lon": -73.9794853}, {"type": "node", "id": 2745038545, "lat": 40.7774084, "lon": -73.9844695}, {"type": "node", "id": 2745038548, "lat": 40.7774588, "lon": -73.9844328}, {"type": "node", "id": 2745038589, "lat": 40.7777503, "lon": -73.9852684},