{"version": 0.6, "generator": "Overpass API 0.7.62.8 e802775f", "osm3s": {"timestamp_osm_base": "2026-01-12T06:15:09Z", "copyright": "The data included in this document is from www.openstreetmap.org. The data is made available under ODbL."}, "elements": [{"type": "node", "id": 256346630, "lat": 13.105017, "lon": 80.2851878}, {"type": "node", "id": 258978416, "lat": 13.0922007, "lon": 80.2792912, "tags": {"addr:district": "Chennai", "addr:full": "New No.310, Mint Street, Sowcarpet", "addr:postcode": "600079", "addr:state": "Tamil Nadu", "amenity": "hospital", "healthcare": "hospital", "name": "Amrit Hospital", "name:en": "Amrit Hospital", "operator:type": "private", "source": "OpenGovernmentData", "website": "http://www.amrithospital.com/"}}, {"type": "node", "id": 258978417, "lat": 13.0985007, "lon": 80.2796178, "tags": {"amenity": "hospital", "healthcare": "hospital", "name": "Vikram Hospital", "name:en": "Apollo Hospital"}}, {"type": "node", "id": 295552092, "lat": 13.0887983, "lon": 80.1994692, "tags": {"addr:district": "Chennai", "addr:full": "New No.4, Old No.1620-A, 16Th Main Road, Anna Nagar", "addr:postcode": "600040", "addr:state": "Tamil Nadu", "amenity": "hospital", "healthcare": "hospital", "name": "Sri Devi Speciality Hospial", "source": "OpenGovernmentData"}}, {"type": "node", "id": 311311305, "lat": 13.1053702, "lon": 80.2826741}, {"type": "node", "id": 311311306, "lat": 13.1055975, "lon": 80.2815609}, {"type": "node", "id": 311311307, "lat": 13.10597, "lon": 80.2816001}, {"type": "node", "id": 311311308, "lat": 13.1062375, "lon": 80.2816419}, {"type": "node", "id": 311311309, "lat": 13.1078008, "lon": 80.2822081}, {"type": "node", "id": 311311310, "lat": 13.1077944, "lon": 80.2833499}, {"type": "node", "id": 311311311, "lat": 13.1077746, "lon": 80.2836353}, {"type": "node", "id": 311311312, "lat": 13.108232, "lon": 80.2836687}, {"type": "node", "id": 311311313, "lat": 13.107981, "lon": 80.2845106}, {"type": "node", "id": 311311314, "lat": 13.10728, "lon": 80.2861159}, {"type": "node", "id": 311311315, "lat": 13.1066006, "lon": 80.2861162}, {"type": "node", "id": 311311316, "lat": 13.1053681, "lon": 80.2864409}, {"type": "node", "id": 311311317, "lat": 13.1049083, "lon": 80.2866813}, {"type": "node", "id": 311311318, "lat": 13.1045421, "lon": 80.286696}, {"type": "node", "id": 311311603, "lat": 13.1051102, "lon": 80.2835535}, {"type": "node", "id": 311311604, "lat": 13.1050002, "lon": 80.2842077}, {"type": "node", "id": 311311605, "lat": 13.104007, "lon": 80.2840312}, {"type": "node", "id": 344420292, "lat": 13.0961311, "lon": 80.238318}, {"type": "node", "id": 344420293, "lat": 13.0943707, "lon": 80.2381461}, {"type": "node", "id": 344420294, "lat": 13.093984, "lon": 80.2410644}, {"type": "node", "id": 344420296, "lat": 13.0954832, "lon": 80.2413965}, {"type": "node", "id": 344420299, "lat": 13.0957421, "lon": 80.239328}, {"type": "node", "id": 344420300, "lat": 13.0960142, "lon": 80.2393393}, {"type": "node", "id": 603480861, "lat": 13.10623, "lon": 80.2815103}, {"type": "node", "id": 603499165, "lat": 13.1032632, "lon": 80.2833066}, {"type": "node", "id": 603499166, "lat": 13.1034394, "lon": 80.2833524}, {"type": "node", "id": 603499169, "lat": 13.1031681, "lon": 80.2839326}, {"type": "node", "id": 618609793, "lat": 13.0971518, "lon": 80.2441703}, {"type": "node", "id": 618609794, "lat": 13.0972284, "lon": 80.2472306}, {"type": "node", "id": 618609795, "lat": 13.0969214, "lon": 80.2462851}, {"type": "node", "id": 618609797, "lat": 13.0986867, "lon": 80.244508}, {"type": "node", "id": 618609798, "lat": 13.0985294, "lon": 80.2468404}, {"type": "node", "id": 618641795, "lat": 13.099355, "lon": 80.2131756}, {"type": "node", "id": 618641805, "lat": 13.1008133, "lon": 80.2138413}, {"type": "node", "id": 618641807, "lat": 13.0989693, "lon": 80.2140747}, {"type": "node", "id": 618641823, "lat": 13.1005152, "lon": 80.2145741}, {"type": "node", "id": 618736292, "lat": 13.0950952, "lon": 80.2187831}, {"type": "node", "id": 618736313, "lat": 13.0945646, "lon": 80.2205955}, {"type": "node", "id": 618736591, "lat": 13.0963249, "lon": 80.219226}, {"type": "node", "id": 618736596, "lat": 13.095839, "lon": 80.2206464}, {"type": "node", "id": 736221805, "lat": 13.0925942, "lon": 80.2408605}, {"type": "node", "id": 736221806, "lat": 13.0926882, "lon": 80.2396911}, {"type": "node", "id": 736221807, "lat": 13.0941376, "lon": 80.2399052}, {"type": "node", "id": 941621037, "lat": 13.0892073, "lon": 80.2178866, "tags": {"amenity": "hospital", "healthcare": "hospital", "name": "Appolo Clinic", "name:ta": "\u0b85\u0baa\u0bcd\u0baa\u0bb2\u0bcd\u0bb2\u0bcb \u0bae\u0bb0\u0bc1\u0ba4\u0bcd\u0ba4\u0bc1\u0bb5\u0bae\u0ba9\u0bc8"}}, {"type": "node", "id": 1182739082, "lat": 13.1635998, "lon": 80.2435516, "tags": {"amenity": "hospital", "name": "MMC Govenment Hospital"}}, {"type": "node", "id": 1957904106, "lat": 13.0868667, "lon": 80.1991661, "tags": {"addr:district": "Chennai", "addr:full": "2/1911, J-Block, 15 Th Main Road, Anna Nagar", "addr:postcode": "600040", "addr:state": "Tamil Nadu", "amenity": "hospital", "healthcare": "hospital", "name": "I K Hospital", "source": "OpenGovernmentData"}}, {"type": "node", "id": 2269895032, "lat": 13.1046675, "lon": 80.2867352}, {"type": "node", "id": 2269895061, "lat": 13.1080689, "lon": 80.2841284}, {"type": "node", "id": 2271510738, "lat": 13.0969749, "lon": 80.2753037}, {"type": "node", "id": 2271510740, "lat": 13.0969749, "lon": 80.2754923}, {"type": "node", "id": 2271510741, "lat": 13.0973527, "lon": 80.2755515}, {"type": "node", "id": 2271510743, "lat": 13.0973859, "lon": 80.2753145}, {"type": "node", "id": 2271724016, "lat": 13.1254726, "lon": 80.2876215}, {"type": "node", "id": 2271724020, "lat": 13.125612, "lon": 80.2862343}, {"type": "node", "id": 2271724022, "lat": 13.1257043, "lon": 80.2866652}, {"type": "node", "id": 2271724024, "lat": 13.1257578, "lon": 80.2855605}, {"type": "node", "id": 2271724026, "lat": 13.1257727, "lon": 80.2862632}, {"type": "node", "id": 2271724028, "lat": 13.1260961, "lon": 80.2878245}, {"type": "node", "id": 2271724029, "lat": 13.1265827, "lon": 80.2857439}, {"type": "node", "id": 2271836927, "lat": 13.1078828, "lon": 80.2836793}, {"type": "node", "id": 2394697635, "lat": 13.0921495, "lon": 80.218451}, {"type": "node", "id": 2394697636, "lat": 13.0921391, "lon": 80.2186817}, {"type": "node", "id": 2394697637, "lat": 13.0920241, "lon": 80.218675}, {"type": "node", "id": 2394697638, "lat": 13.0920293, "lon": 80.2184443}, {"type": "node", "id": 2485567524, "lat": 13.0921812, "lon": 80.2594411, "tags": {"amenity": "hospital", "healthcare": "hospital", "name": "Vepery Hospital"}}, {"type": "node", "id": 2485567706, "lat": 13.0917944, "lon": 80.2596464}, {"type": "node", "id": 2485567709, "lat": 13.0918838, "lon": 80.2588683}, {"type": "node", "id": 2485567719, "lat": 13.0922444, "lon": 80.2592115}, {"type": "node", "id": 2485567771, "lat": 13.092268, "lon": 80.2589035}, {"type": "node", "id": 2485567774, "lat": 13.0923128, "lon": 80.2597572}, {"type": "node", "id": 2485567782, "lat": 13.0927049, "lon": 80.2598031}, {"type": "node", "id": 2485567783, "lat": 13.0927812, "lon": 80.2592736}, {"type": "node", "id": 2559180846, "lat": 13.0929667, "lon": 80.2236256, "tags": {"addr:city": "Chennai", "addr:housename": "Dr. A. Aniz", "addr:housenumber": "158", "addr:neighbourhood": "O Block", "addr:postcode": "600102", "addr:street": "30th Street", "addr:suburb": "Anna Nagar East", "amenity": "hospital", "emergency": "yes", "healthcare": "hospital", "name": "Jaws Dental Foundation"}}, {"type": "node", "id": 3498455460, "lat": 13.0911316, "lon": 80.2815282}, {"type": "node", "id": 3982078512, "lat": 13.1260907, "lon": 80.2488406, "tags": {"addr:city": "Chennai", "addr:district": "Chennai", "addr:full": "No.7, Ethiraiswami Salai, Erukkenchery", "addr:housenumber": "7", "addr:postcode": "600118", "addr:state": "Tamil Nadu", "addr:street": "Ethiraj Samy Salai", "amenity": "hospital", "healthcare": "hospital", "name": "Pavithra Hospital", "source": "OpenGovernmentData"}}, {"type": "node", "id": 4642017100, "lat": 13.1235215, "lon": 80.2660768}, {"type": "node", "id": 4642017101, "lat": 13.123515, "lon": 80.2663585}, {"type": "node", "id": 4642017102, "lat": 13.1235999, "lon": 80.2663585}, {"type": "node", "id": 4642017103, "lat": 13.1236038, "lon": 80.2660782}, {"type": "node", "id": 5263563022, "lat": 13.1131363, "lon": 80.2429369, "tags": {"addr:district": "Chennai", "addr:full": "Siruvallur, Perambur, Chennai", "addr:postcode": "600011", "addr:state": "Tamil Nadu", "amenity": "hospital", "healthcare": "hospital", "name:en": "J.M Hoapital", "source": "Local Knowledge"}}, {"type": "node", "id": 6274342347, "lat": 13.1052653, "lon": 80.2823377}, {"type": "node", "id": 6274342348, "lat": 13.1046015, "lon": 80.2821824}, {"type": "node", "id": 6274342349, "lat": 13.1044846, "lon": 80.2827057}, {"type": "node", "id": 6274342350, "lat": 13.1043144, "lon": 80.2826667}, {"type": "node", "id": 6274342351, "lat": 13.1042231, "lon": 80.2832772}, {"type": "node", "id": 6274342352, "lat": 13.1035087, "lon": 80.2831569}, {"type": "node", "id": 6914768001, "lat": 13.1105649, "lon": 80.2418775, "tags": {"addr:district": "Chennai", "addr:full": "New No. 51, 18,Bunder Garden Street,Perambur,Opposite Lourdes Girls School", "addr:postcode": "600011", "addr:state": "Tamil Nadu", "amenity": "hospital", "healthcare": "hospital", "name": "Sen Hospital", "source": "OpenGovernmentData"}}, {"type": "node", "id": 6914768063, "lat": 13.1026603, "lon": 80.2112943, "tags": {"addr:district": "Tiruvallur", "addr:full": "No.36, Ponnankinaru Street, Villivakkam", "addr:postcode": "600049", "addr:state": "Tamil Nadu", "amenity": "hospital", "healthcare": "hospital", "name": "Cauvery Trust Hospital", "source": "OpenGovernmentData"}}, {"type": "node", "id": 6914880540, "lat": 13.0917939, "lon": 80.2410534, "tags": {"addr:district": "Chennai", "addr:full": "64, Medavakkam Tank Road, Kilpauk", "addr:postcode": "600010", "addr:state": "Tamil Nadu", "amenity": "hospital", "healthcare": "hospital", "name": "Chennai Heart Centre", "source": "OpenGovernmentData"}}, {"type": "node", "id": 6915218991, "lat": 13.0995855, "lon": 80.2605303, "tags": {"addr:district": "Chennai", "addr:full": "#105, Pulianthope High Road,Pulianthope", "addr:postcode": "600012", "addr:state": "Tamil Nadu", "amenity": "hospital", "healthcare": "hospital", "name": "Deepam Muthu Hospital", "source": "OpenGovernmentData"}}, {"type": "node", "id": 6916178396, "lat": 13.1418442, "lon": 80.2485046, "tags": {"addr:district": "Chennai", "addr:full": "No.13, Seetharam Nagar, Vii Street, Munsif Garden,Chinnakodungaiyur", "addr:postcode": "600118", "addr:state": "Tamil Nadu", "amenity": "hospital", "healthcare": "hospital", "name": "Noor`S Hospital", "source": "OpenGovernmentData"}}, {"type": "node", "id": 6916205172, "lat": 13.1177888, "lon": 80.2287099, "tags": {"addr:district": "Chennai", "addr:full": "#289/149, D.No.149, ,Paper Mills Road, Opp To 70 Feet Road,Perambur", "addr:postcode": "600082", "addr:state": "Tamil Nadu", "amenity": "hospital", "healthcare": "hospital", "name": "Vasan Eye Care Hospital, Perambur", "source": "OpenGovernmentData"}}, {"type": "node", "id": 6926280322, "lat": 13.0924039, "lon": 80.2090184, "tags": {"addr:district": "Chennai", "addr:full": "1201, 6th Avenue", "addr:postcode": "600040", "addr:state": "Tamil Nadu", "addr:subdistrict": "Anna Nagar", "amenity": "hospital", "email": "info@aashianachennai.com", "healthcare": "hospital", "healthcare:speciality": "multi speciality", "name": "Aashiana Hospital", "operator:type": "private", "source": "OpenGovernmentData", "website": "http://www.aashianachennai.com/p/home.html"}}, {"type": "node", "id": 6926494067, "lat": 13.0899919, "lon": 80.2585199, "tags": {"addr:district": "Chennai", "addr:full": "120/113, Perambur Barracks Road, Purasawalkam", "addr:postcode": "600004", "addr:state": "Tamil Nadu", "amenity": "hospital", "healthcare": "hospital", "name": "G K M Hospital Pvt Ltd", "source": "OpenGovernmentData"}}, {"type": "node", "id": 6929250392, "lat": 13.0973284, "lon": 80.1942193, "tags": {"addr:district": "Chennai", "addr:full": "W-27, Old No.18, North Main Road,Anna Nagar West Extn", "addr:postcode": "600101", "addr:state": "Tamil Nadu", "amenity": "hospital", "healthcare": "hospital", "name": "Dhanvantari Eye Care", "name:etymology:wikidata": "Q202011", "source": "OpenGovernmentData"}}, {"type": "node", "id": 6929255218, "lat": 13.1183119, "lon": 80.2318051, "tags": {"addr:district": "Chennai", "addr:full": "46, S.R.P. Kil Street(North) T.V.K.Nagar", "addr:postcode": "600082", "addr:state": "Tamil Nadu", "amenity": "hospital", "healthcare": "hospital", "name": "Sri Bala Nursing Home", "source": "OpenGovernmentData"}}, {"type": "node", "id": 6929257550, "lat": 13.1638346, "lon": 80.2581659, "tags": {"addr:district": "Tiruvallur", "addr:full": "201, Kamarajar Salai Manali Chennai", "addr:postcode": "600068", "addr:state": "Tamil Nadu", "amenity": "hospital", "healthcare": "hospital", "name": "Anand Hospital, Chennai", "source": "OpenGovernmentData"}}, {"type": "node", "id": 6932068862, "lat": 13.0850496, "lon": 80.215956, "tags": {"addr:district": "Chennai", "addr:full": "W-98, Second Avenue Anna Nagar", "addr:postcode": "600040", "addr:state": "Tamil Nadu", "amenity": "hospital", "healthcare": "hospital", "name": "West Madras Medical Centre", "source": "OpenGovernmentData"}}, {"type": "node", "id": 6932138889, "lat": 13.0916495, "lon": 80.2179844, "tags": {"addr:district": "Chennai", "addr:full": "63, Old No. 102, Q Block, 3Road Avenue , Annanagar", "addr:postcode": "600040", "addr:state": "Tamil Nadu", "amenity": "hospital", "healthcare": "hospital", "name": "Rathi Med Speciality Hospital", "source": "OpenGovernmentData"}}, {"type": "node", "id": 6932938090, "lat": 13.1368213, "lon": 80.2087516, "tags": {"addr:district": "Tiruvallur", "addr:full": "#100 A, Perambur -Redhills Road ,Near Secretariat Colony Bus Stop,Lakshmipuram", "addr:postcode": "600099", "addr:state": "Tamil Nadu", "amenity": "hospital", "healthcare": "hospital", "name": "Lake View Hospital, Tiruvallur", "source": "OpenGovernmentData"}}, {"type": "node", "id": 6932966221, "lat": 13.0893773, "lon": 80.2547595, "tags": {"addr:district": "Chennai", "addr:full": "No.18, Tana Street, Purasawalkam", "addr:postcode": "600007", "addr:state": "Tamil Nadu", "amenity": "hospital", "healthcare": "hospital", "name": "Narayanaa Hospital", "source": "OpenGovernmentData"}}, {"type": "node", "id": 6933523232, "lat": 13.1282303, "lon": 80.2421558, "tags": {"addr:block": "Chennai Zone Iv", "addr:district": "Chennai", "addr:full": "Moolakadai Junction, Moolkadai, Gnt Road, Moolakadai", "addr:postcode": "600060", "addr:state": "Tamil Nadu", "amenity": "hospital", "healthcare": "hospital", "name": "Kvt Health Centre", "source": "OpenGovernmentData"}}, {"type": "node", "id": 6933802716, "lat": 13.1109009, "lon": 80.2812195, "tags": {"addr:district": "Chennai", "addr:full": "New No 976, Old No 447, T H Road,Old Washermenpet, Opp To Nirmala Silks,Tondiarpet", "addr:postcode": "600021", "addr:state": "Tamil Nadu", "amenity": "hospital", "healthcare": "hospital", "name": "Vasan Eye Care Hospital, Tondiarpet", "source": "OpenGovernmentData"}}, {"type": "node", "id": 6933869777, "lat": 13.0884107, "lon": 80.2421169, "tags": {"addr:district": "Tiruvallur", "addr:full": "No.167,E.H.Road,Vyasarpadi,Sharma Nagar,Chennai", "addr:postcode": "600019", "addr:state": "Tamil Nadu", "amenity": "hospital", "healthcare": "hospital", "name": "K.M. Hospitals, Chennai", "source": "OpenGovernmentData"}}, {"type": "node", "id": 6934036697, "lat": 13.0981213, "lon": 80.2362643, "tags": {"addr:district": "Chennai", "addr:full": "No.46, Konnur High Road Ayanavaram", "addr:postcode": "600023", "addr:state": "Tamil Nadu", "amenity": "hospital", "healthcare": "hospital", "name": "Sri Eshodha Hospital", "source": "OpenGovernmentData"}}, {"type": "node", "id": 6934098007, "lat": 13.1160177, "lon": 80.2328438, "tags": {"addr:district": "Chennai", "addr:full": "No.22/2, E.S.I.Hospital Road", "addr:postcode": "600011", "addr:state": "Tamil Nadu", "addr:subdistrict": "Peravallur", "amenity": "hospital", "healthcare": "hospital", "healthcare:speciality": "multi speciality", "name": "Abhijay Hospital", "operator:type": "private", "source": "OpenGovernmentData", "website": "https://www.abhijayhospital.com/"}}, {"type": "node", "id": 6934246102, "lat": 13.1100467, "lon": 80.2466847, "tags": {"addr:district": "Chennai", "addr:full": "Old No.89,& New No.106 Pate Road Perambur, (Near Perambur Railway Station), Patel Road", "addr:postcode": "600011", "addr:state": "Tamil Nadu", "amenity": "hospital", "healthcare": "hospital", "name": "Srinivas Priya Hospital (P) Ltd", "source": "OpenGovernmentData"}}, {"type": "node", "id": 6934325848, "lat": 13.1122162, "lon": 80.2309737, "tags": {"addr:district": "Chennai", "addr:full": "7(1/1A)1st Main Road Jawahar Nagar", "addr:postcode": "600082", "addr:state": "Tamil Nadu", "amenity": "hospital", "healthcare": "hospital", "name": "N.R. Hospital", "source": "OpenGovernmentData"}}, {"type": "node", "id": 6934325849, "lat": 13.0965878, "lon": 80.2597135, "tags": {"addr:district": "Chennai", "addr:full": "No 1, Binny Colony, Perambur Barracks Road, Behind Binny Cloth Show Room", "addr:postcode": "600012", "addr:state": "Tamil Nadu", "amenity": "hospital", "healthcare": "hospital", "name": "N.R. Medical Home Private Limited", "source": "OpenGovernmentData"}}, {"type": "node", "id": 6934325876, "lat": 13.1184216, "lon": 80.2610184, "tags": {"addr:district": "Chennai", "addr:full": "10A/3 I Cross Street, M K B Nagar", "addr:postcode": "600039", "addr:state": "Tamil Nadu", "amenity": "hospital", "healthcare": "hospital", "name": "Nalamm Hospital Pvt Ltd", "source": "OpenGovernmentData"}}, {"type": "node", "id": 6934326572, "lat": 13.1308907, "lon": 80.2138799, "tags": {"addr:block": "Madhavaram", "addr:district": "Thiruvallur", "addr:full": "No:1419, Chennai, 200 Feet,Retteri Junction,Kolathur", "addr:postcode": "600099", "addr:state": "Tamil Nadu", "addr:subdistrict": "Mathavaram", "amenity": "hospital", "healthcare": "hospital", "name": "Sri Kumaran Health Centre", "source": "OpenGovernmentData"}}, {"type": "node", "id": 6934347086, "lat": 13.0983518, "lon": 80.2797285}, {"type": "node", "id": 6934407803, "lat": 13.0919709, "lon": 80.2511633, "tags": {"addr:district": "Chennai", "addr:full": "No-36, Brickkiln Road Near Abirani Theatre", "addr:postcode": "600012", "addr:state": "Tamil Nadu", "amenity": "hospital", "healthcare": "hospital", "name": "Shri Balaji Hospital - Chennai", "source": "OpenGovernmentData"}}, {"type": "node", "id": 6936275517, "lat": 13.1135903, "lon": 80.2270764, "tags": {"addr:district": "Chennai", "addr:full": "B-63, Siva Elango Salai (70 Feet Road), Periyar Nagar", "addr:postcode": "600082", "addr:state": "Tamil Nadu", "amenity": "hospital", "healthcare": "hospital", "name": "Dr Agarwal Eye Hospital Ltd", "source": "OpenGovernmentData"}}, {"type": "node", "id": 6936369001, "lat": 13.1217887, "lon": 80.1996361, "tags": {"addr:district": "Tiruvallur", "addr:full": "No: 9, 100 Feet Road, Nehru National Highway, Kolathur", "addr:postcode": "600099", "addr:state": "Tamil Nadu", "amenity": "hospital", "check_date": "2024-09-28", "name": "D R J Hospital P. Ltd.", "source": "OpenGovernmentData"}}, {"type": "node", "id": 6936411410, "lat": 13.0877615, "lon": 80.2423476, "tags": {"addr:district": "Chennai", "addr:full": "72, Medavakkam Tank Road, Near Jamai Mosque", "addr:postcode": "600010", "addr:state": "Tamil Nadu", "addr:subdistrict": "Kilpauk", "amenity": "hospital", "email": "deepameyehospital@gmail.com; contact@deepameyehospital.com", "healthcare": "hospital", "name": "Deepam Eye Hospital", "operator:type": "private", "source": "OpenGovernmentData", "website": "http://www.deepameyehospital.com/"}}, {"type": "node", "id": 6936696239, "lat": 13.0892193, "lon": 80.2415402, "tags": {"addr:district": "Chennai", "addr:full": "N0 122,Medavakkam Tank Road,Ayanavaram", "addr:postcode": "600023", "addr:state": "Tamil Nadu", "amenity": "hospital", "healthcare": "hospital", "name": "Trust Hospital, Chennai", "source": "OpenGovernmentData"}}, {"type": "node", "id": 6936738654, "lat": 13.1166714, "lon": 80.2803303, "tags": {"addr:district": "Chennai", "addr:full": "10/18, Arumugam Street, Old Washermenpet", "addr:postcode": "600021", "addr:state": "Tamil Nadu", "amenity": "hospital", "healthcare": "hospital", "name": "Roselin Gandhi Hospital", "source": "OpenGovernmentData"}}, {"type": "node", "id": 6936994823, "lat": 13.1184203, "lon": 80.204346, "tags": {"addr:district": "Tiruvallur", "addr:full": "No.52, Dayalunagar, Kolathur, Near Villirakham Railway Station", "addr:postcode": "600049", "addr:state": "Tamil Nadu", "amenity": "hospital", "name": "B B Hospital", "source": "OpenGovernmentData"}}, {"type": "node", "id": 6937111102, "lat": 13.1450072, "lon": 80.2398249, "tags": {"addr:district": "Chennai", "addr:full": "# 8 & 9 Annai Velakanni Nagar,Madhavaram Milk Colony", "addr:postcode": "600081", "addr:state": "Tamil Nadu", "amenity": "hospital", "healthcare": "hospital", "name": "K.M. Multi Speciality Hospital", "source": "OpenGovernmentData"}}, {"type": "node", "id": 7252256158, "lat": 13.163539, "lon": 80.2430669, "tags": {"addr:block": "Madhavaram", "addr:district": "Thiruvallur", "addr:full": "Government Hospital, Madhavaram, Madhavaram, Manjambakkam, Milk Colony", "addr:postcode": "600051", "addr:state": "Tamil Nadu", "addr:subdistrict": "Mathavaram", "amenity": "hospital", "name": "Madhavaram Government Hospital", "source": "OpenGovernmentData"}}, {"type": "node", "id": 7252256177, "lat": 13.1297134, "lon": 80.2506039, "tags": {"addr:block": "Chennai Zone I", "addr:district": "Chennai", "addr:full": "Near M.R. Nagar, Bus Stop, Moolakadai, Perambur, Ist Main Road", "addr:postcode": "0:00", "addr:state": "Tamil Nadu", "amenity": "hospital", "healthcare": "hospital", "name": "Swasthik Health Care center", "source": "OpenGovernmentData"}}, {"type": "node", "id": 7252256184, "lat": 13.13468, "lon": 80.243196, "tags": {"addr:block": "Chennai Zone I", "addr:district": "Chennai", "addr:full": "86/A, Pandian Cinema Theatre, Kodungaiyur, Kamarajar Salai", "addr:postcode": "600081", "addr:state": "Tamil Nadu", "amenity": "hospital", "healthcare": "hospital", "name": "NRV Hospital", "source": "OpenGovernmentData"}}, {"type": "node", "id": 7252333318, "lat": 13.12038, "lon": 80.285818, "tags": {"addr:block": "Chennai Zone I", "addr:district": "Chennai", "addr:full": "Near Washermanpet Post Office, Oldwashermanpet, Thiruvottiyur High Road", "addr:postcode": "600021", "addr:state": "Tamil Nadu", "amenity": "hospital", "healthcare": "hospital", "name": "Rasi Hospital", "source": "OpenGovernmentData"}}, {"type": "node", "id": 7252333320, "lat": 13.0991743, "lon": 80.2301988, "tags": {"addr:block": "Chennai Zone Vi", "addr:district": "Chennai", "addr:full": "United India Nagar, Ayanavaram", "addr:postcode": "600023", "addr:state": "Tamil Nadu", "amenity": "hospital", "healthcare": "hospital", "name": "Government Maternity And Child Hospital", "source": "OpenGovernmentData"}}, {"type": "node", "id": 7252333347, "lat": 13.1153048, "lon": 80.2233851, "tags": {"addr:block": "Chennai Zone Xi", "addr:district": "Chennai", "addr:full": "Govt.Peripheral Hospital, Periyar Nagar, Shiva Vishnu Koil, Periyar Nagar, Jaganadhan Salai", "addr:postcode": "600082", "addr:state": "Tamil Nadu", "amenity": "hospital", "healthcare": "hospital", "name": "Govt Peripheral Hospital Periyar Nagar", "source": "OpenGovernmentData"}}, {"type": "node", "id": 7252333381, "lat": 13.0993782, "lon": 80.2825418, "tags": {"addr:block": "Chennai Zone V", "addr:district": "Chennai", "addr:full": "Near Seven Wells Police Station, Seven Wells, Amman Koil Street,Chennai-1", "addr:postcode": "600001", "addr:state": "Tamil Nadu", "amenity": "hospital", "healthcare": "hospital", "name": "Seven Wells Hospital", "source": "OpenGovernmentData"}}, {"type": "node", "id": 7252333389, "lat": 13.1142928, "lon": 80.2844517, "tags": {"addr:block": "Chennai Zone V", "addr:district": "Chennai", "addr:full": "Near old washermanpet post office, Royapuram, Solaiappar Street", "addr:postcode": "600021", "addr:state": "Tamil Nadu", "amenity": "hospital", "healthcare": "hospital", "name": "Chennai Corporation Hospital", "source": "OpenGovernmentData"}}, {"type": "node", "id": 7252333396, "lat": 13.1267531, "lon": 80.2489796, "tags": {"addr:block": "Madhavaram", "addr:district": "Thiruvallur", "addr:full": "Near Pavithra Hospital, Chennai, Plot No 1,2,3 , Ethirajaswamy Salai, Erukkanchery", "addr:postcode": "600118", "addr:state": "Tamil Nadu", "addr:subdistrict": "Mathavaram", "amenity": "hospital", "healthcare": "hospital", "name": "Kvt Health Speciality Hospital", "source": "OpenGovernmentData"}}, {"type": "node", "id": 7252333403, "lat": 13.0916464, "lon": 80.2139939, "tags": {"addr:district": "Thiruvallur", "addr:full": "No.65, Near K4 Police Station, Anna Nagar Chennai, R- Block, 12Th Street", "addr:postcode": "600040", "addr:state": "Tamil Nadu", "addr:subdistrict": "Ambattur", "amenity": "hospital", "healthcare": "hospital", "name": "Firm Hospital", "source": "OpenGovernmentData"}}, {"type": "node", "id": 7252333407, "lat": 13.0887, "lon": 80.256712, "tags": {"addr:block": "Chennai Zone Vi", "addr:district": "Chennai", "addr:full": "Purasaiwalkaam, Kariyappa Street", "addr:postcode": "600007", "addr:state": "Tamil Nadu", "amenity": "hospital", "healthcare": "hospital", "name": "Chennai Corporation Hospital", "source": "OpenGovernmentData"}}, {"type": "node", "id": 7818702358, "lat": 13.1345397, "lon": 80.2058879, "tags": {"addr:district": "Tiruvallur", "addr:full": "Bharathi Nagar, Lakshmipuram", "addr:postcode": "600099", "addr:state": "Tamil Nadu", "amenity": "hospital", "healthcare": "hospital", "name": "Uma Hospital", "source": "Local Knowledge"}}, {"type": "node", "id": 7818702393, "lat": 13.165259, "lon": 80.25871, "tags": {"addr:district": "Tiruvallur", "addr:full": "Vimlapuram, Chinnasekkadu, Manali", "addr:postcode": "600068", "addr:state": "Tamil Nadu", "amenity": "hospital", "healthcare": "hospital", "name": "Sankara Eye Hospital", "source": "Local Knowledge"}}, {"type": "node", "id": 7818702420, "lat": 13.161861, "lon": 80.204431, "tags": {"addr:district": "Tiruvallur", "addr:full": "Puzhal", "addr:postcode": "600066", "addr:state": "Tamil Nadu", "amenity": "hospital", "name": "St. Anthony's Hospital", "source": "Local Knowledge"}}, {"type": "node", "id": 7824965209, "lat": 13.0886474, "lon": 80.2416011, "tags": {"addr:district": "Chennai", "addr:full": "Sanyasipuram, Kilpauk, Chennai", "addr:postcode": "600010", "addr:state": "Tamil Nadu", "amenity": "hospital", "healthcare": "hospital", "name": "Dr. Sambandam Eye Hospital", "source": "Local Knowledge"}}, {"type": "node", "id": 7824965213, "lat": 13.0888843, "lon": 80.2418555, "tags": {"addr:district": "Chennai", "addr:full": "Kilpauk, Chennai", "addr:postcode": "600010", "addr:state": "Tamil Nadu", "amenity": "hospital", "healthcare": "hospital", "name": "Ranjith Hospital", "source": "Local Knowledge"}}, {"type": "node", "id": 7825002779, "lat": 13.1216771, "lon": 80.2236766, "tags": {"addr:district": "Chennai", "addr:full": "Santhi Nagar, Kolathur, Chennai", "addr:postcode": "600082", "addr:state": "Tamil Nadu", "amenity": "hospital", "healthcare": "hospital", "name": "V S Hospital", "source": "Local Knowledge"}}, {"type": "node", "id": 7825002781, "lat": 13.1160443, "lon": 80.2454243, "tags": {"addr:district": "Chennai", "addr:full": "Perambur, Chennai", "addr:postcode": "600039", "addr:state": "Tamil Nadu", "amenity": "hospital", "healthcare": "hospital", "name": "Iyyappa Multi Speciality Hospitals", "source": "Local Knowledge"}}, {"type": "node", "id": 7825002782, "lat": 13.113594, "lon": 80.2394367, "tags": {"addr:district": "Chennai", "addr:full": "Perambur, Chennai", "addr:postcode": "600011", "addr:state": "Tamil Nadu", "amenity": "hospital", "healthcare": "hospital", "name": "GK Hospital", "source": "Local Knowledge"}}, {"type": "node", "id": 7825009786, "lat": 13.1155627, "lon": 80.2457851, "tags": {"addr:district": "Chennai", "addr:full": "Chinnaiyan Colony, Perambur, Chennai", "addr:postcode": "600039", "addr:state": "Tamil Nadu", "amenity": "hospital", "healthcare": "hospital", "name": "Dr. Kleela Hospital", "source": "Local Knowledge"}}, {"type": "node", "id": 7825009787, "lat": 13.1297562, "lon": 80.2172747, "tags": {"addr:district": "Chennai", "addr:full": "Kolathur", "addr:postcode": "600099", "addr:state": "Tamil Nadu", "amenity": "hospital", "healthcare": "hospital", "name": "Bluemed Healthcare", "source": "Local Knowledge"}}, {"type": "node", "id": 7825009790, "lat": 13.1204837, "lon": 80.2243993, "tags": {"addr:district": "Chennai", "addr:full": "Perambur, Chennai", "addr:postcode": "600082", "addr:state": "Tamil Nadu", "amenity": "hospital", "check_date": "2024-08-11", "healthcare": "hospital", "name": "St. Joseph Cluny Hospital", "source": "Local Knowledge"}}, {"type": "node", "id": 7825009792, "lat": 13.1102652, "lon": 80.2418486, "tags": {"addr:district": "Chennai", "addr:full": "Perambur, Chennai", "addr:postcode": "600011", "addr:state": "Tamil Nadu", "amenity": "hospital", "healthcare": "hospital", "name": "Dr. A C Aruldas Hospital", "source": "Local Knowledge"}}, {"type": "node", "id": 7825009797, "lat": 13.1300779, "lon": 80.216941, "tags": {"addr:district": "Chennai", "addr:full": "Ponniammanmedu", "addr:postcode": "600099", "addr:state": "Tamil Nadu", "amenity": "hospital", "healthcare": "hospital", "name": "Bharathiraja Hospitals", "source": "Local Knowledge"}}, {"type": "node", "id": 7825009798, "lat": 13.1222839, "lon": 80.2160951, "tags": {"addr:district": "Chennai", "addr:full": "Kaveri Nagar, Kolathur, Chennai", "addr:postcode": "600099", "addr:state": "Tamil Nadu", "amenity": "hospital", "healthcare": "hospital", "name": "Kolathur Multi Speciality and Research Centre", "source": "Local Knowledge"}}, {"type": "node", "id": 7825009799, "lat": 13.1185, "lon": 80.2258076, "tags": {"addr:district": "Chennai", "addr:full": "Perambur, Chennai", "addr:postcode": "600082", "addr:state": "Tamil Nadu", "amenity": "hospital", "healthcare": "hospital", "name": "Arul Childs Hospital", "source": "Local Knowledge"}}, {"type": "node", "id": 7825009803, "lat": 13.129071, "lon": 80.2159086, "tags": {"addr:district": "Chennai", "addr:full": "Ponniammanmedu", "addr:postcode": "600099", "addr:state": "Tamil Nadu", "amenity": "hospital", "healthcare": "hospital", "name": "KCK Hospital", "source": "Local Knowledge"}}, {"type": "node", "id": 7825009805, "lat": 13.121994, "lon": 80.2236309, "tags": {"addr:district": "Chennai", "addr:full": "Kolathur, Chennai", "addr:postcode": "600099", "addr:state": "Tamil Nadu", "amenity": "hospital", "healthcare": "hospital", "name": "Sugar Hospital", "source": "Local Knowledge"}}, {"type": "node", "id": 7825009807, "lat": 13.129869, "lon": 80.214109, "tags": {"addr:district": "Chennai", "addr:full": "Kolathur", "addr:postcode": "600099", "addr:state": "Tamil Nadu", "amenity": "hospital", "healthcare": "hospital", "name": "Retteri Kumaran Hospital", "source": "Local Knowledge"}}, {"type": "node", "id": 7825009815, "lat": 13.1093369, "lon": 80.2312849, "tags": {"addr:district": "Chennai", "addr:full": "Perambur, Chennai", "addr:postcode": "600082", "addr:state": "Tamil Nadu", "amenity": "hospital", "healthcare": "hospital", "name": "Government Hospital", "source": "Local Knowledge"}}, {"type": "node", "id": 7825009816, "lat": 13.129327, "lon": 80.2152624, "tags": {"addr:district": "Chennai", "addr:full": "Kolathur, Villivakkam", "addr:postcode": "600099", "addr:state": "Tamil Nadu", "amenity": "hospital", "healthcare": "hospital", "name": "K.H.M. Hospital", "source": "Local Knowledge"}}, {"type": "node", "id": 7825009817, "lat": 13.1131038, "lon": 80.2404022, "tags": {"addr:district": "Chennai", "addr:full": "Perambur, Chennai", "addr:postcode": "600011", "addr:state": "Tamil Nadu", "amenity": "hospital", "healthcare": "hospital", "name": "Sankar Eye Hospital", "source": "Local Knowledge"}}, {"type": "node", "id": 7825009819, "lat": 13.1101477, "lon": 80.2244516, "tags": {"addr:district": "Chennai", "addr:full": "Perambur, Chennai", "addr:postcode": "600082", "addr:state": "Tamil Nadu", "amenity": "hospital", "healthcare": "hospital", "name": "Niranjana Hospital", "source": "Local Knowledge"}}, {"type": "node", "id": 7825009820, "lat": 13.1148422, "lon": 80.2441515, "tags": {"addr:district": "Chennai", "addr:full": "Perambur, Chennai", "addr:postcode": "600039", "addr:state": "Tamil Nadu", "amenity": "hospital", "healthcare": "hospital", "name": "Parvatham Hospital", "source": "Local Knowledge"}}, {"type": "node", "id": 7825009823, "lat": 13.1263043, "lon": 80.2192658, "tags": {"addr:district": "Chennai", "addr:full": "Balakumaran Nagar, Kolathur", "addr:postcode": "600099", "addr:state": "Tamil Nadu", "amenity": "hospital", "healthcare": "hospital", "name": "U.S. Hospital", "source": "Local Knowledge"}}, {"type": "node", "id": 7825009824, "lat": 13.1106227, "lon": 80.2374461, "tags": {"addr:district": "Chennai", "addr:full": "Amrithammal Colony, Perambur, Chennai", "addr:postcode": "600011", "addr:state": "Tamil Nadu", "amenity": "hospital", "healthcare": "hospital", "name": "Bharani Hospital", "source": "Local Knowledge"}}, {"type": "node", "id": 7953367285, "lat": 13.1183857, "lon": 80.2606286, "tags": {"amenity": "hospital", "healthcare": "hospital", "name:en": "Nalam marithuvamanai"}}, {"type": "node", "id": 9189419123, "lat": 13.096083, "lon": 80.238845, "tags": {"access": "private", "barrier": "gate"}}, {"type": "node", "id": 9980280804, "lat": 13.1266701, "lon": 80.2014392, "tags": {"amenity": "hospital", "healthcare": "hospital", "name": "Shreyas hospital"}}, {"type": "node", "id": 10236494322, "lat": 13.1075515, "lon": 80.2855608}, {"type": "node", "id": 10261422409, "lat": 13.1180276, "lon": 80.2126037, "tags": {"addr:housenumber": "1279 B", "addr:postcode": "600099", "addr:street": "Poompuhar Nagar 1st Main Road", "alt_name": "WCF Hospital Kolathur", "amenity": "hospital", "description": "Gynecology hospital, all things pregnancy related.", "email": "wcfkolathur@gmail.com", "healthcare": "hospital", "healthcare:speciality": "gynaecology", "name": "Women And Children Foundation Hospital", "opening_hours": "24/7", "operator": "Women And Children Foundation Limited", "operator:type": "private", "phone": "04425508210, 8939957777, 8939917777", "website": "http://www.wcfkolathur.in/", "whatsapp": "8939957777"}}, {"type": "node", "id": 10271805421, "lat": 13.0972767, "lon": 80.1982422, "tags": {"addr:housenumber": "R/7a", "addr:street": "N Main Rd, Kailash Colony, Sector A, Anna Nagar West Extension, Chennai, Tamil Nadu 600101", "amenity": "hospital", "description": "A mental health centre and nonprofit organization based at Chennai, Tamil Nadu, offering a multidisciplinary, comprehensive range of psychiatric care and rehabilitation services", "email": "info@scarfindia.org; communications@scarfindia.org", "name": "Frame of Mind - SCARF Psychiatric Hospital", "opening_hours": "Mo, We-Sa 09:30-13:30", "phone": "+919150587361;04426151073; 04426153971", "speciality": "schizophrenia, psychiatry", "website": "https://www.scarfindia.org/"}}, {"type": "node", "id": 10742847096, "lat": 13.139868, "lon": 80.2173881}, {"type": "node", "id": 10742847097, "lat": 13.1402505, "lon": 80.2174062}, {"type": "node", "id": 10742847098, "lat": 13.1402205, "lon": 80.2179863}, {"type": "node", "id": 10742847099, "lat": 13.1398452, "lon": 80.2178267}, {"type": "node", "id": 10742847100, "lat": 13.1401893, "lon": 80.2179731, "tags": {"access": "private", "barrier": "gate"}}, {"type": "node", "id": 10742847103, "lat": 13.1398876, "lon": 80.2178447}, {"type": "node", "id": 10933682533, "lat": 13.0983333, "lon": 80.2800134}, {"type": "node", "id": 10933682534, "lat": 13.098345, "lon": 80.279833}, {"type": "node", "id": 10933682536, "lat": 13.0983329, "lon": 80.2800191}, {"type": "node", "id": 10933682537, "lat": 13.0984355, "lon": 80.2800262}, {"type": "node", "id": 10933682538, "lat": 13.0984545, "lon": 80.2797356}, {"type": "node", "id": 10933682541, "lat": 13.0984468, "lon": 80.2798547}, {"type": "node", "id": 10933682556, "lat": 13.098349, "lon": 80.2797718}, {"type": "node", "id": 10967392142, "lat": 13.091011, "lon": 80.2815096}, {"type": "node", "id": 10967392143, "lat": 13.0910492, "lon": 80.2812471}, {"type": "node", "id": 10967392145, "lat": 13.0911701, "lon": 80.2812674}, {"type": "node", "id": 10967423628, "lat": 13.0910745, "lon": 80.2812508}, {"type": "node", "id": 10967423639, "lat": 13.0911527, "lon": 80.2812649}, {"type": "node", "id": 11144189731, "lat": 13.105483, "lon": 80.2823031}, {"type": "node", "id": 11144189748, "lat": 13.1039904, "lon": 80.2841368}, {"type": "node", "id": 11505576821, "lat": 13.1034654, "lon": 80.2832785}, {"type": "node", "id": 11505576824, "lat": 13.1034837, "lon": 80.283228}, {"type": "node", "id": 11505577021, "lat": 13.1051272, "lon": 80.2834415}, {"type": "node", "id": 11505577022, "lat": 13.1051523, "lon": 80.2832474}, {"type": "node", "id": 11533428360, "lat": 13.1002774, "lon": 80.2838191}, {"type": "node", "id": 11533428361, "lat": 13.100168, "lon": 80.2838024}, {"type": "node", "id": 11533428362, "lat": 13.1001843, "lon": 80.2837}, {"type": "node", "id": 11533428363, "lat": 13.1002721, "lon": 80.2837115}, {"type": "node", "id": 11533428364, "lat": 13.1002901, "lon": 80.2837346}, {"type": "node", "id": 11738634212, "lat": 13.0985215, "lon": 80.2795235}, {"type": "node", "id": 11738634213, "lat": 13.0985067, "lon": 80.2796111}, {"type": "node", "id": 11738634214, "lat": 13.0985829, "lon": 80.2796414}, {"type": "node", "id": 11738634215, "lat": 13.0985795, "lon": 80.2797126}, {"type": "node", "id": 11738634216, "lat": 13.0984487, "lon": 80.2796951}, {"type": "node", "id": 11738634217, "lat": 13.0984851, "lon": 80.2795083}, {"type": "node", "id": 12367559381, "lat": 13.0920988, "lon": 80.2588062, "tags": {"amenity": "hospital", "healthcare": "hospital"}}, {"type": "node", "id": 12581525295, "lat": 13.1363242, "lon": 80.2157688, "tags": {"amenity": "hospital", "check_date": "2025-02-12", "healthcare": "hospital", "name": "Meridian Hospitals"}}, {"type": "node", "id": 12581658601, "lat": 13.1396018, "lon": 80.2377389, "tags": {"amenity": "hospital", "check_date": "2025-02-12", "healthcare": "hospital", "name": "St Anthony's Hospital"}}, {"type": "node", "id": 12619467462, "lat": 13.1002212, "lon": 80.2400853, "tags": {"amenity": "hospital", "name": "Vadivelu Hospital"}}, {"type": "node", "id": 12951914556, "lat": 13.1046084, "lon": 80.2867801}, {"type": "node", "id": 12969313990, "lat": 13.1077908, "lon": 80.2827799}, {"type": "node", "id": 12969313991, "lat": 13.1077491, "lon": 80.2827871}, {"type": "node", "id": 12969313992, "lat": 13.1077445, "lon": 80.2830454}, {"type": "node", "id": 12969313993, "lat": 13.1077973, "lon": 80.283039}, {"type": "way", "id": 28345285, "nodes": [311311305, 11144189731, 311311306, 311311307, 311311308, 603480861, 311311309, 12969313990, 12969313991, 12969313992, 12969313993, 311311310, 311311311, 2271836927, 311311312, 2269895061, 311311313, 10236494322, 311311314, 311311315, 311311316, 311311317, 2269895032, 12951914556, 311311318, 256346630, 311311305], "tags": {"amenity": "hospital", "healthcare": "hospital", "name": "Stanley Medical College and Hospital", "name:etymology:wikidata": "Q5539480", "name:ta": "\u0bb8\u0bcd\u0b9f\u0bbe\u0ba9\u0bcd\u0bb2\u0bbf \u0bae\u0bb0\u0bc1\u0ba4\u0bcd\u0ba4\u0bc1\u0bb5\u0b95\u0bcd \u0b95\u0bb2\u0bcd\u0bb2\u0bc2\u0bb0\u0bbf"}}, {"type": "way", "id": 30973308, "nodes": [344420292, 344420293, 736221807, 344420294, 344420296, 344420299, 344420300, 9189419123, 344420292], "tags": {"amenity": "hospital", "healthcare": "hospital", "name": "ESI Hospital", "operator": "Employees' State Insurance", "operator:short": "ESI", "operator:wikidata": "Q3595726", "operator:wikipedia": "hi:\u0915\u0930\u094d\u092e\u091a\u093e\u0930\u0940 \u0930\u093e\u091c\u094d\u200d\u092f \u092c\u0940\u092e\u093e \u0928\u093f\u0917\u092e"}}, {"type": "way", "id": 47416302, "nodes": [6274342347, 11505577022, 11505577021, 311311603, 311311604, 311311605, 11144189748, 603499169, 603499165, 603499166, 11505576821, 11505576824, 6274342352, 6274342351, 6274342350, 6274342349, 6274342348, 6274342347], "tags": {"amenity": "hospital", "healthcare": "hospital", "name": "Stanley Medical College and Hospital", "name:etymology:wikidata": "Q5539480"}}, {"type": "way", "id": 48737654, "nodes": [618609794, 618609798, 618609797, 618609793, 618609795, 618609794], "tags": {"amenity": "hospital", "healthcare": "hospital"}}, {"type": "way", "id": 48741356, "nodes": [618641805, 618641795, 618641807, 618641823, 618641805], "tags": {"amenity": "hospital", "healthcare": "hospital", "name": "ICF Hospital"}}, {"type": "way", "id": 48753841, "nodes": [618736313, 618736292, 618736591, 618736596, 618736313], "tags": {"addr:district": "Chennai", "addr:full": "3rd Avenue Anna Nagar, Kilpauk", "addr:postcode": "600102", "addr:state": "Tamil Nadu", "amenity": "hospital", "healthcare": "hospital", "name": "Anna Nagar Government Hospital", "source": "OpenGovernmentData"}}, {"type": "way", "id": 59359967, "nodes": [344420294, 736221805, 736221806, 736221807, 344420294], "tags": {"amenity": "hospital", "healthcare": "hospital"}}, {"type": "way", "id": 217846762, "nodes": [2271510741, 2271510740, 2271510738, 2271510743, 2271510741], "tags": {"amenity": "hospital", "healthcare": "hospital", "name": "Corporation Baby Hospital"}}, {"type": "way", "id": 217864797, "nodes": [2271724022, 2271724016, 2271724028, 2271724029, 2271724024, 2271724020, 2271724026, 2271724022], "tags": {"addr:district": "Chennai", "addr:full": "Tondiarpet, New Washermenpet, Tondiarpet, Kailasam", "addr:postcode": "600081", "addr:state": "Tamil Nadu", "amenity": "hospital", "healthcare": "hospital", "name": "Government Peripheral Hospital", "source": "OpenGovernmentData"}}, {"type": "way", "id": 231052536, "nodes": [2394697635, 2394697636, 2394697637, 2394697638, 2394697635], "tags": {"amenity": "hospital", "building": "yes", "healthcare": "hospital", "name": "Vasan Dental Care"}}, {"type": "way", "id": 240869141, "nodes": [2485567706, 2485567774, 2485567782, 2485567783, 2485567719, 2485567771, 2485567709, 2485567706], "tags": {"amenity": "hospital", "healthcare": "hospital"}}, {"type": "way", "id": 469945922, "nodes": [4642017100, 4642017101, 4642017102, 4642017103, 4642017100], "tags": {"amenity": "hospital", "healthcare": "hospital"}}, {"type": "way", "id": 1155182281, "nodes": [10742847096, 10742847097, 10742847098, 10742847100, 10742847103, 10742847099, 10742847096], "tags": {"amenity": "hospital", "healthcare": "hospital", "name": "Prashanth Superspeciality Hospital Kolathur", "phone": "+914469177777", "website": "https://www.prashanthhospitals.org/kolathur"}}, {"type": "way", "id": 1176875169, "nodes": [6934347086, 10933682556, 10933682534, 10933682533, 10933682536, 10933682537, 10933682541, 10933682538, 6934347086], "tags": {"addr:district": "Chennai", "addr:full": "Mint Street", "addr:postcode": "600001", "addr:state": "Tamil Nadu", "amenity": "hospital", "healthcare": "hospital", "name": "Shaarave Hospital", "source": "OpenGovernmentData"}}, {"type": "way", "id": 1180926082, "nodes": [10967392142, 3498455460, 10967392145, 10967423639, 10967423628, 10967392143, 10967392142], "tags": {"addr:district": "Chennai", "addr:full": "Old No 158 (New No 174) Govindappa Naick Street", "addr:postcode": "600001", "addr:state": "Tamil Nadu", "addr:street": "Govindappa Naicken Street", "amenity": "hospital", "building": "yes", "building:levels": "4", "healthcare": "hospital", "name": "The Arya Vysya Meternity Home and Child Welfare Centre", "phone": "04425381525", "source": "OpenGovernmentData"}}, {"type": "way", "id": 1241298308, "nodes": [11533428362, 11533428361, 11533428360, 11533428364, 11533428363, 11533428362], "tags": {"amenity": "hospital", "healthcare": "hospital", "name": "Mint Hospital"}}, {"type": "way", "id": 1263441145, "nodes": [11738634212, 11738634213, 11738634214, 11738634215, 11738634216, 11738634217, 11738634212], "tags": {"amenity": "hospital", "healthcare": "hospital"}}]}