{"version": 0.6, "generator": "Overpass API 0.7.62.8 e802775f", "osm3s": {"timestamp_osm_base": "2026-01-13T06:14:21Z", "copyright": "The data included in this document is from www.openstreetmap.org. The data is made available under ODbL."}, "elements": [{"type": "node", "id": 1224523179, "lat": 17.4535178, "lon": 78.364084, "tags": {"amenity": "hospital", "emergency": "no", "healthcare": "hospital", "name": "Ambicare Hospital"}}, {"type": "node", "id": 1702266641, "lat": 17.4696017, "lon": 78.3660584, "tags": {"amenity": "hospital", "healthcare": "hospital", "name": "haritha hospitals"}}, {"type": "node", "id": 2101693334, "lat": 17.4627567, "lon": 78.3524066, "tags": {"emergency": "yes"}}, {"type": "node", "id": 2101693335, "lat": 17.4626319, "lon": 78.3535372}, {"type": "node", "id": 2101693336, "lat": 17.4636422, "lon": 78.3524786}, {"type": "node", "id": 2101693337, "lat": 17.4635118, "lon": 78.3536231}, {"type": "node", "id": 2600832597, "lat": 17.417897, "lon": 78.3400705}, {"type": "node", "id": 2600832598, "lat": 17.4185739, "lon": 78.3389456}, {"type": "node", "id": 2600832599, "lat": 17.4174322, "lon": 78.3381909}, {"type": "node", "id": 2600832600, "lat": 17.4167552, "lon": 78.3393157}, {"type": "node", "id": 3619348034, "lat": 17.4599321, "lon": 78.3660837, "tags": {"amenity": "hospital", "healthcare": "hospital", "name": "Apoolo Clinic"}}, {"type": "node", "id": 4132325566, "lat": 17.4182315, "lon": 78.3395147}, {"type": "node", "id": 4226395189, "lat": 17.4708232, "lon": 78.3098931}, {"type": "node", "id": 4226395190, "lat": 17.4708404, "lon": 78.3110992}, {"type": "node", "id": 4226395191, "lat": 17.4713115, "lon": 78.3110918}, {"type": "node", "id": 4226395192, "lat": 17.4713188, "lon": 78.3116012}, {"type": "node", "id": 4226395193, "lat": 17.4704397, "lon": 78.311615}, {"type": "node", "id": 4226395194, "lat": 17.4701604, "lon": 78.3113653}, {"type": "node", "id": 4226395197, "lat": 17.4701493, "lon": 78.3105839}, {"type": "node", "id": 4226395198, "lat": 17.4706805, "lon": 78.3105756}, {"type": "node", "id": 4226395199, "lat": 17.4706708, "lon": 78.3098955}, {"type": "node", "id": 4693614990, "lat": 17.4928587, "lon": 78.327984, "tags": {"amenity": "hospital", "healthcare": "hospital", "name": "Happy Children's Hospital", "name:en": "Happy Children's Hospital"}}, {"type": "node", "id": 4695632089, "lat": 17.4921861, "lon": 78.3275773, "tags": {"amenity": "hospital", "healthcare": "hospital", "name": "Vanaja Hospital", "name:en": "Vanaja Hospital"}}, {"type": "node", "id": 5405055776, "lat": 17.4422328, "lon": 78.3587144, "tags": {"addr:district": "Hyderabad", "addr:full": "Plot Number 4, 5, 23 and 24, Gachibowli Stadium Main Road", "addr:postcode": "500032", "addr:state": "Telangana", "amenity": "hospital", "email": "info@himagirihospitals.com", "emergency_telephone_code": "040 23001111", "fax": "040 2300 4204", "healthcare": "hospital", "healthcare:speciality": "multi specialty", "medical_system": "Allopathic", "name": "Himagiri Hospital", "opening_hours": "Su 09:00-21:00", "operator:type": "private", "phone": "040 23004206;040 23004207;040 23004208;040 23004209", "source": "OpenGovernmentData", "website": "https://www.himagirihospitals.com/"}}, {"type": "node", "id": 5682059254, "lat": 17.4788093, "lon": 78.3202299}, {"type": "node", "id": 5682059255, "lat": 17.4788008, "lon": 78.3203676}, {"type": "node", "id": 5682059256, "lat": 17.4786931, "lon": 78.3203696}, {"type": "node", "id": 5682059257, "lat": 17.4786997, "lon": 78.320219}, {"type": "node", "id": 5783995954, "lat": 17.4943337, "lon": 78.3448275, "tags": {"addr:city": "Hyderabad", "addr:housename": "Plot No 204, Mythri Nagar", "addr:housenumber": "Madina Nagar", "addr:postcode": "500049", "addr:street": "Main Road, Miyapur", "amenity": "hospital", "name": "Raja Hospital"}}, {"type": "node", "id": 6485786103, "lat": 17.4932209, "lon": 78.327158, "tags": {"addr:district": "Hyderabad", "addr:full": "HUDA Colony, Opp. Kidzonia International Preschool, Chanda Nagar", "addr:postcode": "500050", "addr:state": "Telangana", "amenity": "hospital", "healthcare": "hospital", "name": "Sandhya Nursing Home", "source": "OpenGovernmentData"}}, {"type": "node", "id": 6487305068, "lat": 17.4941988, "lon": 78.3240189, "tags": {"addr:district": "Hyderabad", "addr:full": "Opp. Venkateswara Swamy Temple, Chandanagar, Gangaram", "addr:postcode": "500050", "addr:state": "Telangana", "amenity": "hospital", "email": "saisivahospital@gmail.com", "fax": "40175720", "healthcare": "hospital", "name": "Sai Siva Children\u2019s Hospital", "phone": "040- 23037879", "source": "OpenGovernmentData", "website": "https://www.saisivahospital.com/"}}, {"type": "node", "id": 6487508103, "lat": 17.4939308, "lon": 78.3267166, "tags": {"addr:district": "Hyderabad", "addr:full": "6-94/6/C, Manjeera Road, Opposite Hotel Swagath Residency, Chandanagar", "addr:postcode": "500050", "addr:state": "Telangana", "amenity": "hospital", "contact:email": "kadiminursinghome@gmail.com", "contact:mobile": "8374805630", "emergency_telephone_code": "8374805630", "fax": "040 23036926; 040 23031454", "healthcare": "hospital", "healthcare:speciality": "Laparoscopic Surgery and General Surgery;Obstetrics and Gynaecology;Infertility;Diabetes Care;Orthopadics and Trauma;Physician Care;Skin and Cosmetology;Eye;ENT;Urology;Dietician;Physiotherapy", "medical_system": "Allopathic", "name": "Kadimi Nursing Home", "operator:type": "private", "phone": "040 23033599;040 23036926;", "source": "OpenGovernmentData", "website": "https://www.kadiminursinghome.com/"}}, {"type": "node", "id": 6494788582, "lat": 17.494784, "lon": 78.3404388, "tags": {"addr:district": "Hyderabad", "addr:full": "NH 65 , Madinaguda Bus Stop", "addr:postcode": "500049", "addr:state": "Telangana", "amenity": "hospital", "name": "Sarada Nursing Home", "source": "OpenGovernmentData"}}, {"type": "node", "id": 6496965130, "lat": 17.4947378, "lon": 78.3225725, "tags": {"addr:district": "Hyderabad", "addr:full": "Opposite State Bank Of India, Near Chandanagar Bus Stop, Chandanagar", "addr:postcode": "500050", "addr:state": "Telangana", "amenity": "hospital", "fax": "23020564", "healthcare": "hospital", "name": "Kiran Swetha Children Clinic", "source": "OpenGovernmentData"}}, {"type": "node", "id": 6503086685, "lat": 17.4946701, "lon": 78.3268218, "tags": {"addr:district": "Hyderabad", "addr:full": "Opp.Swagath Hotel, Above RKS Electronics, Chandanagar", "addr:postcode": "500050", "addr:state": "Telangana", "amenity": "hospital", "healthcare": "hospital", "name": "Sai Anurag Hosptial", "source": "OpenGovernmentData"}}, {"type": "node", "id": 6503755850, "lat": 17.4943913, "lon": 78.3232471, "tags": {"addr:district": "Hyderabad", "addr:full": "4-122/A, Opposite Vijaya Bank, Chanda Nagar", "addr:postcode": "500050", "addr:state": "Telangana", "amenity": "hospital", "fax": "040 23039092", "healthcare": "hospital", "name": "Anitha Nursing Home", "source": "OpenGovernmentData"}}, {"type": "node", "id": 6505170700, "lat": 17.4947648, "lon": 78.3600202, "tags": {"addr:district": "Hyderabad", "addr:full": "Plot No. 12 & 13, Madhava Nagar, Behind Sai Ranga Theatre, Miyapur", "addr:postcode": "500049", "addr:state": "Telangana", "amenity": "hospital", "contact:phone": "040 23040450; 040 23048625", "fax": "040 23042800", "name": "Shilpa Nursing Home", "source": "OpenGovernmentData"}}, {"type": "node", "id": 6536715096, "lat": 17.4707013, "lon": 78.3109143, "tags": {"addr:district": "Hyderabad", "addr:full": "1-100/1/CCH, Near Aparna Sarovar, Nallagandla, Serilingampally", "addr:postcode": "500019", "addr:state": "Telangana", "amenity": "hospital", "contact:phone": "18002082000", "emergency": "yes", "healthcare": "hospital", "name": "American Oncology Institute", "source": "OpenGovernmentData", "website": "https://www.americanoncology.com"}}, {"type": "node", "id": 6536715097, "lat": 17.4707742, "lon": 78.3113113, "tags": {"addr:district": "Hyderabad", "addr:full": "Near Aparna Sarovar, Nallagandla, Serilingampally", "addr:postcode": "500019", "addr:state": "Telangana", "aeroway": "no", "amenity": "hospital", "contact:email": "info@citizenshospitals.com", "emergency": "yes", "health_facility:type": "Outpatient and Inpatient Services;x ray and ultrasound;ECG;2D Echo Digital;lab services through our partner;AmPath", "healthcare": "hospital", "healthcare:speciality": "Anesthesiology;Bariatric Surgery;Cardiology;Critical Care;Dentistry;Dermatology;Diabetology;ENT;Gastroenterology;General Surgery;Internal Medicine;Nephrology;Neurology;Gynaecology;Orthopedics;Pediatrics;Surgical Oncology;Urology", "medical_system": "Allopathic", "name": "Citizens Specialty Hospital", "operator:type": "private", "phone": "040 67191919", "source": "OpenGovernmentData", "website": "https://www.citizenshospitals.com/", "wheelchair": "yes"}}, {"type": "node", "id": 6537360032, "lat": 17.4506967, "lon": 78.3640308, "tags": {"addr:district": "Hyderabad", "addr:full": "Opp. Jayabheri Enclave, Anjaiah Nagar, Near Botanical Garden, Gachibowli", "addr:postcode": "500032", "addr:state": "Telangana", "amenity": "hospital", "healthcare": "hospital", "name": "Rajitha Hospital", "source": "OpenGovernmentData"}}, {"type": "node", "id": 6549141640, "lat": 17.4944322, "lon": 78.3415653, "tags": {"addr:city": "Hyderabad", "addr:full": "Plot No:26-27-29, NEAR VIJETHA SUPER MARKET, BEHIND BHARAT PETROL PUMP, MADINAGUDA", "addr:postcode": "500049", "addr:state": "Telangana", "amenity": "hospital", "contact:phone": "040 23043693", "name": "NAIDU EYE HOSPITAL", "operator:type": "private", "source": "OpenGovernmentData"}}, {"type": "node", "id": 6549150740, "lat": 17.494321, "lon": 78.3461505, "tags": {"addr:city": "Hyderabad", "addr:district": "Rangareddy", "addr:full": "Plot No:. 204, Mythri Nagar, Near Madinaguda, Miyapur", "addr:postcode": "500049", "addr:state": "Telangana", "amenity": "hospital", "contact:phone": "04023044155; 42007070", "fax": "23044133", "name": "HEALIX HOSPITAL", "operator:type": "private", "source": "OpenGovernmentData"}}, {"type": "node", "id": 6549190771, "lat": 17.4921363, "lon": 78.348083, "tags": {"addr:full": "#222&223, MYTHRINAGAR, PHASE-II, Opp FORTURE HEIGHTS, MIYAPUR", "addr:postcode": "500049", "addr:state": "Telangana", "amenity": "hospital", "contact:phone": "04047470000", "name": "SRIKARA HOSPITALS", "operator:type": "private", "source": "OpenGovernmentData", "website": "https://www.srikarahospitals.com/"}}, {"type": "node", "id": 6549198596, "lat": 17.4620023, "lon": 78.3669068, "tags": {"addr:city": "Hyderabad", "addr:full": "H.No: 2-41/11/3 & 4, QZ PLAZA, KOTHAGUDA CROSS ROADS, KONDAPUR, KOTHAGUDA (K.V.Rangareddy), SERILINGAMPALLY", "addr:postcode": "500084", "addr:state": "Telangana", "amenity": "hospital", "contact:phone": "23005789", "healthcare": "hospital", "name": "REFRACTO EYE HOSPITAL (A GROUP OF CREDIBLE HEALTH CARE PVT LTD )", "operator:type": "private", "source": "OpenGovernmentData"}}, {"type": "node", "id": 6549349841, "lat": 17.4947571, "lon": 78.3432363, "tags": {"addr:city": "Hyderabad", "addr:full": "Plot No: 83 & 103, Miyapur Main Road", "addr:postcode": "500049", "addr:state": "Telangana", "amenity": "hospital", "contact:phone": "4023031113", "name": "HAPPY HOSPITAL", "operator:type": "private", "source": "OpenGovernmentData"}}, {"type": "node", "id": 6549425557, "lat": 17.4438231, "lon": 78.3666245}, {"type": "node", "id": 6811748994, "lat": 17.4279239, "lon": 78.3240814, "tags": {"addr:district": "Ranga Reddy", "addr:full": "H. No. 5-1/99/A/B, Near Padmasree Gardens, Gowli Doddi, Hyderabad", "addr:postcode": "500032", "addr:state": "Telangana", "amenity": "hospital", "contact:mobile": "7337456268", "email": "info@srijahospitals.com", "name": "Srija Hospital", "source": "OpenGovernmentData", "website": "https://srijahospitals.com/"}}, {"type": "node", "id": 6811749146, "lat": 17.4795083, "lon": 78.3202454, "tags": {"addr:district": "Hyderabad", "addr:full": "ADARSH NAGAR, OPPOOSITE TO GULMOHAR PARK, Serilingampally", "addr:state": "Telangana", "amenity": "hospital", "healthcare": "hospital", "name": "Shreya Hospitals", "operator:type": "private", "source": "OpenGovernmentData"}}, {"type": "node", "id": 6811749180, "lat": 17.4934982, "lon": 78.3209211, "tags": {"addr:district": "Medchal Malkajgiri", "addr:full": "H.No. 5-126/1, Opp. Taruni Auto Works, Chandanagar", "addr:postcode": "500050", "addr:state": "Telangana", "amenity": "hospital", "healthcare": "hospital", "name": "Archana Multi Speciality Hospital", "source": "OpenGovernmentData"}}, {"type": "node", "id": 6830806688, "lat": 17.4944955, "lon": 78.3296853, "tags": {"addr:district": "Hyderabad", "addr:full": "NH-65, Gangaram, Chandanagar", "addr:postcode": "500050", "addr:state": "Telangana", "amenity": "hospital", "healthcare": "hospital", "name": "Gangaram Community Hall Health Sub Center", "source": "OpenGovernmentData"}}, {"type": "node", "id": 6937779552, "lat": 17.4594547, "lon": 78.3659801, "tags": {"amenity": "hospital", "healthcare": "hospital", "name": "Apollo"}}, {"type": "node", "id": 7007970916, "lat": 17.4948228, "lon": 78.3401789, "tags": {"amenity": "hospital", "healthcare": "hospital", "healthcare:speciality": "ophthalmology", "name": "Titan eye plus"}}, {"type": "node", "id": 7243959583, "lat": 17.4947296, "lon": 78.341244, "tags": {"amenity": "hospital", "healthcare": "hospital", "name": "Ankura Children hospital"}}, {"type": "node", "id": 7244398147, "lat": 17.493937, "lon": 78.351628, "tags": {"amenity": "hospital", "healthcare": "hospital", "name": "Dr.agarwals"}}, {"type": "node", "id": 8013052988, "lat": 17.4423249, "lon": 78.3665192}, {"type": "node", "id": 8013052989, "lat": 17.442449, "lon": 78.3663992}, {"type": "node", "id": 8013052990, "lat": 17.4425453, "lon": 78.3663408}, {"type": "node", "id": 8013052991, "lat": 17.4426444, "lon": 78.3660974}, {"type": "node", "id": 8013052992, "lat": 17.4427228, "lon": 78.3659137}, {"type": "node", "id": 8013052993, "lat": 17.4428834, "lon": 78.3655456}, {"type": "node", "id": 8013052994, "lat": 17.4430817, "lon": 78.3652975}, {"type": "node", "id": 8013052995, "lat": 17.4423601, "lon": 78.3664213}, {"type": "node", "id": 8013052996, "lat": 17.4423857, "lon": 78.3665554}, {"type": "node", "id": 8013052997, "lat": 17.4430535, "lon": 78.3667338}, {"type": "node", "id": 8013052998, "lat": 17.4430446, "lon": 78.3668183}, {"type": "node", "id": 8013052999, "lat": 17.4437124, "lon": 78.3668666}, {"type": "node", "id": 8013053000, "lat": 17.4437758, "lon": 78.3672729}, {"type": "node", "id": 8013053001, "lat": 17.4438186, "lon": 78.3674151}, {"type": "node", "id": 8013053002, "lat": 17.4440918, "lon": 78.3670744}, {"type": "node", "id": 8013053003, "lat": 17.4440214, "lon": 78.3669195}, {"type": "node", "id": 8013053004, "lat": 17.4440016, "lon": 78.3668961}, {"type": "node", "id": 8013053005, "lat": 17.4439798, "lon": 78.3668867}, {"type": "node", "id": 8013053006, "lat": 17.4439517, "lon": 78.3668907}, {"type": "node", "id": 8013053007, "lat": 17.4439191, "lon": 78.3668961}, {"type": "node", "id": 8013053008, "lat": 17.4438756, "lon": 78.3668947}, {"type": "node", "id": 8013053009, "lat": 17.4438583, "lon": 78.3668813}, {"type": "node", "id": 8013053010, "lat": 17.4437137, "lon": 78.3658011}, {"type": "node", "id": 8013053011, "lat": 17.4436043, "lon": 78.3651473}, {"type": "node", "id": 8013053012, "lat": 17.4434911, "lon": 78.3651553}, {"type": "node", "id": 8013053013, "lat": 17.4434322, "lon": 78.3649756}, {"type": "node", "id": 8013053014, "lat": 17.443344, "lon": 78.3649857}, {"type": "node", "id": 8013053015, "lat": 17.4432762, "lon": 78.3650775}, {"type": "node", "id": 8386241852, "lat": 17.4907039, "lon": 78.3373612}, {"type": "node", "id": 8386241853, "lat": 17.490675, "lon": 78.3374915}, {"type": "node", "id": 8386241854, "lat": 17.4904668, "lon": 78.3374466}, {"type": "node", "id": 8386241855, "lat": 17.4904948, "lon": 78.3373154}, {"type": "node", "id": 8733734629, "lat": 17.4943209, "lon": 78.3168615, "tags": {"addr:district": "Sangareddy", "addr:full": "BHEL X Roads, 2-82/1/2, BHEL Road, Near Lingampally Bus Stop, Kanukunta, Tara Nagar, Chanda Nagar", "addr:postcode": "502032", "addr:state": "Telangana", "amenity": "hospital", "healthcare": "hospital", "name": "Preeti Urology & Kidney Hospital ,BHEL, Lingampally", "source": "Local Knowledge"}}, {"type": "node", "id": 8747920907, "lat": 17.4940216, "lon": 78.3227858, "tags": {"addr:district": "Rangareddy", "addr:full": "Manjeera Road, Indira Nagar, Chanda Nagar", "addr:postcode": "500050", "addr:state": "Telangana", "amenity": "hospital", "healthcare": "hospital", "name": "Archana Hospital", "source": "Local Knowledge"}}, {"type": "node", "id": 8748479530, "lat": 17.4940229, "lon": 78.3470745, "tags": {"addr:district": "Rangareddy", "addr:full": "Mythri Nagar, Madinaguda Beside South India Shopping Mall, Hafeezpet", "addr:postcode": "500050", "addr:state": "Telangana", "amenity": "hospital", "name": "Pace Hospitals ,Madinaguda", "source": "Local Knowledge"}}, {"type": "node", "id": 8759381105, "lat": 17.4507108, "lon": 78.3631503, "tags": {"addr:district": "Hyderabad", "addr:full": "Plot NO.21, Level, 2, Jayabheri Enclave, Gachibowli, Hyderabad", "addr:postcode": "500032", "addr:state": "Telangana", "amenity": "hospital", "healthcare": "hospital", "name": "Praba's VCare Health Clinic (P) Ltd, Gachibowli", "source": "Local Knowledge"}}, {"type": "node", "id": 9605389618, "lat": 17.4940583, "lon": 78.3212245, "tags": {"amenity": "hospital", "healthcare": "hospital", "name": "Chenna reddy hospital"}}, {"type": "node", "id": 10150942414, "lat": 17.4605484, "lon": 78.3547514, "tags": {"amenity": "hospital", "healthcare": "hospital"}}, {"type": "node", "id": 10250377758, "lat": 17.4168548, "lon": 78.3391502}, {"type": "node", "id": 11230719677, "lat": 17.4707752, "lon": 78.3116097}, {"type": "node", "id": 12951255501, "lat": 17.4635854, "lon": 78.3530355}, {"type": "node", "id": 13285248846, "lat": 17.4482414, "lon": 78.3605759, "tags": {"amenity": "hospital", "check_date": "2025-11-06", "healthcare": "hospital", "name": "Pi Health Hospital"}}, {"type": "way", "id": 200173462, "nodes": [2101693336, 12951255501, 2101693337, 2101693335, 2101693334, 2101693336], "tags": {"addr:district": "Hyderabad", "addr:full": "1-55/3, Near Chirec International School, Kondapur", "addr:postcode": "500084", "addr:state": "Telangana", "addr:street": "Sri Ram Nagar", "addr:subdistrict": "Serilingampally", "amenity": "hospital", "emergency": "yes", "healthcare": "hospital", "landuse": "hospital Grounds", "name": "Government Area Hospital, Kondapur", "source": "OpenGovernmentData"}}, {"type": "way", "id": 254295845, "nodes": [2600832597, 4132325566, 2600832598, 2600832599, 10250377758, 2600832600, 2600832597], "tags": {"addr:district": "Hyderabad", "addr:full": "Plot Number 3, Road Number 2, I.T and Financial District, Nanakramguda, Gachibowli", "addr:postcode": "500032", "addr:state": "Telangana", "amenity": "hospital", "contact:tollfree": "1800 108 1007", "emergency": "yes", "emergency_telephone_code": "040 67000111", "health_facility:type": "Surgical Specialities and Operation Theatres; ICU; ATM; WIFI; Business Centre", "healthcare": "hospital", "healthcare:speciality": "multi specialty", "medical_system": "Allopathic", "name": "Continental Hospitals", "operator:type": "private", "phone": "040-67000000; 040-67000071", "source": "OpenGovernmentData", "website": "https://www.continentalhospitals.com/"}}, {"type": "way", "id": 422917298, "nodes": [4226395189, 4226395190, 4226395191, 4226395192, 11230719677, 4226395193, 4226395194, 4226395197, 4226395198, 4226395199, 4226395189], "tags": {"amenity": "hospital", "healthcare": "hospital"}}, {"type": "way", "id": 596480014, "nodes": [5682059254, 5682059255, 5682059256, 5682059257, 5682059254], "tags": {"amenity": "hospital", "healthcare": "hospital"}}, {"type": "way", "id": 859663303, "nodes": [8013052999, 8013052998, 8013052997, 8013052996, 8013052988, 8013052995, 8013052989, 8013052990, 8013052991, 8013052992, 8013052993, 8013052994, 8013053015, 8013053014, 8013053013, 8013053012, 8013053011, 8013053010, 6549425557, 8013053009], "tags": {"barrier": "wall", "source": "OpenGovernmentData"}}, {"type": "way", "id": 872949694, "nodes": [8013053009, 8013053008, 8013053007, 8013053006, 8013053005, 8013053004, 8013053003, 8013053002, 8013053001, 8013053000, 8013052999], "tags": {"source": "OpenGovernmentData"}}, {"type": "way", "id": 902925307, "nodes": [8386241852, 8386241853, 8386241854, 8386241855, 8386241852], "tags": {"addr:city": "hyderabad", "addr:postcode": "500049", "addr:street": "Manjira Pipeline Road", "amenity": "hospital", "emergency": "yes", "healthcare": "hospital", "name": "Lakshmi hospital"}}, {"type": "relation", "id": 11902466, "members": [{"type": "way", "ref": 872949694, "role": "outer"}, {"type": "way", "ref": 859663303, "role": "outer"}], "tags": {"addr:city": "Hyderabad", "addr:district": "Rangareddy", "addr:full": "Plot No 2/3/4/5, Survey No. 136/1, Mindspace Road, Gachibowli", "addr:postcode": "500032", "addr:state": "Telangana", "amenity": "hospital", "contact:email": "info@aighospitals.com", "contact:phone": "040 42444222", "description": "A UNIT OF ASIAN INSTITUTE OF GASTROENTEROLOGY PVT LTD", "healthcare": "hospital", "name": "AIG HOSPITALS", "operator:type": "private", "type": "multipolygon", "website": "https://aighospitals.com"}}]}