{"version": 0.6, "generator": "Overpass API 0.7.62.8 e802775f", "osm3s": {"timestamp_osm_base": "2026-01-14T23:48:43Z", "copyright": "The data included in this document is from www.openstreetmap.org. The data is made available under ODbL."}, "elements": [{"type": "node", "id": 12169876, "lat": 43.2487434, "lon": 5.3978033, "tags": {"bus": "yes", "name": "Jardin Bortoli", "name:oc": "Jardin Bort\u00f2li", "operator": "RTM", "public_transport": "stop_position"}}, {"type": "node", "id": 26608030, "lat": 43.2508772, "lon": 5.3899004, "tags": {"bus": "yes", "name": "MAC", "name:oc": "MAC", "public_transport": "stop_position", "source:name:oc": "ieo-bdtopoc"}}, {"type": "node", "id": 29588735, "lat": 43.256106, "lon": 5.3824138, "tags": {"bus": "yes", "name": "Clot-Bey L\u00e9au", "name:oc": "Clot-Bei - Leau", "operator": "RTM", "public_transport": "stop_position", "source:name:oc": "ieo-bdtopoc"}}, {"type": "node", "id": 30084259, "lat": 43.2439872, "lon": 5.3710909, "tags": {"bus": "yes", "name": "Pointe Rouge", "name:oc": "Poncha Roja", "public_transport": "stop_position", "source:name:oc": "ieo-bdtopoc"}}, {"type": "node", "id": 30084268, "lat": 43.2483015, "lon": 5.374931, "tags": {"bus": "yes", "name": "Vieille Chapelle", "name:oc": "La Cap\u00e8la Vi\u00e8lha", "public_transport": "stop_position", "source:name:oc": "ieo-bdtopoc"}}, {"type": "node", "id": 30084491, "lat": 43.2365768, "lon": 5.3624296, "tags": {"bus": "yes", "name": "Grotte Rolland", "name:oc": "Bauma Roland", "public_transport": "stop_position", "source:name:oc": "ieo-bdtopoc"}}, {"type": "node", "id": 33955464, "lat": 43.2599584, "lon": 5.3754071, "tags": {"bus": "yes", "name": "Plage de l'Huveaune", "name:oc": "Platja de V\u00e8una", "public_transport": "stop_position", "source:name:oc": "ieo-bdtopoc"}}, {"type": "node", "id": 33955477, "lat": 43.2483991, "lon": 5.3748214, "tags": {"bus": "yes", "name": "Vieille Chapelle", "name:oc": "La Cap\u00e8la Vi\u00e8lha", "public_transport": "stop_position", "source:name:oc": "ieo-bdtopoc"}}, {"type": "node", "id": 262633751, "lat": 43.2387435, "lon": 5.3651881, "tags": {"bus": "yes", "name": "Engali\u00e8re", "name:oc": "En Gali\u00e8ra", "public_transport": "stop_position", "source:name:oc": "ieo-bdtopoc"}}, {"type": "node", "id": 262633755, "lat": 43.2389974, "lon": 5.3655187, "tags": {"bus": "yes", "name": "Engali\u00e8re", "name:oc": "En Gali\u00e8ra", "public_transport": "stop_position", "source:name:oc": "ieo-bdtopoc"}}, {"type": "node", "id": 262635371, "lat": 43.2496515, "lon": 5.3818139, "tags": {"bus": "yes", "name": "Clinique", "name:oc": "Clinica", "operator": "RTM", "public_transport": "stop_position", "source:name:oc": "ieo-bdtopoc"}}, {"type": "node", "id": 262635387, "lat": 43.249238, "lon": 5.3818769, "tags": {"bus": "yes", "name": "Clinique", "name:oc": "Clinica", "operator": "RTM", "public_transport": "stop_position", "source:name:oc": "ieo-bdtopoc"}}, {"type": "node", "id": 262640109, "lat": 43.2472744, "lon": 5.3930181, "tags": {"bus": "yes", "name": "Hambourg Lancier", "name:oc": "Amborg - Lancier", "public_transport": "stop_position", "source:name:oc": "ieo-bdtopoc"}}, {"type": "node", "id": 308240295, "lat": 43.2349345, "lon": 5.3992499, "tags": {"bus": "yes", "name": "Sormiou Jarre", "name:oc": "Sormiu - Croisa", "public_transport": "stop_position", "source:name:oc": "ieo-bdtopoc"}}, {"type": "node", "id": 308240452, "lat": 43.2343454, "lon": 5.3992729, "tags": {"bus": "yes", "name": "Sormiou Jarre", "name:oc": "Sormiu - Jarra", "public_transport": "stop_position", "source:name:oc": "ieo-bdtopoc"}}, {"type": "node", "id": 308240990, "lat": 43.2365685, "lon": 5.3989794, "tags": {"bus": "yes", "name": "Sormiou Roy d'Espagne", "name:oc": "Sormiu - R\u00e8i d\u2019Espanha", "public_transport": "stop_position", "source:name:oc": "ieo-bdtopoc"}}, {"type": "node", "id": 364617989, "lat": 43.2473618, "lon": 5.3930401, "tags": {"bus": "yes", "name": "Hambourg Lancier", "name:oc": "Amborg - Lancier", "public_transport": "stop_position", "source:name:oc": "ieo-bdtopoc"}}, {"type": "node", "id": 364880269, "lat": 43.2493324, "lon": 5.3904137, "tags": {"bus": "yes", "name": "CC Bonneveine", "name:oc": "CC B\u00f2na V\u00e8una", "public_transport": "stop_position", "source:name:oc": "ieo-bdtopoc"}}, {"type": "node", "id": 364880270, "lat": 43.2493198, "lon": 5.3903128, "tags": {"bus": "yes", "name": "CC Bonneveine", "name:oc": "CC B\u00f2na V\u00e8una", "public_transport": "stop_position", "source:name:oc": "ieo-bdtopoc"}}, {"type": "node", "id": 364880328, "lat": 43.2508318, "lon": 5.3895985, "tags": {"bus": "yes", "name": "MAC", "name:oc": "MAC", "public_transport": "stop_position", "source:name:oc": "ieo-bdtopoc"}}, {"type": "node", "id": 364880353, "lat": 43.2545718, "lon": 5.3942345, "tags": {"bus": "yes", "name": "Sainte-Anne Ha\u00effa", "name:oc": "Santa Anna - Haifa", "public_transport": "stop_position", "source:name:oc": "ieo-bdtopoc"}}, {"type": "node", "id": 364880624, "lat": 43.2567017, "lon": 5.3940482, "tags": {"bus": "yes", "name:fr": "Sainte-Anne", "name:oc": "Santa Anna", "public_transport": "stop_position", "source:name:oc": "ieo-bdtopoc"}}, {"type": "node", "id": 364880625, "lat": 43.2592907, "lon": 5.3941389, "tags": {"bus": "yes", "name": "CC Saint-Anne", "name:oc": "CC de Santa Anna", "public_transport": "stop_position", "source:name:oc": "ieo-bdtopoc"}}, {"type": "node", "id": 496401713, "lat": 43.2524109, "lon": 5.3862183, "tags": {"bus": "yes", "name": "Hambourg L\u00e9au", "name:oc": "Amborg - Leau", "operator": "RTM", "public_transport": "stop_position", "source:name:oc": "ieo-bdtopoc"}}, {"type": "node", "id": 496401972, "lat": 43.2512165, "lon": 5.3822428, "tags": {"bus": "yes", "name": "Sablier Cit\u00e9 Bor\u00e9ly", "name:oc": "Sablier - Ciutat Bor\u00e8li", "operator": "RTM", "public_transport": "stop_position", "source:name:oc": "ieo-bdtopoc"}}, {"type": "node", "id": 503671201, "lat": 43.2464998, "lon": 5.3864375, "tags": {"bus": "yes", "name": "Zenatti \u00c9coles", "name:oc": "Zenatti - Esc\u00f2las", "public_transport": "stop_position", "source:name:oc": "ieo-bdtopoc"}}, {"type": "node", "id": 672578385, "lat": 43.2433662, "lon": 5.3921522, "tags": {"bus": "yes", "name": "Floralia Le M\u00e9e", "name:oc": "Floraria - Lo Mea", "public_transport": "stop_position", "source:name:oc": "ieo-bdtopoc"}}, {"type": "node", "id": 672578395, "lat": 43.2451417, "lon": 5.3896573, "tags": {"bus": "yes", "name": "Floralia Chiapale", "name:oc": "Floralia - Chiapale", "operator": "RTM", "public_transport": "stop_position", "source:name:oc": "ieo-bdtopoc"}}, {"type": "node", "id": 673456814, "lat": 43.2402799, "lon": 5.3661232, "tags": {"bus": "yes", "name": "Montredon Pastr\u00e9", "name:oc": "Mont Redon - Pastre", "public_transport": "stop_position", "source:name:oc": "ieo-bdtopoc"}}, {"type": "node", "id": 739673794, "lat": 43.231081, "lon": 5.3545993, "tags": {"bench": "yes", "bin": "yes", "bus": "yes", "highway": "bus_stop", "lit": "no", "name": "Madrague de Montredon", "name:oc": "Madraga dau Mont Redon", "public_transport": "platform", "shelter": "yes", "source:name:oc": "ieo-bdtopoc", "tactile_paving": "no"}}, {"type": "node", "id": 742394107, "lat": 43.2323665, "lon": 5.4000779, "tags": {"bench": "no", "bin": "yes", "bus": "yes", "highway": "bus_stop", "lit": "yes", "name": "CC Sormiou", "name:oc": "CC Sormiu", "public_transport": "platform", "shelter": "no", "source": "survey", "source:name:oc": "ieo-bdtopoc", "tactile_paving": "yes"}}, {"type": "node", "id": 742394118, "lat": 43.2327241, "lon": 5.4001035, "tags": {"bench": "yes", "bin": "yes", "bus": "yes", "highway": "bus_stop", "lit": "yes", "name": "CC Sormiou", "name:oc": "CC Sormiu", "public_transport": "platform", "shelter": "yes", "source": "survey", "source:name:oc": "ieo-bdtopoc", "tactile_paving": "no", "wheelchair": "yes"}}, {"type": "node", "id": 789380788, "lat": 43.241293, "lon": 5.3943664, "tags": {"bus": "yes", "name": "Floralia", "name:oc": "Floralia", "public_transport": "stop_position", "source:name:oc": "ieo-bdtopoc"}}, {"type": "node", "id": 789380793, "lat": 43.241522, "lon": 5.3961505, "tags": {"bus": "yes", "name": "Coll\u00e8ge Roy d'Espagne", "name:oc": "Collegi Dau R\u00e8i d\u2019Espanha", "public_transport": "stop_position", "source:name:oc": "ieo-bdtopoc"}}, {"type": "node", "id": 789380794, "lat": 43.2415996, "lon": 5.3964533, "tags": {"bus": "yes", "name": "Coll\u00e8ge Roy d'Espagne", "name:oc": "Collegi Dau R\u00e8i d\u2019Espanha", "public_transport": "stop_position", "source:name:oc": "ieo-bdtopoc"}}, {"type": "node", "id": 790305742, "lat": 43.2458325, "lon": 5.3925685, "tags": {"bus": "yes", "name": "Zenatti Lyc\u00e9e", "name:oc": "Zenatti - Lic\u00e8u", "public_transport": "stop_position", "source:name:oc": "ieo-bdtopoc"}}, {"type": "node", "id": 790305745, "lat": 43.2458044, "lon": 5.3937764, "tags": {"bus": "yes", "name": "Zenatti Lyc\u00e9e", "name:oc": "Zenatti - Lic\u00e8u", "public_transport": "stop_position", "source:name:oc": "ieo-bdtopoc"}}, {"type": "node", "id": 793524838, "lat": 43.2540336, "lon": 5.3820996, "tags": {"bus": "yes", "name": "Place Bonnefon", "name:oc": "Pla\u00e7a B\u00f2naf\u00f2nt", "public_transport": "stop_position", "source:name:oc": "ieo-bdtopoc"}}, {"type": "node", "id": 805729188, "lat": 43.2400809, "lon": 5.3770396, "tags": {"bus": "yes", "name": "Lyc\u00e9e Marseilleveyre", "name:oc": "Lic\u00e8u Marselha Vi\u00e8lha", "public_transport": "stop_position", "source:name:oc": "ieo-bdtopoc"}}, {"type": "node", "id": 814194444, "lat": 43.2292337, "lon": 5.353865, "tags": {"bench": "no", "bus": "yes", "highway": "bus_stop", "name": "Sam\u00e9na", "name:oc": "Sant Menna", "public_transport": "platform", "shelter": "no", "source:name:oc": "ieo-bdtopoc"}}, {"type": "node", "id": 814194450, "lat": 43.2288811, "lon": 5.3529605, "tags": {"bench": "no", "bus": "yes", "comment": "Proprietari deis Fabregas de souda", "highway": "bus_stop", "name": "Sam\u00e9na", "name:oc": "Sant Menna", "public_transport": "platform", "shelter": "no", "source:name:oc": "ieo-bdtopoc"}}, {"type": "node", "id": 958315392, "lat": 43.2516365, "lon": 5.3755681, "tags": {"bus": "yes", "name": "Bowl du Prado", "name:oc": "Bowl dau Prad\u00f2t", "public_transport": "stop_position", "source:name:oc": "ieo-bdtopoc"}}, {"type": "node", "id": 1270953446, "lat": 43.2430143, "lon": 5.3798324, "tags": {"bench": "yes", "bin": "no", "bus": "yes", "highway": "bus_stop", "lit": "yes", "name": "Lyc\u00e9e Poinso-Chapuis", "name:oc": "Lic\u00e8u Poinso-Chapueis", "public_transport": "platform", "shelter": "yes", "tactile_paving": "yes"}}, {"type": "node", "id": 1279591249, "lat": 43.2578481, "lon": 5.3833695, "tags": {"bus": "yes", "name": "Clot-Bey Paul", "name:oc": "Clot-Bei - Paul", "operator": "RTM", "public_transport": "stop_position", "source:name:oc": "ieo-bdtopoc"}}, {"type": "node", "id": 1327850403, "lat": 43.2592869, "lon": 5.3940593, "tags": {"bench": "no", "bin": "yes", "bus": "yes", "highway": "bus_stop", "lit": "yes", "name": "CC Saint-Anne", "name:oc": "CC de Santa Anna", "public_transport": "platform", "shelter": "no", "source:name:oc": "ieo-bdtopoc", "tactile_paving": "no"}}, {"type": "node", "id": 1327850438, "lat": 43.2593124, "lon": 5.3942368, "tags": {"bench": "yes", "bus": "yes", "highway": "bus_stop", "name": "CC Saint-Anne", "name:oc": "CC de Santa Anna", "public_transport": "platform", "shelter": "yes", "source:name:oc": "ieo-bdtopoc"}}, {"type": "node", "id": 1334342124, "lat": 43.2585409, "lon": 5.3983053, "tags": {"bench": "no", "bus": "yes", "highway": "bus_stop", "name": "Luce Michelet", "name:oc": "L\u00facia - Michelet", "public_transport": "platform", "shelter": "no", "source:name:oc": "ieo-bdtopoc", "wheelchair": "no"}}, {"type": "node", "id": 1334342126, "lat": 43.2504863, "lon": 5.3956145, "tags": {"bench": "no", "bin": "no", "bus": "yes", "highway": "bus_stop", "lit": "no", "name": "Mazargues L\u00e8gre", "name:oc": "Marsangues - L\u00e8gre", "public_transport": "platform", "shelter": "no", "source:name:oc": "ieo-bdtopoc", "tactile_paving": "no"}}, {"type": "node", "id": 1334342127, "lat": 43.2566422, "lon": 5.3946053, "tags": {"bench": "no", "bin": "no", "bus": "yes", "highway": "bus_stop", "lit": "yes", "name": "Sainte-Anne", "name:oc": "Santa Anna", "public_transport": "platform", "shelter": "no", "source:name:oc": "ieo-bdtopoc", "tactile_paving": "no"}}, {"type": "node", "id": 1334342128, "lat": 43.2525345, "lon": 5.3946789, "tags": {"bench": "no", "bus": "yes", "highway": "bus_stop", "name": "L'Aillaude", "name:oc": "L'Alhauda", "public_transport": "platform", "shelter": "no", "source:name:oc": "ieo-bdtopoc"}}, {"type": "node", "id": 1334342129, "lat": 43.2576982, "lon": 5.3972445, "tags": {"bench": "no", "bus": "yes", "highway": "bus_stop", "name": "Isaac Luce", "name:oc": "Ishaq - L\u00facia", "public_transport": "platform", "shelter": "no", "source:name:oc": "ieo-bdtopoc"}}, {"type": "node", "id": 1334342130, "lat": 43.2580797, "lon": 5.3967416, "tags": {"bench": "yes", "bin": "yes", "bus": "yes", "highway": "bus_stop", "name": "Luce Isaac", "name:oc": "L\u00facia - Ishaq", "public_transport": "platform", "shelter": "no", "source:name:oc": "ieo-bdtopoc"}}, {"type": "node", "id": 1342678478, "lat": 43.2288482, "lon": 5.3529965, "tags": {"bus": "yes", "name": "Sam\u00e9na", "name:oc": "Sant Menna", "public_transport": "stop_position", "source:name:oc": "ieo-bdtopoc"}}, {"type": "node", "id": 1342678483, "lat": 43.2292074, "lon": 5.3537901, "tags": {"bus": "yes", "name": "Sam\u00e9na", "name:oc": "Sant Menna", "public_transport": "stop_position", "source:name:oc": "ieo-bdtopoc"}}, {"type": "node", "id": 1347031544, "lat": 43.2560911, "lon": 5.3824977, "tags": {"bench": "yes", "bus": "yes", "highway": "bus_stop", "lit": "yes", "name": "Clot-Bey L\u00e9au", "name:oc": "Clot-Bei - Leau", "public_transport": "platform", "shelter": "yes", "source:name:oc": "ieo-bdtopoc"}}, {"type": "node", "id": 1347031558, "lat": 43.2468857, "lon": 5.3963284, "tags": {"bench": "yes", "bus": "yes", "highway": "bus_stop", "name": "Le Lancier", "name:oc": "Lo Lancier", "public_transport": "platform", "shelter": "yes", "source:name:oc": "ieo-bdtopoc"}}, {"type": "node", "id": 1347031570, "lat": 43.25409, "lon": 5.3828503, "tags": {"bench": "no", "bin": "yes", "bus": "yes", "highway": "bus_stop", "name": "Place Bonnefon", "name:oc": "Pla\u00e7a B\u00f2naf\u00f2nt", "public_transport": "platform", "shelter": "no", "source:name:oc": "ieo-bdtopoc"}}, {"type": "node", "id": 1347031596, "lat": 43.2524213, "lon": 5.3945703, "tags": {"bench": "no", "bin": "yes", "bus": "yes", "comment": "< occitan Bastida deis Alhauds", "highway": "bus_stop", "name": "L'Aillaude", "name:oc": "L'Alhauda", "public_transport": "platform", "shelter": "no", "source:name:oc": "ieo-bdtopoc"}}, {"type": "node", "id": 1347031629, "lat": 43.2544553, "lon": 5.3943631, "tags": {"bench": "yes", "bin": "no", "bus": "yes", "highway": "bus_stop", "name": "Sainte-Anne Ha\u00effa", "name:oc": "Santa Anna - Haifa", "public_transport": "platform", "shelter": "yes", "source:name:oc": "ieo-bdtopoc"}}, {"type": "node", "id": 1347031646, "lat": 43.2531345, "lon": 5.3927499, "tags": {"bench": "no", "bin": "yes", "bus": "yes", "highway": "bus_stop", "lit": "no", "name": "Ha\u00effa Ollivary", "name:oc": "Haifa - Ollivari", "public_transport": "platform", "shelter": "no", "source:name:oc": "ieo-bdtopoc", "tactile_paving": "no"}}, {"type": "node", "id": 1347031659, "lat": 43.2555987, "lon": 5.3822835, "tags": {"bus": "yes", "name": "Clot-Bey L\u00e9au", "name:oc": "Clot-Bei - Leau", "operator": "RTM", "public_transport": "stop_position", "source:name:oc": "ieo-bdtopoc"}}, {"type": "node", "id": 1347031664, "lat": 43.2508655, "lon": 5.389547, "tags": {"bench": "yes", "bin": "yes", "bus": "yes", "highway": "bus_stop", "name": "MAC", "name:oc": "MAC", "public_transport": "platform", "shelter": "yes", "source:name:oc": "ieo-bdtopoc", "tactile_paving": "yes", "wheelchair": "yes"}}, {"type": "node", "id": 1347031673, "lat": 43.2474015, "lon": 5.3931024, "tags": {"bench": "yes", "bin": "yes", "bus": "yes", "highway": "bus_stop", "lit": "yes", "name": "Hambourg Lancier", "name:oc": "Amborg - Lancier", "public_transport": "platform", "shelter": "yes", "source:name:oc": "ieo-bdtopoc", "tactile_paving": "no"}}, {"type": "node", "id": 1347031683, "lat": 43.2556074, "lon": 5.3822334, "tags": {"bench": "no", "bus": "yes", "highway": "bus_stop", "name": "Clot-Bey L\u00e9au", "name:oc": "Clot-Bei - Leau", "note": "Stop for line 44", "operator": "RTM", "public_transport": "platform", "shelter": "no", "source:name:oc": "ieo-bdtopoc"}}, {"type": "node", "id": 1347031684, "lat": 43.2467217, "lon": 5.3958029, "tags": {"bench": "no", "bus": "yes", "highway": "bus_stop", "name": "Le Lancier", "name:oc": "Lo Lancier", "public_transport": "platform", "shelter": "no", "source:name:oc": "ieo-bdtopoc"}}, {"type": "node", "id": 1347031691, "lat": 43.2568854, "lon": 5.4001325, "tags": {"bus": "yes", "name": "Michelet Taine", "name:oc": "Michelet - Taine", "public_transport": "stop_position"}}, {"type": "node", "id": 1347031699, "lat": 43.2466977, "lon": 5.3958436, "tags": {"bus": "yes", "name": "Le Lancier", "name:oc": "Lo Lancier", "public_transport": "stop_position", "source:name:oc": "ieo-bdtopoc"}}, {"type": "node", "id": 1347031700, "lat": 43.2541383, "lon": 5.3828726, "tags": {"bus": "yes", "name": "Place Bonnefon", "name:oc": "Pla\u00e7a B\u00f2naf\u00f2nt", "public_transport": "stop_position", "source:name:oc": "ieo-bdtopoc"}}, {"type": "node", "id": 1347031702, "lat": 43.2533099, "lon": 5.3932498, "tags": {"bench": "yes", "bus": "yes", "highway": "bus_stop", "name": "Ha\u00effa Ollivary", "name:oc": "Haifa - Ollivari", "public_transport": "platform", "shelter": "yes", "source:name:oc": "ieo-bdtopoc"}}, {"type": "node", "id": 1347031707, "lat": 43.258102, "lon": 5.3835261, "tags": {"bus": "yes", "name": "Clot-Bey Paul", "name:oc": "Clot-Bei - Paul", "operator": "RTM", "public_transport": "stop_position", "source:name:oc": "ieo-bdtopoc"}}, {"type": "node", "id": 1347031710, "lat": 43.2509065, "lon": 5.3900275, "tags": {"bench": "yes", "bin": "no", "bus": "yes", "highway": "bus_stop", "lit": "yes", "name": "MAC", "name:oc": "MAC", "public_transport": "platform", "shelter": "yes", "source:name:oc": "ieo-bdtopoc", "tactile_paving": "yes", "wheelchair": "yes"}}, {"type": "node", "id": 1347031713, "lat": 43.2472396, "lon": 5.3929816, "tags": {"bench": "yes", "bin": "no", "bus": "yes", "highway": "bus_stop", "lit": "yes", "name": "Hambourg Lancier", "name:oc": "Amborg - Lancier", "public_transport": "platform", "shelter": "yes", "source:name:oc": "ieo-bdtopoc", "tactile_paving": "no"}}, {"type": "node", "id": 1347031718, "lat": 43.2591614, "lon": 5.3988501, "tags": {"bus": "yes", "name": "Michelet Luce", "name:oc": "Michelet - L\u00facia", "public_transport": "stop_position", "source:name:oc": "ieo-bdtopoc"}}, {"type": "node", "id": 1347031719, "lat": 43.2546255, "lon": 5.3941294, "tags": {"bench": "no", "bin": "yes", "bus": "yes", "highway": "bus_stop", "lit": "yes", "name": "Sainte-Anne Ha\u00effa", "name:oc": "Santa Anna - Haifa", "public_transport": "platform", "shelter": "no", "source:name:oc": "ieo-bdtopoc", "tactile_paving": "yes"}}, {"type": "node", "id": 1347031724, "lat": 43.2542704, "lon": 5.3826616, "tags": {"bench": "no", "bin": "yes", "bus": "yes", "highway": "bus_stop", "name": "Place Bonnefon", "name:oc": "Pla\u00e7a B\u00f2naf\u00f2nt", "public_transport": "platform", "shelter": "no", "source:name:oc": "ieo-bdtopoc"}}, {"type": "node", "id": 1347031725, "lat": 43.2533522, "lon": 5.3931906, "tags": {"bus": "yes", "name": "Ha\u00effa Ollivary", "name:oc": "Haifa - Ollivari", "operator": "RTM", "public_transport": "stop_position", "source:name:oc": "ieo-bdtopoc"}}, {"type": "node", "id": 1347031735, "lat": 43.2525535, "lon": 5.3861463, "tags": {"bus": "yes", "name": "Hambourg L\u00e9au", "name:oc": "Amborg - Leau", "operator": "RTM", "public_transport": "stop_position", "source:name:oc": "ieo-bdtopoc"}}, {"type": "node", "id": 1347031738, "lat": 43.2578334, "lon": 5.383441, "tags": {"bench": "no", "bus": "yes", "highway": "bus_stop", "name": "Clot-Bey Paul", "name:oc": "Clot-Bei - Paul", "public_transport": "platform", "shelter": "no", "source:name:oc": "ieo-bdtopoc"}}, {"type": "node", "id": 1347031746, "lat": 43.2525389, "lon": 5.3946229, "tags": {"bus": "yes", "name": "L'Aillaude", "name:oc": "L'Alhauda", "public_transport": "stop_position", "source:name:oc": "ieo-bdtopoc"}}, {"type": "node", "id": 1347031756, "lat": 43.2542275, "lon": 5.3826599, "tags": {"bus": "yes", "name": "Place Bonnefon", "name:oc": "Pla\u00e7a B\u00f2naf\u00f2nt", "operator": "RTM", "public_transport": "stop_position", "source:name:oc": "ieo-bdtopoc"}}, {"type": "node", "id": 1347031759, "lat": 43.2569624, "lon": 5.4002077, "tags": {"bench": "yes", "bin": "yes", "bus": "yes", "highway": "bus_stop", "lit": "yes", "name": "Michelet Taine", "name:oc": "Michelet - Taine", "public_transport": "platform", "shelter": "yes", "tactile_paving": "no", "wheelchair": "no"}}, {"type": "node", "id": 1347031761, "lat": 43.2587071, "lon": 5.3991045, "tags": {"bus": "yes", "name": "Michelet Luce", "name:oc": "Michelet - L\u00facia", "public_transport": "stop_position", "source:name:oc": "ieo-bdtopoc"}}, {"type": "node", "id": 1347031765, "lat": 43.2486808, "lon": 5.3977432, "tags": {"bench": "no", "bin": "no", "bus": "yes", "highway": "bus_stop", "name": "Jardin Bortoli", "name:oc": "Jardin Bort\u00f2li", "public_transport": "platform", "shelter": "no", "source:name:oc": "ieo-bdtopoc", "tactile_paving": "no"}}, {"type": "node", "id": 1347031766, "lat": 43.2469122, "lon": 5.3962695, "tags": {"bus": "yes", "name": "Le Lancier", "name:oc": "Lo Lancier", "operator": "RTM", "public_transport": "stop_position", "source:name:oc": "ieo-bdtopoc"}}, {"type": "node", "id": 1347031769, "lat": 43.2524282, "lon": 5.3946278, "tags": {"bus": "yes", "name": "L'Aillaude", "name:oc": "L'Alhauda", "public_transport": "stop_position", "source:name:oc": "ieo-bdtopoc"}}, {"type": "node", "id": 1347031773, "lat": 43.2503235, "lon": 5.3956429, "tags": {"bench": "no", "bin": "yes", "bus": "yes", "highway": "bus_stop", "name": "Mazargues L\u00e8gre", "name:oc": "Marsangues - L\u00e8gre", "public_transport": "platform", "shelter": "no", "source:name:oc": "ieo-bdtopoc"}}, {"type": "node", "id": 1347031777, "lat": 43.258112, "lon": 5.3834775, "tags": {"bench": "no", "bus": "yes", "highway": "bus_stop", "name": "Clot-Bey Paul", "name:oc": "Clot-Bei - Paul", "note": "Stop for line 44", "operator": "RTM", "public_transport": "platform", "shelter": "no", "source:name:oc": "ieo-bdtopoc"}}, {"type": "node", "id": 1347031778, "lat": 43.2564906, "lon": 5.400234, "tags": {"bench": "yes", "bin": "no", "bus": "yes", "highway": "bus_stop", "lit": "yes", "name": "Michelet Taine", "name:oc": "Michelet - Taine", "public_transport": "platform", "shelter": "yes", "tactile_paving": "no", "wheelchair": "no"}}, {"type": "node", "id": 1347031784, "lat": 43.2545018, "lon": 5.3942596, "tags": {"bus": "yes", "name": "Sainte-Anne Ha\u00effa", "name:oc": "Santa Anna - Haifa", "public_transport": "stop_position", "source:name:oc": "ieo-bdtopoc"}}, {"type": "node", "id": 1347031786, "lat": 43.2530978, "lon": 5.3927998, "tags": {"bus": "yes", "name": "Ha\u00effa Ollivary", "name:oc": "Haifa - Ollivari", "operator": "RTM", "public_transport": "stop_position", "source:name:oc": "ieo-bdtopoc"}}, {"type": "node", "id": 1347031787, "lat": 43.2503497, "lon": 5.3956973, "tags": {"bus": "yes", "name": "Mazargues L\u00e8gre", "name:oc": "Marsangues - L\u00e8gre", "public_transport": "stop_position", "source:name:oc": "ieo-bdtopoc"}}, {"type": "node", "id": 1347031792, "lat": 43.2567533, "lon": 5.3940134, "tags": {"bench": "no", "bin": "yes", "bus": "yes", "highway": "bus_stop", "lit": "yes", "name": "Sainte Anne", "name:oc": "Santa Anna", "public_transport": "platform", "shelter": "no", "source:name:oc": "ieo-bdtopoc", "tactile_paving": "yes"}}, {"type": "node", "id": 1347031795, "lat": 43.25923, "lon": 5.3989382, "tags": {"bench": "yes", "bin": "no", "bus": "yes", "highway": "bus_stop", "lit": "yes", "name": "Michelet Luce", "name:oc": "Michelet - L\u00facia", "public_transport": "platform", "shelter": "yes", "source:name:oc": "ieo-bdtopoc", "tactile_paving": "no", "wheelchair": "no"}}, {"type": "node", "id": 1347031803, "lat": 43.2523766, "lon": 5.3861614, "tags": {"bench": "no", "bus": "yes", "highway": "bus_stop", "name": "Hambourg L\u00e9au", "name:oc": "Amborg - Leau", "public_transport": "platform", "shelter": "no", "source:name:oc": "ieo-bdtopoc"}}, {"type": "node", "id": 1347031806, "lat": 43.2492911, "lon": 5.3902715, "tags": {"bench": "yes", "bin": "yes", "bus": "yes", "highway": "bus_stop", "name": "CC Bonneveine", "name:oc": "CC B\u00f2na V\u00e8una", "public_transport": "platform", "shelter": "yes", "source:name:oc": "ieo-bdtopoc"}}, {"type": "node", "id": 1347031807, "lat": 43.2565495, "lon": 5.4003177, "tags": {"bus": "yes", "name": "Michelet Taine", "name:oc": "Michelet - Taine", "public_transport": "stop_position"}}, {"type": "node", "id": 1347031820, "lat": 43.2525852, "lon": 5.3861914, "tags": {"bench": "no", "bin": "yes", "bus": "yes", "highway": "bus_stop", "lit": "yes", "name": "Hambourg L\u00e9au", "name:oc": "Amborg - Leau", "public_transport": "platform", "shelter": "no", "source:name:oc": "ieo-bdtopoc"}}, {"type": "node", "id": 1347031823, "lat": 43.2569726, "lon": 5.3941863, "tags": {"bench": "no", "bin": "yes", "bus": "yes", "highway": "bus_stop", "lit": "yes", "name": "Ste Anne", "public_transport": "platform", "shelter": "no", "source:name:oc": "ieo-bdtopoc", "tactile_paving": "yes"}}, {"type": "node", "id": 1347031827, "lat": 43.2493559, "lon": 5.3904566, "tags": {"bench": "yes", "bin": "yes", "bus": "yes", "highway": "bus_stop", "name": "CC Bonneveine", "name:oc": "CC B\u00f2na V\u00e8una", "public_transport": "platform", "shelter": "yes", "source:name:oc": "ieo-bdtopoc"}}, {"type": "node", "id": 1347031834, "lat": 43.2487779, "lon": 5.3978378, "tags": {"bench": "no", "bus": "yes", "highway": "bus_stop", "name": "Jardin Bortoli", "name:oc": "Jardin Bortoli", "public_transport": "platform", "shelter": "no", "source:name:oc": "ieo-bdtopoc"}}, {"type": "node", "id": 1347031837, "lat": 43.2504632, "lon": 5.3955722, "tags": {"bus": "yes", "name": "Mazargues L\u00e8gre", "name:oc": "Marsangues - Legre", "public_transport": "stop_position", "source:name:oc": "ieo-bdtopoc"}}, {"type": "node", "id": 1351939682, "lat": 43.2452556, "lon": 5.3802196, "tags": {"bus": "yes", "name": "Parangon Neptune", "name:oc": "Parangon - Neptun", "operator": "RTM", "public_transport": "stop_position", "source:name:oc": "ieo-bdtopoc"}}, {"type": "node", "id": 1363933655, "lat": 43.2516645, "lon": 5.3755125, "tags": {"bench": "yes", "bin": "yes", "bus": "yes", "highway": "bus_stop", "name": "Bowl du Prado", "name:oc": "Bowl dau Prad\u00f2t", "public_transport": "platform", "shelter": "yes", "source:name:oc": "ieo-bdtopoc", "tactile_paving": "yes", "wheelchair": "yes"}}, {"type": "node", "id": 1363933656, "lat": 43.2452456, "lon": 5.3729384, "tags": {"bench": "yes", "bin": "yes", "bus": "yes", "highway": "bus_stop", "lit": "no", "name": "Tiboulen", "name:oc": "Tiborenc", "public_transport": "platform", "shelter": "yes", "source:name:oc": "ieo-bdtopoc", "tactile_paving": "yes", "wheelchair": "yes"}}, {"type": "node", "id": 1363933658, "lat": 43.2558606, "lon": 5.3763929, "tags": {"bench": "yes", "bin": "yes", "bus": "yes", "highway": "bus_stop", "name": "Escale Bor\u00e9ly", "name:oc": "Escala Bor\u00e8li", "public_transport": "platform", "shelter": "yes", "source:name:oc": "ieo-bdtopoc", "tactile_paving": "yes", "wheelchair": "yes"}}, {"type": "node", "id": 1363933660, "lat": 43.2517512, "lon": 5.3757476, "tags": {"bench": "yes", "bus": "yes", "highway": "bus_stop", "name": "Bowl du Prado", "name:oc": "Bowl dau Prad\u00f2t", "public_transport": "platform", "shelter": "yes", "source:name:oc": "ieo-bdtopoc", "tactile_paving": "yes", "wheelchair": "yes"}}, {"type": "node", "id": 1363933661, "lat": 43.2439211, "lon": 5.3711279, "tags": {"bench": "no", "bin": "yes", "bus": "yes", "highway": "bus_stop", "lit": "yes", "name": "Pointe Rouge", "name:oc": "Poncha Roja", "public_transport": "platform", "shelter": "no", "source:name:oc": "ieo-bdtopoc", "tactile_paving": "yes", "wheelchair": "yes"}}, {"type": "node", "id": 1363933662, "lat": 43.2484417, "lon": 5.3747602, "tags": {"bench": "yes", "bin": "yes", "bus": "yes", "highway": "bus_stop", "lit": "yes", "name": "Vieille Chapelle", "name:oc": "La Cap\u00e8la Vi\u00e8lha", "public_transport": "platform", "shelter": "yes", "source:name:oc": "ieo-bdtopoc", "tactile_paving": "yes", "wheelchair": "yes"}}, {"type": "node", "id": 1363933665, "lat": 43.2387269, "lon": 5.3652743, "tags": {"bench": "yes", "bin": "yes", "bus": "yes", "highway": "bus_stop", "lit": "yes", "name": "Engali\u00e8re", "name:oc": "En Gali\u00e8ra", "public_transport": "platform", "shelter": "yes", "source:name:oc": "ieo-bdtopoc", "tactile_paving": "no"}}, {"type": "node", "id": 1363933669, "lat": 43.2419365, "lon": 5.3688785, "tags": {"bus": "yes", "name": "Montredon Chancel", "name:oc": "Mont Redon - Chanc\u00e8l", "public_transport": "stop_position", "source:name:oc": "ieo-bdtopoc"}}, {"type": "node", "id": 1363933673, "lat": 43.256584, "lon": 5.3766336, "tags": {"bus": "yes", "name": "Escale Bor\u00e9ly", "name:oc": "Escala Bor\u00e8li", "public_transport": "stop_position", "source:name:oc": "ieo-bdtopoc"}}, {"type": "node", "id": 1363933674, "lat": 43.2598721, "lon": 5.3753546, "tags": {"bench": "yes", "bin": "no", "bus": "yes", "highway": "bus_stop", "lit": "no", "name": "Plage de l'Huveaune", "name:oc": "Plaja de V\u00e8una", "public_transport": "platform", "shelter": "yes", "source:name:oc": "ieo-bdtopoc", "tactile_paving": "yes", "wheelchair": "yes"}}, {"type": "node", "id": 1363933675, "lat": 43.2419284, "lon": 5.3689878, "tags": {"bench": "yes", "bin": "yes", "bus": "yes", "highway": "bus_stop", "lit": "yes", "name": "Montredon Chancel", "name:oc": "Mont Redon - Chanc\u00e8l", "public_transport": "platform", "shelter": "yes", "source:name:oc": "ieo-bdtopoc", "tactile_paving": "yes", "wheelchair": "yes"}}, {"type": "node", "id": 1363933678, "lat": 43.2483168, "lon": 5.3750179, "tags": {"bench": "yes", "bin": "no", "bus": "yes", "highway": "bus_stop", "name": "Vieille Chapelle", "name:oc": "La Cap\u00e8la Vi\u00e8lha", "public_transport": "platform", "shelter": "yes", "source:name:oc": "ieo-bdtopoc", "wheelchair": "no"}}, {"type": "node", "id": 1363933681, "lat": 43.2452295, "lon": 5.3729943, "tags": {"bus": "yes", "name": "Tiboulen", "name:oc": "Tiborenc", "public_transport": "stop_position", "source:name:oc": "ieo-bdtopoc"}}, {"type": "node", "id": 1363933683, "lat": 43.2458286, "lon": 5.3736268, "tags": {"bench": "yes", "bin": "yes", "bus": "yes", "highway": "bus_stop", "name": "Tiboulen", "name:oc": "Tiborenc", "public_transport": "platform", "shelter": "yes", "source:name:oc": "ieo-bdtopoc", "tactile_paving": "yes", "wheelchair": "yes"}}, {"type": "node", "id": 1363933684, "lat": 43.2390157, "lon": 5.3654423, "tags": {"bench": "no", "bin": "no", "bus": "yes", "highway": "bus_stop", "lit": "no", "name": "Engali\u00e8re", "name:oc": "En Gali\u00e8ra", "public_transport": "platform", "shelter": "no", "source:name:oc": "ieo-bdtopoc", "tactile_paving": "no"}}, {"type": "node", "id": 1363933685, "lat": 43.2565981, "lon": 5.3767139, "tags": {"bench": "yes", "bin": "yes", "bus": "yes", "highway": "bus_stop", "name": "Escale Bor\u00e9ly", "name:oc": "Escala Bor\u00e8li", "public_transport": "platform", "shelter": "yes", "source:name:oc": "ieo-bdtopoc", "tactile_paving": "yes", "wheelchair": "yes"}}, {"type": "node", "id": 1363933687, "lat": 43.2436749, "lon": 5.3701474, "tags": {"bus": "yes", "name": "Pointe Rouge", "name:oc": "Poncha Roja", "public_transport": "stop_position", "source:name:oc": "ieo-bdtopoc"}}, {"type": "node", "id": 1363933690, "lat": 43.2437147, "lon": 5.3701294, "tags": {"bench": "yes", "bin": "yes", "bus": "yes", "highway": "bus_stop", "name": "Pointe Rouge", "name:oc": "Poncha Roja", "public_transport": "platform", "shelter": "yes", "source:name:oc": "ieo-bdtopoc", "tactile_paving": "yes", "wheelchair": "yes"}}, {"type": "node", "id": 1363933692, "lat": 43.25179, "lon": 5.3757022, "tags": {"bus": "yes", "name": "Bowl du Prado", "name:oc": "Bowl dau Prad\u00f2t", "public_transport": "stop_position", "source:name:oc": "ieo-bdtopoc"}}, {"type": "node", "id": 1363933693, "lat": 43.2458754, "lon": 5.3735976, "tags": {"bus": "yes", "name": "Tiboulen", "name:oc": "Tibolenc", "public_transport": "stop_position", "source:name:oc": "ieo-bdtopoc"}}, {"type": "node", "id": 1363933695, "lat": 43.25586, "lon": 5.3764845, "tags": {"bus": "yes", "name": "Escale Bor\u00e9ly", "name:oc": "Escala Bor\u00e8li", "public_transport": "stop_position", "source:name:oc": "ieo-bdtopoc"}}, {"type": "node", "id": 1377484611, "lat": 43.2460915, "lon": 5.3987582, "tags": {"bench": "yes", "bin": "yes", "bus": "yes", "highway": "bus_stop", "lit": "yes", "name": "Barqui\u00e8re Martheline", "name:oc": "Barquiera - Martelina", "public_transport": "platform", "shelter": "yes", "tactile_paving": "yes"}}, {"type": "node", "id": 1377484622, "lat": 43.2445523, "lon": 5.4000011, "tags": {"bench": "yes", "bin": "yes", "bus": "yes", "highway": "bus_stop", "name": "Soude R\u00e9ginensi", "name:oc": "Souda - Reginensi", "public_transport": "platform", "shelter": "yes", "source:name:oc": "ieo-bdtopoc"}}, {"type": "node", "id": 1429314945, "lat": 43.2402884, "lon": 5.3672068, "tags": {"bus": "yes", "name": "Montredon Pastr\u00e9", "name:oc": "Mont Redon - Pastre", "public_transport": "stop_position", "source:name:oc": "ieo-bdtopoc"}}, {"type": "node", "id": 1429314947, "lat": 43.2402603, "lon": 5.3672347, "tags": {"bench": "yes", "bus": "yes", "highway": "bus_stop", "name": "Montredon Pastr\u00e9", "name:oc": "Mont Redon - Pastre", "public_transport": "platform", "shelter": "yes", "source:name:oc": "ieo-bdtopoc", "tactile_paving": "yes", "wheelchair": "yes"}}, {"type": "node", "id": 1439849870, "lat": 43.2363993, "lon": 5.3622811, "tags": {"bench": "no", "bus": "yes", "check_date:shelter": "2023-07-28", "highway": "bus_stop", "name": "Grotte Rolland", "name:oc": "Bauma Roland", "public_transport": "platform", "shelter": "no", "source:name:oc": "ieo-bdtopoc"}}, {"type": "node", "id": 1439849872, "lat": 43.2364103, "lon": 5.3622028, "tags": {"bus": "yes", "name": "Grotte Rolland", "name:oc": "Bauma Roland", "public_transport": "stop_position", "source:name:oc": "ieo-bdtopoc"}}, {"type": "node", "id": 1439849873, "lat": 43.2365758, "lon": 5.3623248, "tags": {"bench": "no", "bin": "yes", "bus": "yes", "highway": "bus_stop", "lit": "yes", "name": "Grotte Rolland", "name:oc": "Bauma Roland", "public_transport": "platform", "shelter": "no", "source:name:oc": "ieo-bdtopoc", "tactile_paving": "no"}}, {"type": "node", "id": 1439849875, "lat": 43.2373379, "lon": 5.3635654, "tags": {"bus": "yes", "name": "Montredon Miremonts", "name:oc": "Mont Redon - Miramonts", "public_transport": "stop_position", "source:name:oc": "ieo-bdtopoc"}}, {"type": "node", "id": 1439849876, "lat": 43.2373406, "lon": 5.3634878, "tags": {"bench": "no", "bin": "yes", "bus": "yes", "highway": "bus_stop", "lit": "yes", "name": "Montredon Miremonts", "name:oc": "Mont Redon - Miramonts", "public_transport": "platform", "shelter": "no", "source:name:oc": "ieo-bdtopoc", "tactile_paving": "no"}}, {"type": "node", "id": 1439849878, "lat": 43.2402238, "lon": 5.3660924, "tags": {"bench": "no", "bin": "yes", "bus": "yes", "highway": "bus_stop", "lit": "yes", "name": "Montredon Pastr\u00e9", "name:oc": "Mont Redon - Pastre", "public_transport": "platform", "shelter": "no", "source:name:oc": "ieo-bdtopoc", "tactile_paving": "yes"}}, {"type": "node", "id": 1439849879, "lat": 43.2423433, "lon": 5.3676831, "tags": {"bus": "yes", "name": "Pointe Rouge Port", "name:oc": "Poncha Roja P\u00f2rt", "public_transport": "stop_position", "source:name:oc": "ieo-bdtopoc"}}, {"type": "node", "id": 1439849881, "lat": 43.2423628, "lon": 5.3676475, "tags": {"bench": "yes", "bus": "yes", "highway": "bus_stop", "name": "Pointe Rouge Port", "name:oc": "Poncha Roja P\u00f2rt", "public_transport": "platform", "shelter": "yes", "source:name:oc": "ieo-bdtopoc", "tactile_paving": "yes", "wheelchair": "yes"}}, {"type": "node", "id": 1450692381, "lat": 43.246059, "lon": 5.3985185, "tags": {"bench": "no", "bin": "yes", "bus": "yes", "highway": "bus_stop", "name": "Barqui\u00e8re Martheline", "name:oc": "Barquiera - Martelina", "public_transport": "platform", "shelter": "no", "source:name:oc": "ieo-bdtopoc", "tactile_paving": "yes"}}, {"type": "node", "id": 1450692382, "lat": 43.2461158, "lon": 5.3987073, "tags": {"bus": "yes", "name": "Barqui\u00e8re Martheline", "name:oc": "Barquiera - Martelina", "public_transport": "stop_position", "source:name:oc": "ieo-bdtopoc"}}, {"type": "node", "id": 1450692383, "lat": 43.2409363, "lon": 5.3970444, "tags": {"bench": "yes", "bin": "no", "bus": "yes", "highway": "bus_stop", "name": "Coll\u00e8ge Roy d'Espagne", "name:oc": "Collegi Dau R\u00e8i d\u2019Espanha", "public_transport": "platform", "shelter": "yes", "source:name:oc": "ieo-bdtopoc"}}, {"type": "node", "id": 1450692384, "lat": 43.2409552, "lon": 5.3971328, "tags": {"bus": "yes", "name": "Coll\u00e8ge Roy d'Espagne", "name:oc": "Collegi Dau R\u00e8i d\u2019Espanha", "operator": "RTM", "public_transport": "stop_position", "source:name:oc": "ieo-bdtopoc"}}, {"type": "node", "id": 1450692388, "lat": 43.2413011, "lon": 5.3971534, "tags": {"bus": "yes", "name": "Coll\u00e8ge Roy d'Espagne", "name:oc": "Collegi Dau R\u00e8i d\u2019Espanha", "public_transport": "stop_position", "source:name:oc": "ieo-bdtopoc"}}, {"type": "node", "id": 1450692389, "lat": 43.2413058, "lon": 5.3972268, "tags": {"bench": "yes", "bin": "no", "bus": "yes", "highway": "bus_stop", "name": "Coll\u00e8ge Roy d'Espagne", "name:oc": "Collegi Dau R\u00e8i d\u2019Espanha", "public_transport": "platform", "shelter": "yes", "source:name:oc": "ieo-bdtopoc"}}, {"type": "node", "id": 1450692392, "lat": 43.2411436, "lon": 5.3991008, "tags": {"bench": "yes", "bus": "yes", "highway": "bus_stop", "lit": "yes", "name": "Oc\u00e9an R\u00e9attu", "name:oc": "Occean - Reatu", "public_transport": "platform", "shelter": "yes", "source:name:oc": "ieo-bdtopoc"}}, {"type": "node", "id": 1450692393, "lat": 43.2411861, "lon": 5.3991521, "tags": {"bus": "yes", "name": "Oc\u00e9an R\u00e9attu", "name:oc": "Occean - Reatu", "public_transport": "stop_position", "source:name:oc": "ieo-bdtopoc"}}, {"type": "node", "id": 1450692394, "lat": 43.241399, "lon": 5.3987534, "tags": {"bus": "yes", "name": "Oc\u00e9an R\u00e9attu", "name:oc": "Occean - Reatu", "public_transport": "stop_position", "source:name:oc": "ieo-bdtopoc"}}, {"type": "node", "id": 1450692395, "lat": 43.241443, "lon": 5.3987973, "tags": {"bench": "no", "bin": "no", "bus": "yes", "highway": "bus_stop", "lit": "yes", "name": "Oc\u00e9an R\u00e9attu", "name:oc": "Occean - Reatu", "public_transport": "platform", "shelter": "no", "source:name:oc": "ieo-bdtopoc"}}, {"type": "node", "id": 1450692397, "lat": 43.2444559, "lon": 5.3999976, "tags": {"bench": "no", "bus": "yes", "highway": "bus_stop", "name": "Soude R\u00e9ginensi", "name:oc": "Souda - Reginensi", "public_transport": "platform", "shelter": "no", "source:name:oc": "ieo-bdtopoc"}}, {"type": "node", "id": 1450692398, "lat": 43.2445082, "lon": 5.3999768, "tags": {"bus": "yes", "name": "Soude R\u00e9ginensi", "name:oc": "Souda - Reginensi", "public_transport": "stop_position", "source:name:oc": "ieo-bdtopoc"}}, {"type": "node", "id": 1451045917, "lat": 43.2327237, "lon": 5.4000504, "tags": {"bus": "yes", "name": "CC Sormiou", "name:oc": "CC Sormiu", "public_transport": "stop_position", "source:name:oc": "ieo-bdtopoc"}}, {"type": "node", "id": 1492391564, "lat": 43.2469867, "lon": 5.382223, "tags": {"bus": "yes", "name": "Lapin Blanc", "name:oc": "Lapin Blanc", "public_transport": "stop_position", "source:name:oc": "ieo-bdtopoc"}}, {"type": "node", "id": 1492391570, "lat": 43.2472595, "lon": 5.3820676, "tags": {"bus": "yes", "name": "Bonneveine", "name:oc": "B\u00f2na V\u00e8una", "public_transport": "stop_position", "source:name:oc": "ieo-bdtopoc"}}, {"type": "node", "id": 1492452513, "lat": 43.2472118, "lon": 5.3820819, "tags": {"bench": "no", "highway": "bus_stop", "name": "Bonneveine", "name:oc": "B\u00f2na V\u00e8una", "public_transport": "platform", "shelter": "no", "source:name:oc": "ieo-bdtopoc"}}, {"type": "node", "id": 1492452514, "lat": 43.2492486, "lon": 5.3819543, "tags": {"bench": "yes", "bin": "no", "bus": "yes", "highway": "bus_stop", "name": "Clinique", "name:oc": "Clinica", "public_transport": "platform", "shelter": "yes", "source:name:oc": "ieo-bdtopoc", "tactile_paving": "no"}}, {"type": "node", "id": 1492452515, "lat": 43.2496942, "lon": 5.3817728, "tags": {"bench": "no", "bus": "yes", "highway": "bus_stop", "name": "Clinique", "name:oc": "Clinica", "public_transport": "platform", "shelter": "no", "source:name:oc": "ieo-bdtopoc"}}, {"type": "node", "id": 1492452516, "lat": 43.2415204, "lon": 5.396483, "tags": {"bench": "no", "bus": "yes", "highway": "bus_stop", "name": "Coll\u00e8ge Roy d'Espagne", "name:oc": "Collegi Dau R\u00e8i d\u2019Espanha", "public_transport": "platform", "shelter": "no", "source:name:oc": "ieo-bdtopoc"}}, {"type": "node", "id": 1492452517, "lat": 43.2450999, "lon": 5.3896104, "tags": {"bench": "no", "bin": "yes", "bus": "yes", "highway": "bus_stop", "lit": "yes", "name": "Floralia Chiapale", "name:oc": "Floralia - Chiapale", "public_transport": "platform", "shelter": "no", "source:name:oc": "ieo-bdtopoc", "tactile_paving": "no"}}, {"type": "node", "id": 1492452518, "lat": 43.2451698, "lon": 5.3897308, "tags": {"bench": "no", "bin": "yes", "bus": "yes", "highway": "bus_stop", "lit": "yes", "name": "Floralia Chiapale", "name:oc": "Floralia - Chiapale", "public_transport": "platform", "shelter": "no", "source:name:oc": "ieo-bdtopoc", "tactile_paving": "no"}}, {"type": "node", "id": 1492452519, "lat": 43.2416135, "lon": 5.3961961, "tags": {"bench": "yes", "bin": "yes", "bus": "yes", "departures_board": "timetable", "highway": "bus_stop", "name": "Coll\u00e8ge Roy d'Espagne", "name:oc": "Collegi Dau R\u00e8i d\u2019Espanha", "public_transport": "platform", "shelter": "yes", "source:name:oc": "ieo-bdtopoc"}}, {"type": "node", "id": 1492452520, "lat": 43.2434226, "lon": 5.3921946, "tags": {"bench": "yes", "bus": "yes", "highway": "bus_stop", "name": "Floralia Le M\u00e9e", "name:oc": "Floraria - Lo Mea", "public_transport": "platform", "shelter": "yes", "source:name:oc": "ieo-bdtopoc"}}, {"type": "node", "id": 1492452521, "lat": 43.2426427, "lon": 5.3926453, "tags": {"bench": "no", "bin": "yes", "bus": "yes", "highway": "bus_stop", "name": "Floralia Rimet", "name:oc": "Floralia - Rimet", "public_transport": "platform", "shelter": "no", "source:name:oc": "ieo-bdtopoc"}}, {"type": "node", "id": 1492452522, "lat": 43.2427101, "lon": 5.3926591, "tags": {"bus": "yes", "name": "Floralia Rimet", "name:oc": "Floralia - Rimet", "public_transport": "stop_position", "source:name:oc": "ieo-bdtopoc"}}, {"type": "node", "id": 1492452523, "lat": 43.2412429, "lon": 5.3944049, "tags": {"bench": "no", "bus": "yes", "highway": "bus_stop", "name": "Floralia", "name:oc": "Floralia", "public_transport": "platform", "shelter": "no", "source:name:oc": "ieo-bdtopoc"}}, {"type": "node", "id": 1492452524, "lat": 43.2413528, "lon": 5.3943548, "tags": {"bench": "yes", "bus": "yes", "highway": "bus_stop", "name": "Floralia", "name:oc": "Floralia", "public_transport": "platform", "shelter": "yes", "source:name:oc": "ieo-bdtopoc"}}, {"type": "node", "id": 1492452525, "lat": 43.2543842, "lon": 5.3779082, "tags": {"bench": "yes", "bin": "yes", "bus": "yes", "highway": "bus_stop", "name": "Escale Bor\u00e9ly", "name:oc": "Escala Bor\u00e8li", "public_transport": "platform", "shelter": "yes", "source:name:oc": "ieo-bdtopoc"}}, {"type": "node", "id": 1492452526, "lat": 43.2544237, "lon": 5.3779106, "tags": {"bus": "yes", "name": "Escale Bor\u00e9ly", "name:oc": "Escala Bor\u00e8li", "public_transport": "stop_position"}}, {"type": "node", "id": 1492452527, "lat": 43.2545146, "lon": 5.3775843, "tags": {"bus": "yes", "name": "Escale Bor\u00e9ly", "name:oc": "Escala Bor\u00e8li", "public_transport": "stop_position", "source:name:oc": "ieo-bdtopoc"}}, {"type": "node", "id": 1492452528, "lat": 43.2545552, "lon": 5.3775869, "tags": {"bench": "no", "bin": "yes", "bus": "yes", "highway": "bus_stop", "name": "Escale Bor\u00e9ly", "name:oc": "Escala Bor\u00e8li", "public_transport": "platform", "shelter": "no", "source:name:oc": "ieo-bdtopoc"}}, {"type": "node", "id": 1492452529, "lat": 43.2469274, "lon": 5.3822794, "tags": {"bench": "yes", "bus": "yes", "highway": "bus_stop", "name": "Lapin Blanc", "name:oc": "Lapin Blanc", "public_transport": "platform", "shelter": "yes", "source:name:oc": "ieo-bdtopoc"}}, {"type": "node", "id": 1492452530, "lat": 43.2469406, "lon": 5.3831471, "tags": {"bus": "yes", "name": "Lapin Blanc", "name:oc": "Lapin Blanc", "public_transport": "stop_position", "source:name:oc": "ieo-bdtopoc"}}, {"type": "node", "id": 1492452531, "lat": 43.2470005, "lon": 5.3831846, "tags": {"bench": "no", "bus": "yes", "highway": "bus_stop", "name": "Lapin Blanc", "name:oc": "Lapin Blanc", "public_transport": "platform", "shelter": "no", "source:name:oc": "ieo-bdtopoc"}}, {"type": "node", "id": 1492452532, "lat": 43.2438984, "lon": 5.3855153, "tags": {"bench": "no", "bus": "yes", "highway": "bus_stop", "name": "Musso Roy d'Espagne", "name:oc": "Musso - R\u00e8i d'Espanha", "public_transport": "platform", "shelter": "no", "source:name:oc": "ieo-bdtopoc"}}, {"type": "node", "id": 1492452533, "lat": 43.243934, "lon": 5.3854685, "tags": {"bus": "yes", "name": "Musso Roy d'Espagne", "name:oc": "Musso - R\u00e8i d'Espanha", "public_transport": "stop_position", "source:name:oc": "ieo-bdtopoc"}}, {"type": "node", "id": 1492452534, "lat": 43.2439598, "lon": 5.3854415, "tags": {"bench": "yes", "bus": "yes", "highway": "bus_stop", "name": "Musso Roy d'Espagne", "name:oc": "Musso - R\u00e8i d'Espanha", "public_transport": "platform", "shelter": "yes", "source:name:oc": "ieo-bdtopoc"}}, {"type": "node", "id": 1492452535, "lat": 43.2534334, "lon": 5.3820033, "tags": {"bench": "no", "bus": "yes", "highway": "bus_stop", "name": "Place Bonnefon", "name:oc": "Pla\u00e7a B\u00f2na F\u00f2nt", "public_transport": "platform", "shelter": "no", "source:name:oc": "ieo-bdtopoc"}}, {"type": "node", "id": 1492452536, "lat": 43.2534382, "lon": 5.3820606, "tags": {"bus": "yes", "name": "Place Bonnefon", "name:oc": "Pla\u00e7a B\u00f2na F\u00f2nt", "operator": "RTM", "public_transport": "stop_position", "source:name:oc": "ieo-bdtopoc"}}, {"type": "node", "id": 1492452537, "lat": 43.2539491, "lon": 5.382174, "tags": {"bench": "yes", "bus": "yes", "highway": "bus_stop", "name": "Place Bonnefon", "name:oc": "Pla\u00e7a B\u00f2naf\u00f2nt", "public_transport": "platform", "shelter": "yes", "source:name:oc": "ieo-bdtopoc"}}, {"type": "node", "id": 1492452538, "lat": 43.2447769, "lon": 5.3869466, "tags": {"bench": "no", "bus": "yes", "highway": "bus_stop", "name": "Pourri\u00e8re Floralia", "name:oc": "Porriera - Floralia", "public_transport": "platform", "shelter": "no", "source:name:oc": "ieo-bdtopoc"}}, {"type": "node", "id": 1492452539, "lat": 43.2448604, "lon": 5.3869796, "tags": {"bus": "yes", "name": "Pourri\u00e8re Floralia", "name:oc": "Porriera - Floralia", "public_transport": "stop_position", "source:name:oc": "ieo-bdtopoc"}}, {"type": "node", "id": 1492452540, "lat": 43.2449413, "lon": 5.3869878, "tags": {"bench": "no", "bus": "yes", "highway": "bus_stop", "name": "Pourri\u00e8re Floralia", "name:oc": "Porriera - Floralia", "public_transport": "platform", "shelter": "no", "source:name:oc": "ieo-bdtopoc"}}, {"type": "node", "id": 1492452541, "lat": 43.2512444, "lon": 5.3821995, "tags": {"bench": "no", "bus": "yes", "highway": "bus_stop", "name": "Sablier Cit\u00e9 Bor\u00e9ly", "name:oc": "Sablier - Ciutat Bor\u00e8li", "public_transport": "platform", "shelter": "no", "source:name:oc": "ieo-bdtopoc"}}, {"type": "node", "id": 1492452542, "lat": 43.2520295, "lon": 5.3822007, "tags": {"bus": "yes", "name": "Sablier Cit\u00e9 Bor\u00e9ly", "name:oc": "Sablier - Ciutat Bor\u00e8li", "operator": "RTM", "public_transport": "stop_position", "source:name:oc": "ieo-bdtopoc"}}, {"type": "node", "id": 1492452543, "lat": 43.2520288, "lon": 5.3822569, "tags": {"bench": "no", "bus": "yes", "highway": "bus_stop", "name": "Sablier Cit\u00e9 Bor\u00e9ly", "name:oc": "Sablier - Ciutat Bor\u00e8li", "public_transport": "platform", "shelter": "no", "source:name:oc": "ieo-bdtopoc"}}, {"type": "node", "id": 1492452544, "lat": 43.2464313, "lon": 5.3837329, "tags": {"bus": "yes", "name": "Zenatti Lancier", "name:oc": "Zenatti - Lancier", "public_transport": "stop_position", "source:name:oc": "ieo-bdtopoc"}}, {"type": "node", "id": 1492452545, "lat": 43.2464364, "lon": 5.3837917, "tags": {"bench": "no", "bin": "yes", "bus": "yes", "highway": "bus_stop", "name": "Zenatti Lancier", "name:oc": "Zenatti - Lancier", "public_transport": "platform", "shelter": "no", "source:name:oc": "ieo-bdtopoc"}}, {"type": "node", "id": 1492452546, "lat": 43.2457974, "lon": 5.3839116, "tags": {"bench": "no", "bus": "yes", "highway": "bus_stop", "name": "Zenatti Lancier", "name:oc": "Zenatti - Lancier", "public_transport": "platform", "shelter": "no", "source:name:oc": "ieo-bdtopoc"}}, {"type": "node", "id": 1492452547, "lat": 43.24581, "lon": 5.3839649, "tags": {"bus": "yes", "name": "Zenatti Lancier", "name:oc": "Zenatti - Lancier", "public_transport": "stop_position", "source:name:oc": "ieo-bdtopoc"}}, {"type": "node", "id": 1492452548, "lat": 43.2462582, "lon": 5.3883029, "tags": {"bus": "yes", "name": "Zenatti Malrieu", "name:oc": "Zenatti - Malrieu", "public_transport": "stop_position", "source:name:oc": "ieo-bdtopoc"}}, {"type": "node", "id": 1492452549, "lat": 43.2463138, "lon": 5.3883208, "tags": {"bench": "no", "bin": "yes", "bus": "yes", "highway": "bus_stop", "lit": "yes", "name": "Zenatti Malrieu", "name:oc": "Zenatti - Malrieu", "public_transport": "platform", "shelter": "no", "source:name:oc": "ieo-bdtopoc", "tactile_paving": "no"}}, {"type": "node", "id": 1701468437, "lat": 43.243082, "lon": 5.3671642, "tags": {"amenity": "ferry_terminal", "cargo": "passengers", "ferry": "yes", "harbour": "yes", "level": "0", "name": "Pointe Rouge", "name:oc": "Poncha Roja", "network": "RTM", "operator": "R\u00e9gie des Transports Marseillais", "public_transport": "stop_position", "seamark:harbour:category": "passenger", "seamark:type": "harbour", "source:name:oc": "ieo-bdtopoc", "toilets:wheelchair": "yes", "wheelchair": "limited"}}, {"type": "node", "id": 1705213289, "lat": 43.2329407, "lon": 5.3572657, "tags": {"bench": "no", "bus": "yes", "highway": "bus_stop", "name": "Madrague Lieutenant Moulin", "name:oc": "Madraga - Lu\u00f2ctenent Molin", "public_transport": "platform", "shelter": "no", "source:name:oc": "ieo-bdtopoc"}}, {"type": "node", "id": 1705213290, "lat": 43.2329752, "lon": 5.3572371, "tags": {"bus": "yes", "name": "Madrague Lieutenant Moulin", "name:oc": "Madraga - Lu\u00f2ctenent Molin", "public_transport": "stop_position", "source:name:oc": "ieo-bdtopoc"}}, {"type": "node", "id": 1705213293, "lat": 43.233436, "lon": 5.3579385, "tags": {"bus": "yes", "name": "Madrague Lieutenant Moulin", "name:oc": "Madraga - Lu\u00f2ctenent Molin", "public_transport": "stop_position", "source:name:oc": "ieo-bdtopoc"}}, {"type": "node", "id": 1705213302, "lat": 43.2334473, "lon": 5.3578862, "tags": {"bench": "no", "bin": "no", "bus": "yes", "check_date:shelter": "2023-09-16", "highway": "bus_stop", "name": "Madrague Lieutenant Moulin", "name:oc": "Madraga - Lu\u00f2ctenent Molin", "public_transport": "platform", "shelter": "no", "source:name:oc": "ieo-bdtopoc", "tactile_paving": "no"}}, {"type": "node", "id": 1705213305, "lat": 43.2314875, "lon": 5.3552758, "tags": {"bus": "yes", "name": "Madrague Mont-Rose", "name:oc": "Madraga - Mont R\u00f2se", "public_transport": "stop_position", "source:name:oc": "ieo-bdtopoc"}}, {"type": "node", "id": 1705213311, "lat": 43.2315119, "lon": 5.3552184, "tags": {"bench": "no", "bin": "yes", "bus": "yes", "check_date:shelter": "2023-09-16", "highway": "bus_stop", "lit": "no", "name": "Madrague Mont-Rose", "name:oc": "Madraga - Mont R\u00f2se", "public_transport": "platform", "shelter": "no", "source:name:oc": "ieo-bdtopoc", "tactile_paving": "no"}}, {"type": "node", "id": 1705213317, "lat": 43.2316773, "lon": 5.355471, "tags": {"bench": "no", "bin": "no", "bus": "yes", "highway": "bus_stop", "lit": "no", "name": "Madrague Mont-Rose", "name:oc": "Madraga - Mont R\u00f2se", "public_transport": "platform", "shelter": "no", "source:name:oc": "ieo-bdtopoc", "tactile_paving": "no"}}, {"type": "node", "id": 1705213322, "lat": 43.2316967, "lon": 5.35544, "tags": {"bus": "yes", "name": "Madrague Mont-Rose", "name:oc": "Madraga - Mont R\u00f2se", "public_transport": "stop_position", "source:name:oc": "ieo-bdtopoc"}}, {"type": "node", "id": 1705213326, "lat": 43.2344383, "lon": 5.3594034, "tags": {"bus": "yes", "name": "Verrerie", "name:oc": "Veiriera", "public_transport": "stop_position", "source:name:oc": "ieo-bdtopoc"}}, {"type": "node", "id": 1705213331, "lat": 43.2344209, "lon": 5.3593026, "tags": {"bench": "no", "bus": "yes", "check_date:shelter": "2023-07-28", "highway": "bus_stop", "name": "Verrerie", "name:oc": "Veiriera", "public_transport": "platform", "shelter": "no", "source:name:oc": "ieo-bdtopoc"}}, {"type": "node", "id": 1705213336, "lat": 43.2344575, "lon": 5.3595304, "tags": {"bench": "yes", "bus": "yes", "highway": "bus_stop", "name": "Verrerie", "name:oc": "Veiriera", "public_transport": "platform", "shelter": "yes", "source:name:oc": "ieo-bdtopoc"}}, {"type": "node", "id": 1705213341, "lat": 43.2345097, "lon": 5.3595036, "tags": {"bus": "yes", "name": "Verrerie", "name:oc": "Veiriera", "public_transport": "stop_position"}}, {"type": "node", "id": 1707368746, "lat": 43.2402211, "lon": 5.3774364, "tags": {"bench": "yes", "bin": "yes", "bus": "yes", "highway": "bus_stop", "lit": "yes", "name": "Lyc\u00e9e Marseilleveyre", "name:oc": "Lic\u00e8u Marselha Vi\u00e8lha", "public_transport": "platform", "shelter": "yes", "source:name:oc": "ieo-bdtopoc", "tactile_paving": "yes", "wall": "yes"}}, {"type": "node", "id": 1707368759, "lat": 43.2402119, "lon": 5.3771798, "tags": {"bench": "no", "bin": "no", "bus": "yes", "highway": "bus_stop", "lit": "yes", "name": "Lyc\u00e9e Marseilleveyre", "name:oc": "Lic\u00e8u Marselha Vi\u00e8lha", "public_transport": "platform", "shelter": "no", "source:name:oc": "ieo-bdtopoc", "tactile_paving": "yes", "wall": "yes"}}, {"type": "node", "id": 1707368764, "lat": 43.2391737, "lon": 5.375507, "tags": {"bench": "yes", "bin": "yes", "bus": "yes", "highway": "bus_stop", "lit": "yes", "name": "Marseilleveyre", "name:oc": "Marselha Vi\u00e8lha", "public_transport": "platform", "shelter": "yes", "source:name:oc": "ieo-bdtopoc", "tactile_paving": "no", "wheelchair": "limited"}}, {"type": "node", "id": 1707368771, "lat": 43.2386276, "lon": 5.3738984, "tags": {"bench": "no", "bin": "yes", "bus": "yes", "highway": "bus_stop", "lit": "no", "name": "ENSM", "name:oc": "ENSM", "public_transport": "platform", "shelter": "no", "source:name:oc": "ieo-bdtopoc", "tactile_paving": "no"}}, {"type": "node", "id": 1714070543, "lat": 43.2460155, "lon": 5.3986151, "tags": {"bus": "yes", "name": "Barqui\u00e8re Martheline", "name:oc": "Barquiera - Martelina", "public_transport": "stop_position", "source:name:oc": "ieo-bdtopoc"}}, {"type": "node", "id": 1768566927, "lat": 43.2402471, "lon": 5.377325, "tags": {"bus": "yes", "name": "Lyc\u00e9e Marseilleveyre", "name:oc": "Lic\u00e8u Marselha Vi\u00e8lha", "public_transport": "stop_position", "source:name:oc": "ieo-bdtopoc"}}, {"type": "node", "id": 1768566928, "lat": 43.2392371, "lon": 5.3754215, "tags": {"bus": "yes", "name": "Marseilleveyre", "name:oc": "Marselha Vi\u00e8lha", "operator": "RTM", "public_transport": "stop_position", "source:name:oc": "ieo-bdtopoc"}}, {"type": "node", "id": 1768566929, "lat": 43.2422632, "lon": 5.379547, "tags": {"bus": "yes", "name": "Lyc\u00e9e Poinso-Chapuis", "name:oc": "Lic\u00e8u Poinso-Chapueis", "operator": "RTM", "public_transport": "stop_position"}}, {"type": "node", "id": 1768566930, "lat": 43.2422857, "lon": 5.3794741, "tags": {"bench": "no", "bus": "yes", "highway": "bus_stop", "name": "Lyc\u00e9e Poinso-Chapuis", "name:oc": "Lic\u00e8u Poinso-Chapueis", "public_transport": "platform", "shelter": "no", "source:name:oc": "ieo-bdtopoc"}}, {"type": "node", "id": 1768566931, "lat": 43.2430206, "lon": 5.3797962, "tags": {"bus": "yes", "name": "Lyc\u00e9e Poinso-Chapuis", "name:oc": "Lic\u00e8u Poinso-Chapueis", "operator": "RTM", "public_transport": "stop_position"}}, {"type": "node", "id": 1768566932, "lat": 43.2452073, "lon": 5.3803204, "tags": {"bench": "yes", "bus": "yes", "highway": "bus_stop", "name": "Parangon Neptune", "name:oc": "Parangon - Neptun", "public_transport": "platform", "shelter": "yes", "source:name:oc": "ieo-bdtopoc"}}, {"type": "node", "id": 1768566933, "lat": 43.2452411, "lon": 5.3801406, "tags": {"bench": "no", "bus": "yes", "highway": "bus_stop", "name": "Parangon Neptune", "name:oc": "Parangon - Neptun", "public_transport": "platform", "shelter": "no", "source:name:oc": "ieo-bdtopoc"}}, {"type": "node", "id": 1768566934, "lat": 43.2386825, "lon": 5.3738524, "tags": {"bus": "yes", "name": "ENSM", "name:oc": "ENSM", "public_transport": "stop_position", "source:name:oc": "ieo-bdtopoc"}}, {"type": "node", "id": 1768566935, "lat": 43.2457499, "lon": 5.3937761, "tags": {"bench": "yes", "bus": "yes", "highway": "bus_stop", "name": "Zenatti Lyc\u00e9e", "name:oc": "Zenatti - Lic\u00e8u", "public_transport": "platform", "shelter": "yes", "source:name:oc": "ieo-bdtopoc"}}, {"type": "node", "id": 1768566936, "lat": 43.2458789, "lon": 5.3925645, "tags": {"bench": "yes", "bus": "yes", "highway": "bus_stop", "name": "Zenatti Lyc\u00e9e", "name:oc": "Zenatti - Lic\u00e8u", "public_transport": "platform", "shelter": "yes", "source:name:oc": "ieo-bdtopoc"}}, {"type": "node", "id": 1768566937, "lat": 43.2460594, "lon": 5.389331, "tags": {"bench": "no", "bin": "yes", "bus": "yes", "highway": "bus_stop", "name": "Zenatti Malrieu", "name:oc": "Zenatti - Malrieu", "public_transport": "platform", "shelter": "no", "source:name:oc": "ieo-bdtopoc", "tactile_paving": "no"}}, {"type": "node", "id": 1768566939, "lat": 43.2461162, "lon": 5.389359, "tags": {"bus": "yes", "name": "Zenatti Malrieu", "name:oc": "Zenatti - Malrieu", "public_transport": "stop_position", "source:name:oc": "ieo-bdtopoc"}}, {"type": "node", "id": 1768566942, "lat": 43.2464301, "lon": 5.3864105, "tags": {"bench": "yes", "bin": "yes", "bus": "yes", "highway": "bus_stop", "lit": "yes", "name": "Zenatti \u00c9coles", "name:oc": "Zenatti - Esc\u00f2las", "public_transport": "platform", "shelter": "yes", "source:name:oc": "ieo-bdtopoc", "tactile_paving": "no"}}, {"type": "node", "id": 1768566948, "lat": 43.2466216, "lon": 5.3858587, "tags": {"bus": "yes", "name": "Zenatti \u00c9coles", "name:oc": "Zenatti - Esc\u00f2las", "public_transport": "stop_position", "source:name:oc": "ieo-bdtopoc"}}, {"type": "node", "id": 1768566952, "lat": 43.246676, "lon": 5.3858792, "tags": {"bench": "no", "bin": "yes", "bus": "yes", "highway": "bus_stop", "lit": "yes", "name": "Zenatti \u00c9coles", "name:oc": "Zenatti - Esc\u00f2las", "public_transport": "platform", "shelter": "no", "source:name:oc": "ieo-bdtopoc", "tactile_paving": "no"}}, {"type": "node", "id": 1768643009, "lat": 43.2343368, "lon": 5.3992254, "tags": {"bench": "no", "bus": "yes", "highway": "bus_stop", "name": "Sormiou Jarre", "name:oc": "Sormiu - Jarra", "public_transport": "platform", "shelter": "no", "source:name:oc": "ieo-bdtopoc", "tactile_paving": "yes", "wheelchair": "yes"}}, {"type": "node", "id": 1768643019, "lat": 43.2349976, "lon": 5.3992766, "tags": {"bench": "yes", "bin": "yes", "bus": "yes", "highway": "bus_stop", "name": "Sormiou Croisa", "name:oc": "Sormiu - Croisa", "public_transport": "platform", "shelter": "yes", "source:name:oc": "ieo-bdtopoc", "tactile_paving": "yes", "wheelchair": "yes"}}, {"type": "node", "id": 1768643026, "lat": 43.2360092, "lon": 5.398878, "tags": {"bench": "no", "bus": "yes", "highway": "bus_stop", "name": "Sormiou Roy d'Espagne", "name:oc": "Sormiu - R\u00e8i d\u2019Espanha", "public_transport": "platform", "shelter": "no", "source:name:oc": "ieo-bdtopoc"}}, {"type": "node", "id": 1768643034, "lat": 43.2360169, "lon": 5.3989359, "tags": {"bus": "yes", "name": "Sormiou Roy d'Espagne", "name:oc": "Sormiu - R\u00e8i d\u2019Espanha", "public_transport": "stop_position", "source:name:oc": "ieo-bdtopoc"}}, {"type": "node", "id": 1768643040, "lat": 43.2365743, "lon": 5.3990376, "tags": {"bench": "no", "bin": "yes", "bus": "yes", "highway": "bus_stop", "name": "Sormiou Roy d'Espagne", "name:oc": "Sormiu - R\u00e8i d\u2019Espanha", "public_transport": "platform", "shelter": "no", "source:name:oc": "ieo-bdtopoc"}}, {"type": "node", "id": 1781534072, "lat": 43.2576809, "lon": 5.3971912, "tags": {"bus": "yes", "name": "Isaac Luce", "name:oc": "Ishaq - L\u00facia", "public_transport": "stop_position", "source:name:oc": "ieo-bdtopoc"}}, {"type": "node", "id": 1781534073, "lat": 43.2580416, "lon": 5.3967573, "tags": {"bus": "yes", "name": "Luce Isaac", "name:oc": "L\u00facia - Ishaq", "public_transport": "stop_position", "source:name:oc": "ieo-bdtopoc"}}, {"type": "node", "id": 1781534075, "lat": 43.2585192, "lon": 5.3985232, "tags": {"bench": "no", "bus": "yes", "highway": "bus_stop", "name": "Luce Michelet", "name:oc": "L\u00facia - Michelet", "public_transport": "platform", "shelter": "no", "source:name:oc": "ieo-bdtopoc"}}, {"type": "node", "id": 1781534076, "lat": 43.258541, "lon": 5.3984315, "tags": {"bus": "yes", "name": "Luce Michelet", "name:oc": "L\u00facia - Michelet", "public_transport": "stop_position", "source:name:oc": "ieo-bdtopoc"}}, {"type": "node", "id": 1781534077, "lat": 43.2566723, "lon": 5.3945936, "tags": {"bus": "yes", "name": "Sainte-Anne", "name:oc": "Santa Anna", "public_transport": "stop_position", "source:name:oc": "ieo-bdtopoc"}}, {"type": "node", "id": 1781598529, "lat": 43.2417653, "lon": 5.3640678, "tags": {"bench": "no", "highway": "bus_stop", "note": "Stop for line 19B (operated only during summer)", "operator": "RTM", "public_transport": "platform", "shelter": "no"}}, {"type": "node", "id": 1781598530, "lat": 43.2417884, "lon": 5.3641193, "tags": {"bus": "yes", "operator": "RTM", "public_transport": "stop_position"}}, {"type": "node", "id": 2397788388, "lat": 43.241706, "lon": 5.3906554, "tags": {"bus": "yes", "disused:highway": "bus_stop", "name": "Rimet Stade Lebert", "name:oc": "Rimet - Estadi Lebert", "public_transport": "platform", "ref:FR:MPM:ID": "ID-2136", "ref:FR:MPM:SIGEP": "2927", "source": "Marseille Provence M\u00e9tropole Open Data 2013", "source:name:oc": "ieo-bdtopoc"}}, {"type": "node", "id": 4253158349, "lat": 43.2430012, "lon": 5.3671819}, {"type": "node", "id": 4253158350, "lat": 43.2430098, "lon": 5.3671995, "tags": {"barrier": "gate"}}, {"type": "node", "id": 4253158351, "lat": 43.2430202, "lon": 5.3672208}, {"type": "node", "id": 4253158355, "lat": 43.2431237, "lon": 5.3670697}, {"type": "node", "id": 4253158482, "lat": 43.2431426, "lon": 5.3671086}, {"type": "node", "id": 4299001683, "lat": 43.2424355, "lon": 5.3676944, "tags": {"bench": "no", "bus": "yes", "highway": "bus_stop", "name": "Pointe Rouge Port", "name:oc": "Poncha Roja P\u00f2rt", "public_transport": "platform", "shelter": "no", "source:name:oc": "ieo-bdtopoc"}}, {"type": "node", "id": 4299001684, "lat": 43.2424811, "lon": 5.3678509, "tags": {"bus": "yes", "name": "Pointe Rouge Port", "name:oc": "Poncha Roja P\u00f2rt", "public_transport": "stop_position", "source:name:oc": "ieo-bdtopoc"}}, {"type": "node", "id": 4299003000, "lat": 43.2309305, "lon": 5.3547098}, {"type": "node", "id": 4299003001, "lat": 43.2309457, "lon": 5.3546662}, {"type": "node", "id": 4299003002, "lat": 43.2309809, "lon": 5.3546273}, {"type": "node", "id": 4299003003, "lat": 43.2310165, "lon": 5.3546078}, {"type": "node", "id": 4299003004, "lat": 43.2310512, "lon": 5.3546038}, {"type": "node", "id": 4299003005, "lat": 43.2310834, "lon": 5.3546099}, {"type": "node", "id": 4299003006, "lat": 43.2311242, "lon": 5.3546246}, {"type": "node", "id": 4299003032, "lat": 43.2429837, "lon": 5.3672226, "tags": {"amenity": "shelter"}}, {"type": "node", "id": 5232622239, "lat": 43.23238, "lon": 5.4001272, "tags": {"bus": "yes", "name": "CC Sormiou", "name:oc": "CC Sormiu", "public_transport": "stop_position", "source:name:oc": "ieo-bdtopoc"}}, {"type": "node", "id": 5913412985, "lat": 43.2586365, "lon": 5.3990225, "tags": {"bench": "yes", "bin": "yes", "bus": "yes", "highway": "bus_stop", "lit": "yes", "name": "Michelet Luce", "name:oc": "Michelet - L\u00facia", "public_transport": "platform", "shelter": "yes", "source:name:oc": "ieo-bdtopoc", "tactile_paving": "no", "wheelchair": "no"}}, {"type": "node", "id": 6581718944, "lat": 43.231097, "lon": 5.354638, "tags": {"bus": "yes", "name": "Madrague de Montredon", "name:oc": "Madraga dau Mont Redon", "public_transport": "stop_position", "source:name:oc": "ieo-bdtopoc"}}, {"type": "node", "id": 6581718951, "lat": 43.2311121, "lon": 5.3548209}, {"type": "node", "id": 6581718952, "lat": 43.2311668, "lon": 5.3546528}, {"type": "node", "id": 6837713628, "lat": 43.2569919, "lon": 5.3941338, "tags": {"bus": "yes", "name:fr": "Sainte-Anne", "name:oc": "Santa Anna", "public_transport": "stop_position", "source:name:oc": "ieo-bdtopoc"}}, {"type": "node", "id": 9968164138, "lat": 43.2402526, "lon": 5.3774059, "tags": {"bus": "yes", "name": "Lyc\u00e9e Marseilleveyre", "name:oc": "Lic\u00e8u Marselha Vi\u00e8lha", "public_transport": "stop_position", "source:name:oc": "ieo-bdtopoc"}}, {"type": "node", "id": 9968164147, "lat": 43.2401344, "lon": 5.3772363, "tags": {"bench": "no", "bin": "yes", "bus": "yes", "highway": "bus_stop", "lit": "yes", "name": "Lyc\u00e9e Marseilleveyre", "name:oc": "Lic\u00e8u Marselha Vi\u00e8lha", "public_transport": "platform", "shelter": "no", "source:name:oc": "ieo-bdtopoc", "tactile_paving": "yes"}}, {"type": "node", "id": 11118128794, "lat": 43.2604436, "lon": 5.3753864, "tags": {"bus": "yes", "highway": "bus_stop", "name": "Plage de l'Huveaune", "name:oc": "Platja de V\u00e8una", "public_transport": "platform", "shelter": "no", "source:name:oc": "ieo-bdtopoc"}}, {"type": "node", "id": 11121716157, "lat": 43.2604277, "lon": 5.3753379, "tags": {"bus": "yes", "name": "Plage de l'Huveaune", "name:oc": "Plaja de V\u00e8una", "public_transport": "stop_position", "source:name:oc": "ieo-bdtopoc"}}, {"type": "node", "id": 13452267059, "lat": 43.2588999, "lon": 5.3996302, "tags": {"bus": "yes", "highway": "bus_stop", "name": "Michelet Luce", "name:oc": "Michelet - L\u00facia", "public_transport": "platform", "source:name:oc": "ieo-bdtopoc", "wheelchair": "no"}}, {"type": "node", "id": 13452267060, "lat": 43.258938, "lon": 5.3996101, "tags": {"bus": "yes", "name": "Michelet Luce", "name:oc": "Michelet - L\u00facia", "public_transport": "stop_position", "source:name:oc": "ieo-bdtopoc"}}, {"type": "way", "id": 425990650, "nodes": [4253158349, 4253158355, 4253158482, 1701468437, 4253158351, 4253158350, 4253158349], "tags": {"bench": "yes", "bin": "no", "ferry": "yes", "floating": "yes", "lit": "no", "man_made": "pier", "name": "Pointe Rouge", "name:oc": "Poncha Roja", "public_transport": "platform", "shelter": "yes", "tactile_paving": "no"}}, {"type": "way", "id": 430637227, "nodes": [6581718952, 4299003006, 4299003005, 4299003004, 4299003003, 4299003002, 4299003001, 4299003000, 6581718951, 6581718952], "tags": {"access": "unknown", "area": "yes", "bench": "yes", "bin": "yes", "bus": "yes", "covered": "no", "foot": "yes", "lit": "yes", "motor_vehicle": "no", "name": "Madrague de Montredon", "name:oc": "Madraga dau Mont Redon", "parking": "lane", "public_transport": "platform", "source:name:oc": "ieo-bdtopoc", "tactile_paving": "no", "wheelchair": "limited"}}, {"type": "way", "id": 772165287, "nodes": [4299003006, 4299003005, 4299003004, 4299003003], "tags": {"bench": "yes", "bin": "yes", "bus": "yes", "highway": "platform", "lit": "no", "name": "Madrague de Montredon", "name:oc": "Madraga dau Mont Redon", "public_transport": "platform", "shelter": "yes", "source:name:oc": "ieo-bdtopoc", "tactile_paving": "no"}}, {"type": "relation", "id": 6408059, "members": [{"type": "node", "ref": 262633755, "role": "stop"}, {"type": "node", "ref": 1363933684, "role": "platform"}, {"type": "node", "ref": 262633751, "role": "stop"}, {"type": "node", "ref": 1363933665, "role": "platform"}], "tags": {"name": "Engali\u00e8re", "name:oc": "En Gali\u00e8ra", "network": "RTM", "operator": "R\u00e9gie des Transports M\u00e9tropolitains", "public_transport": "stop_area", "source:name:oc": "ieo-bdtopoc", "type": "public_transport"}}, {"type": "relation", "id": 6408061, "members": [{"type": "node", "ref": 30084491, "role": "stop"}, {"type": "node", "ref": 1439849873, "role": "platform"}, {"type": "node", "ref": 1439849872, "role": "stop"}, {"type": "node", "ref": 1439849870, "role": "platform"}], "tags": {"name": "Grotte Rolland", "name:oc": "Bauma Roland", "network": "RTM", "operator": "R\u00e9gie des Transports M\u00e9tropolitains", "public_transport": "stop_area", "source:name:oc": "ieo-bdtopoc", "type": "public_transport"}}, {"type": "relation", "id": 6408062, "members": [{"type": "node", "ref": 1363933673, "role": "stop"}, {"type": "node", "ref": 1363933685, "role": "platform"}, {"type": "node", "ref": 1363933695, "role": "stop"}, {"type": "node", "ref": 1363933658, "role": "platform"}, {"type": "node", "ref": 1492452525, "role": "platform"}, {"type": "node", "ref": 1492452526, "role": "stop"}, {"type": "node", "ref": 1492452527, "role": "stop"}, {"type": "node", "ref": 1492452528, "role": "platform"}], "tags": {"name": "Escale Bor\u00e9ly", "name:oc": "Escala Bor\u00e8li", "network": "RTM", "operator": "R\u00e9gie des Transports M\u00e9tropolitains", "public_transport": "stop_area", "source:name:oc": "ieo-bdtopoc", "type": "public_transport"}}, {"type": "relation", "id": 6408066, "members": [{"type": "node", "ref": 1363933655, "role": "platform"}, {"type": "node", "ref": 958315392, "role": "stop"}, {"type": "node", "ref": 1363933660, "role": "platform"}, {"type": "node", "ref": 1363933692, "role": "stop"}], "tags": {"name": "Bowl du Prado", "name:oc": "Bowl dau Prad\u00f2t", "network": "RTM", "operator": "R\u00e9gie des Transports M\u00e9tropolitains", "public_transport": "stop_area", "source:name:oc": "ieo-bdtopoc", "type": "public_transport"}}, {"type": "relation", "id": 6408067, "members": [{"type": "node", "ref": 1705213290, "role": "stop"}, {"type": "node", "ref": 1705213289, "role": "platform"}, {"type": "node", "ref": 1705213293, "role": "stop"}, {"type": "node", "ref": 1705213302, "role": "platform"}], "tags": {"name": "Madrague Lieutenant Moulin", "name:oc": "Lu\u00f2ctenent Molin", "network": "RTM", "operator": "R\u00e9gie des Transports M\u00e9tropolitains", "public_transport": "stop_area", "source:name:oc": "ieo-bdtopoc", "type": "public_transport"}}, {"type": "relation", "id": 6408068, "members": [{"type": "node", "ref": 1705213322, "role": "stop"}, {"type": "node", "ref": 1705213317, "role": "platform"}, {"type": "node", "ref": 1705213305, "role": "stop"}, {"type": "node", "ref": 1705213311, "role": "platform"}], "tags": {"name": "Madrague Mont-Rose", "name:oc": "Madraga - Mont R\u00f2se", "network": "RTM", "operator": "R\u00e9gie des Transports M\u00e9tropolitains", "public_transport": "stop_area", "source:name:oc": "ieo-bdtopoc", "type": "public_transport"}}, {"type": "relation", "id": 6408069, "members": [{"type": "node", "ref": 1363933669, "role": "stop"}, {"type": "node", "ref": 1363933675, "role": "platform"}], "tags": {"name": "Montredon Chancel", "name:oc": "Mont Redon - Chancel", "network": "RTM", "operator": "R\u00e9gie des Transports M\u00e9tropolitains", "public_transport": "stop_area", "source:name:oc": "ieo-bdtopoc", "type": "public_transport"}}, {"type": "relation", "id": 6408070, "members": [{"type": "node", "ref": 1439849875, "role": "stop"}, {"type": "node", "ref": 1439849876, "role": "platform"}], "tags": {"name": "Montredon Pastr\u00e9", "name:oc": "Mont Redon - Pastre", "network": "RTM", "operator": "R\u00e9gie des Transports M\u00e9tropolitains", "public_transport": "stop_area", "source:name:oc": "ieo-bdtopoc", "type": "public_transport"}}, {"type": "relation", "id": 6408071, "members": [{"type": "node", "ref": 673456814, "role": "stop"}, {"type": "node", "ref": 1439849878, "role": "platform"}, {"type": "node", "ref": 1429314945, "role": "stop"}, {"type": "node", "ref": 1429314947, "role": "platform"}], "tags": {"name": "Montredon Pastr\u00e9", "name:oc": "Mont Redon - Pastre", "network": "RTM", "operator": "R\u00e9gie des Transports M\u00e9tropolitains", "public_transport": "stop_area", "source:name:oc": "ieo-bdtopoc", "type": "public_transport"}}, {"type": "relation", "id": 6408072, "members": [{"type": "node", "ref": 33955464, "role": "stop"}, {"type": "node", "ref": 1363933674, "role": "platform"}, {"type": "node", "ref": 11121716157, "role": "stop"}, {"type": "node", "ref": 11118128794, "role": "platform"}], "tags": {"name": "Plage de l'Huveaune", "name:oc": "Platja de V\u00e8una", "network": "RTM", "operator": "R\u00e9gie des Transports M\u00e9tropolitains", "public_transport": "stop_area", "source:name:oc": "ieo-bdtopoc", "type": "public_transport"}}, {"type": "relation", "id": 6408073, "members": [{"type": "node", "ref": 1439849881, "role": "platform"}, {"type": "node", "ref": 4299001684, "role": "stop"}], "tags": {"name": "Pointe Rouge Port", "name:oc": "Poncha Roja P\u00f2rt", "network": "RTM", "operator": "R\u00e9gie des Transports M\u00e9tropolitains", "public_transport": "stop_area", "source:name:oc": "ieo-bdtopoc", "type": "public_transport"}}, {"type": "relation", "id": 6408074, "members": [{"type": "node", "ref": 4299003032, "role": ""}, {"type": "way", "ref": 425990650, "role": "platform"}, {"type": "node", "ref": 1701468437, "role": "stop"}], "tags": {"name": "Pointe Rouge", "name:oc": "Poncha Roja", "network": "RTM", "operator": "R\u00e9gie des Transports Marseillais", "public_transport": "stop_area", "source:name:oc": "ieo-bdtopoc", "type": "public_transport"}}, {"type": "relation", "id": 6408075, "members": [{"type": "node", "ref": 1363933687, "role": "stop"}, {"type": "node", "ref": 1363933690, "role": "platform"}, {"type": "node", "ref": 30084259, "role": "stop"}, {"type": "node", "ref": 1363933661, "role": "platform"}], "tags": {"name": "Pointe Rouge", "name:oc": "Poncha Roja", "network": "RTM", "operator": "R\u00e9gie des Transports M\u00e9tropolitains", "public_transport": "stop_area", "source:name:oc": "ieo-bdtopoc", "type": "public_transport"}}, {"type": "relation", "id": 6408077, "members": [{"type": "node", "ref": 1342678478, "role": "stop"}, {"type": "node", "ref": 814194450, "role": "platform"}, {"type": "node", "ref": 1342678483, "role": "stop"}, {"type": "node", "ref": 814194444, "role": "platform"}], "tags": {"name": "Sam\u00e9na", "name:oc": "Sant Menna", "network": "RTM", "operator": "R\u00e9gie des Transports M\u00e9tropolitains", "public_transport": "stop_area", "source:name:oc": "ieo-bdtopoc", "type": "public_transport"}}, {"type": "relation", "id": 6408078, "members": [{"type": "node", "ref": 1363933681, "role": "stop"}, {"type": "node", "ref": 1363933656, "role": "platform"}, {"type": "node", "ref": 1363933693, "role": "stop"}, {"type": "node", "ref": 1363933683, "role": "platform"}], "tags": {"name": "Tiboulen", "name:oc": "Tibolenc", "network": "RTM", "operator": "R\u00e9gie des Transports M\u00e9tropolitains", "public_transport": "stop_area", "source:name:oc": "ieo-bdtopoc", "type": "public_transport"}}, {"type": "relation", "id": 6408079, "members": [{"type": "node", "ref": 1705213326, "role": "stop"}, {"type": "node", "ref": 1705213331, "role": "platform"}, {"type": "node", "ref": 1705213341, "role": "stop"}, {"type": "node", "ref": 1705213336, "role": "platform"}], "tags": {"name": "Verrerie", "name:oc": "Veiriera", "network": "RTM", "operator": "R\u00e9gie des Transports M\u00e9tropolitains", "public_transport": "stop_area", "source:name:oc": "ieo-bdtopoc", "type": "public_transport"}}, {"type": "relation", "id": 6408080, "members": [{"type": "node", "ref": 33955477, "role": "stop"}, {"type": "node", "ref": 1363933662, "role": "platform"}, {"type": "node", "ref": 30084268, "role": "stop"}, {"type": "node", "ref": 1363933678, "role": "platform"}], "tags": {"name": "Vieille Chapelle", "name:oc": "Cap\u00e8la Vi\u00e8lha", "network": "RTM", "operator": "R\u00e9gie des Transports M\u00e9tropolitains", "public_transport": "stop_area", "source:name:oc": "ieo-bdtopoc", "type": "public_transport"}}, {"type": "relation", "id": 6425710, "members": [{"type": "node", "ref": 1347031795, "role": "platform"}, {"type": "node", "ref": 1347031718, "role": "stop"}, {"type": "node", "ref": 1334342124, "role": "platform"}, {"type": "node", "ref": 1781534076, "role": "stop"}, {"type": "node", "ref": 1781534075, "role": "platform"}, {"type": "node", "ref": 1347031761, "role": "stop"}, {"type": "node", "ref": 5913412985, "role": "platform"}, {"type": "node", "ref": 13452267059, "role": "platform"}, {"type": "node", "ref": 13452267060, "role": "stop"}], "tags": {"name": "Michelet Luce", "name:oc": "Michelet - L\u00facia", "network": "RTM", "operator": "R\u00e9gie des Transports M\u00e9tropolitains", "public_transport": "stop_area", "source:name:oc": "ieo-bdtopoc", "type": "public_transport"}}, {"type": "relation", "id": 6425712, "members": [{"type": "node", "ref": 1347031807, "role": "stop"}, {"type": "node", "ref": 1347031778, "role": "platform"}, {"type": "node", "ref": 1347031691, "role": "stop"}, {"type": "node", "ref": 1347031759, "role": "platform"}], "tags": {"name": "Michelet Taine", "name:oc": "Michelet - Taine", "network": "RTM", "operator": "R\u00e9gie des Transports M\u00e9tropolitains", "public_transport": "stop_area", "source:name:oc": "ieo-bdtopoc", "type": "public_transport"}}, {"type": "relation", "id": 20081115, "members": [{"type": "node", "ref": 1492452535, "role": "platform"}, {"type": "node", "ref": 1492452537, "role": "platform"}, {"type": "node", "ref": 1492452536, "role": "stop"}, {"type": "node", "ref": 793524838, "role": "stop"}, {"type": "node", "ref": 1347031570, "role": "platform"}, {"type": "node", "ref": 1347031700, "role": "stop"}, {"type": "node", "ref": 1347031756, "role": "stop"}, {"type": "node", "ref": 1347031724, "role": "platform"}], "tags": {"name": "Place Bonnefon", "name:oc": "Pla\u00e7a B\u00f2naf\u00f2nt", "network": "RTM", "operator": "R\u00e9gie des Transports M\u00e9tropolitains", "public_transport": "stop_area", "source:name:oc": "ieo-bdtopoc", "type": "public_transport"}}]}