{"version": 0.6, "generator": "Overpass API 0.7.62.8 e802775f", "osm3s": {"timestamp_osm_base": "2026-01-12T12:48:59Z", "copyright": "The data included in this document is from www.openstreetmap.org. The data is made available under ODbL."}, "elements": [{"type": "node", "id": 443612463, "lat": 13.0371728, "lon": 77.6409543, "tags": {"amenity": "hospital", "name": "Sri Vijayalakshmi Pragathi Hospital", "name:kn": "\u0cb6\u0ccd\u0cb0\u0cc0 \u0cb5\u0cbf\u0c9c\u0caf\u0cb2\u0c95\u0ccd\u0cb7\u0ccd\u0cae\u0cc0 \u0caa\u0ccd\u0cb0\u0c97\u0ca4\u0cbf \u0c86\u0cb8\u0ccd\u0caa\u0ca4\u0ccd\u0cb0\u0cc6"}}, {"type": "node", "id": 1988322107, "lat": 13.0834023, "lon": 77.6348642, "tags": {"amenity": "hospital", "name": "Dhanavantri Hospital", "name:kn": "\u0ca7\u0ca8\u0cb5\u0c82\u0ca4\u0ccd\u0cb0\u0cbf \u0c86\u0cb8\u0ccd\u0caa\u0ca4\u0ccd\u0cb0\u0cc6"}}, {"type": "node", "id": 4445179843, "lat": 13.0830463, "lon": 77.6347174, "tags": {"addr:city": "Bangalore", "addr:housenumber": "No.30", "addr:postcode": "560064", "addr:street": "Thanisandra Main Road, Chokkanahalli", "amenity": "hospital", "name": "Regal Hospital", "phone": "08033082383", "website": "https://regalhospital.com/"}}, {"type": "node", "id": 4544234694, "lat": 13.0957329, "lon": 77.6273067, "tags": {"addr:district": "Bengaluru Urban", "addr:full": "Agrahara Badavane, Bengaluru", "addr:postcode": "560064", "addr:state": "Karnataka", "amenity": "hospital", "name": "Agarahara Government Hospital", "name:kn": "\u0cb8\u0cb0\u0ccd\u0c95\u0cbe\u0cb0\u0cbf \u0c86\u0cb8\u0ccd\u0caa\u0ca4\u0ccd\u0cb0\u0cc6", "source": "Local Knowledge"}}, {"type": "node", "id": 5112189133, "lat": 13.0669233, "lon": 77.6393713}, {"type": "node", "id": 5112189134, "lat": 13.0669011, "lon": 77.639487}, {"type": "node", "id": 5112189135, "lat": 13.0667751, "lon": 77.6394615}, {"type": "node", "id": 5112189136, "lat": 13.0667973, "lon": 77.6393458}, {"type": "node", "id": 5966255497, "lat": 13.066842, "lon": 77.6390545, "tags": {"amenity": "hospital", "name": "Bangalore Prime Hospital"}}, {"type": "node", "id": 6938005237, "lat": 13.0370143, "lon": 77.6238732, "tags": {"addr:district": "Bengaluru Urban", "addr:full": "#978, 18Th Cross,14Th Main, 5Th Block, 1st Stage,H.B.R.Layout", "addr:postcode": "560043", "addr:state": "Karnataka", "amenity": "hospital", "name": "Sri Sai Hospital, Bengaluru Urban", "source": "OpenGovernmentData"}}, {"type": "node", "id": 6938695174, "lat": 13.0398217, "lon": 77.6230843, "tags": {"addr:district": "Bengaluru Urban", "addr:full": "Nagarwara", "addr:postcode": "560045", "addr:state": "Karnataka", "amenity": "hospital", "name": "J M J Hospital, Bengaluru Urban", "source": "OpenGovernmentData"}}, {"type": "node", "id": 6939311791, "lat": 13.0373572, "lon": 77.6409059, "tags": {"addr:district": "Bengaluru Urban", "addr:full": "#3/666, Hennur Bande,Hennur Main Road, Kalayan Nagar Post,International Link Road", "addr:postcode": "560043", "addr:state": "Karnataka", "amenity": "hospital", "name": "Shree Vijayalakshmi Hospital and Trauma Centre", "source": "OpenGovernmentData"}}, {"type": "node", "id": 6944231456, "lat": 13.0555559, "lon": 77.6517145, "tags": {"addr:district": "Bengaluru Urban", "addr:full": "85 Byrathi, Hennur Main Road,Near Kothnur Police Station", "addr:postcode": "560077", "addr:state": "Karnataka", "amenity": "hospital", "name": "Medi Derma Hospital", "source": "OpenGovernmentData"}}, {"type": "node", "id": 7213498681, "lat": 13.0701337, "lon": 77.6329103, "tags": {"addr:district": "Bengaluru Urban", "addr:full": "Sri Balaji Krupa Layout", "addr:postcode": "560077", "addr:state": "Karnataka", "amenity": "hospital", "name": "Sai Hospital", "source": "OpenGovernmentData"}}, {"type": "node", "id": 7579683193, "lat": 13.120977, "lon": 77.6176084, "tags": {"addr:district": "Bengaluru Urban", "addr:full": "Dwarka Nagar, Bengaluru", "addr:postcode": "560064", "addr:state": "Karnataka", "amenity": "hospital", "name": "Valens Hospitals", "source": "Local Knowledge"}}, {"type": "node", "id": 7579683213, "lat": 13.102578, "lon": 77.627895, "tags": {"addr:district": "Bengaluru Urban", "addr:full": "Agrahara Badavane, Bengaluru", "addr:postcode": "560064", "addr:state": "Karnataka", "amenity": "hospital", "name": "Amruth Hospital", "name:kn": "\u0c85\u0cae\u0cc3\u0ca4 \u0c86\u0cb8\u0ccd\u0caa\u0ca4\u0ccd\u0cb0\u0cc6", "source": "Local Knowledge"}}, {"type": "node", "id": 7579683217, "lat": 13.121743, "lon": 77.629478, "tags": {"addr:district": "Bengaluru Urban", "addr:full": "Saralaya Layout, Kattigenahalli, Bengaluru", "addr:postcode": "560064", "addr:state": "Karnataka", "amenity": "hospital", "name": "Saralaya Hospital", "source": "Local Knowledge"}}, {"type": "node", "id": 7579683225, "lat": 13.1025229, "lon": 77.6278506, "tags": {"addr:district": "Bengaluru Urban", "addr:full": "Kogilu Layout, Srinivaspur, Bengaluru", "addr:postcode": "560064", "addr:state": "Karnataka", "amenity": "hospital", "name": "Shadab Hospital", "source": "Local Knowledge"}}, {"type": "node", "id": 7579683240, "lat": 13.1215659, "lon": 77.6250507, "tags": {"addr:district": "Bengaluru Urban", "addr:full": "Kattigenahalli, Bengaluru", "addr:postcode": "560064", "addr:state": "Karnataka", "amenity": "hospital", "name": "Sri Arogya Hospital", "source": "Local Knowledge"}}, {"type": "node", "id": 7579683247, "lat": 13.1213668, "lon": 77.6174817, "tags": {"addr:district": "Bengaluru Urban", "addr:full": "Bagalur Main Road, Vinayak Nagar, Kattigenahalli, Bengaluru", "addr:postcode": "560064", "addr:state": "Karnataka", "amenity": "hospital", "name": "Sapthagiri Hospital", "source": "Local Knowledge"}}, {"type": "node", "id": 7579683258, "lat": 13.1026581, "lon": 77.6297932, "tags": {"addr:district": "Bengaluru Urban", "addr:full": "Kogilu Layout, Srinivaspur, Bengaluru", "addr:postcode": "560064", "addr:state": "Karnataka", "amenity": "hospital", "name": "Varsha Hospital", "source": "Local Knowledge"}}, {"type": "node", "id": 9527967835, "lat": 13.0544507, "lon": 77.6316369, "tags": {"amenity": "hospital", "name": "Shree Manyata Hospitals"}}, {"type": "node", "id": 10310592617, "lat": 13.0970149, "lon": 77.6473961}, {"type": "node", "id": 10688570445, "lat": 13.0398699, "lon": 77.6405164}, {"type": "node", "id": 10688570446, "lat": 13.0398782, "lon": 77.6408677}, {"type": "node", "id": 10688570448, "lat": 13.0404638, "lon": 77.6405016}, {"type": "node", "id": 10731125349, "lat": 13.048083, "lon": 77.628791, "tags": {"amenity": "hospital", "name": "Suraksha Hospital"}}, {"type": "node", "id": 10866713099, "lat": 13.0974777, "lon": 77.6481082}, {"type": "node", "id": 10866713100, "lat": 13.097691, "lon": 77.6475458}, {"type": "node", "id": 10866713101, "lat": 13.0968569, "lon": 77.6478758}, {"type": "node", "id": 12848276816, "lat": 13.0404721, "lon": 77.6408529}, {"type": "node", "id": 13119704697, "lat": 13.1150719, "lon": 77.6337691}, {"type": "node", "id": 13119704698, "lat": 13.1150331, "lon": 77.6340479}, {"type": "node", "id": 13119704699, "lat": 13.1152061, "lon": 77.6340733}, {"type": "node", "id": 13119704700, "lat": 13.1152449, "lon": 77.6337945}, {"type": "way", "id": 525508983, "nodes": [5112189133, 5112189134, 5112189135, 5112189136, 5112189133], "tags": {"amenity": "hospital", "emergency": "yes", "name": "Shirdi Sai Hospital", "name:kn": "\u0cb6\u0cbf\u0cb0\u0ca1\u0cbf \u0cb8\u0cbe\u0caf\u0cbf \u0c86\u0cb8\u0ccd\u0caa\u0ca4\u0ccd\u0cb0\u0cc6"}}, {"type": "way", "id": 1148876100, "nodes": [12848276816, 10688570446, 10688570445, 10688570448, 12848276816], "tags": {"amenity": "hospital", "building": "hospital", "building:levels": "7", "building:levels:underground": "3", "height": "29.85", "name": "Sparsh Hospital, Hennur", "operator": "Sparsh Hospital"}}, {"type": "way", "id": 1168448945, "nodes": [10866713099, 10866713100, 10310592617, 10866713101, 10866713099], "tags": {"addr:city": "Bengaluru", "addr:postcode": "562149", "addr:street": "Kannuru Main Road, Mitganahalli, Bellahalli", "amenity": "hospital", "healthcare": "hospital", "name": "Government Primary Health Centre", "name:kn": "\u0cb8\u0cb0\u0ccd\u0c95\u0cbe\u0cb0\u0cbf \u0caa\u0ccd\u0cb0\u0cbe\u0ca5\u0cae\u0cbf\u0c95 \u0c86\u0cb0\u0ccb\u0c97\u0ccd\u0caf \u0c95\u0cc7\u0c82\u0ca6\u0ccd\u0cb0", "operator": "Health and Family Welfare Development", "operator:type": "government"}}, {"type": "way", "id": 1427144679, "nodes": [13119704700, 13119704699, 13119704698, 13119704697, 13119704700], "tags": {"amenity": "hospital", "building": "hospital", "name": "Apex Hospital"}}]}