{"version": 0.6, "generator": "Overpass API 0.7.62.8 e802775f", "osm3s": {"timestamp_osm_base": "2026-01-11T11:17:00Z", "copyright": "The data included in this document is from www.openstreetmap.org. The data is made available under ODbL."}, "elements": [{"type": "node", "id": 357636307, "lat": 42.0910732, "lon": -78.4263673}, {"type": "node", "id": 5384919540, "lat": 42.0887245, "lon": -78.4274885}, {"type": "node", "id": 5384919541, "lat": 42.0887245, "lon": -78.4275475}, {"type": "node", "id": 5384919542, "lat": 42.0895625, "lon": -78.4293714}, {"type": "node", "id": 5384919543, "lat": 42.0912783, "lon": -78.4289289}, {"type": "node", "id": 5384919544, "lat": 42.0920983, "lon": -78.4285828}, {"type": "node", "id": 5384919545, "lat": 42.091742, "lon": -78.4272417}, {"type": "node", "id": 5384919546, "lat": 42.0913579, "lon": -78.4274054}, {"type": "node", "id": 5384919547, "lat": 42.0887444, "lon": -78.4274215}, {"type": "node", "id": 10969941515, "lat": 42.0890643, "lon": -78.4272879}, {"type": "node", "id": 10969941516, "lat": 42.088771, "lon": -78.4273967}, {"type": "way", "id": 558397289, "nodes": [5384919547, 10969941516, 10969941515, 357636307, 5384919546, 5384919545, 5384919544, 5384919543, 5384919542, 5384919541, 5384919540, 5384919547], "tags": {"addr:city": "Olean", "addr:housenumber": "515", "addr:postcode": "14760", "addr:state": "NY", "addr:street": "Main Street", "amenity": "hospital", "beds": "186", "emergency": "yes", "gnis:feature_id": "2376038", "healthcare": "hospital", "name": "Olean General Hospital", "nysgissam:nysaddresspointid": "CATT035615", "opening_hours": "24/7", "operator": "Kaleida Health", "phone": "+1 716 373 2600", "short_name": "OGH", "website": "https://www.ogh.org/", "wikidata": "Q7085963", "wikipedia": "en:Olean General Hospital"}}]}