{"version": 0.6, "generator": "Overpass API 0.7.62.8 e802775f", "osm3s": {"timestamp_osm_base": "2026-01-12T06:06:02Z", "copyright": "The data included in this document is from www.openstreetmap.org. The data is made available under ODbL."}, "elements": [{"type": "node", "id": 308811614, "lat": 12.9787682, "lon": 80.1846471, "tags": {"addr:block": "Tambaram Mpty", "addr:city": "Chennai", "addr:district": "Kanchipuram", "addr:full": "Near By Ranga Theatre, Chennai, 100 Feet Road, Hinducolony, Nanagnanllur", "addr:postcode": "603209", "addr:state": "Tamil Nadu", "amenity": "hospital", "healthcare": "hospital", "name": "Hindu Mission Health Services, Kanchipuram", "source": "OpenGovernmentData"}}, {"type": "node", "id": 310909754, "lat": 12.9847145, "lon": 80.1905906, "tags": {"addr:district": "Chennai", "addr:full": "24 and 26, 'Swathi', 29 Th Street", "addr:postcode": "600061", "addr:state": "Tamil Nadu", "addr:subdistrict": "Nanganallur", "amenity": "hospital", "email": "info@hariharanhospitals.com", "healthcare": "hospital", "name": "Hariharan Hospital", "operator:type": "private", "source": "OpenGovernmentData", "website": "http://hariharanhospitals.com/"}}, {"type": "node", "id": 310910945, "lat": 12.9887616, "lon": 80.1904116, "tags": {"addr:street": "5th Main Road", "amenity": "hospital", "healthcare": "hospital", "name": "BM Hospital", "phone": "044-22670277", "website": "https://bmhospitals.com/", "wheelchair": "limited"}}, {"type": "node", "id": 311429396, "lat": 12.973463, "lon": 80.1841397, "tags": {"addr:district": "Kanchipuram", "addr:full": "5, Sarwamangala Nagar, Nanganallur", "addr:postcode": "600061", "addr:state": "Tamil Nadu", "amenity": "hospital", "healthcare": "hospital", "name": "K.F. Hospital", "source": "OpenGovernmentData"}}, {"type": "node", "id": 367795605, "lat": 13.0122733, "lon": 80.196428, "tags": {"addr:district": "Kanchipuram", "addr:full": "No. 5, 105, Defence Colony 1st Ave, Seven Wells, St.Thomas Mount", "addr:postcode": "600016", "addr:state": "Tamil Nadu", "amenity": "hospital", "healthcare": "hospital", "name": "St. Thomas Hospital", "source": "OpenGovernmentData"}}, {"type": "node", "id": 370495279, "lat": 13.0093121, "lon": 80.1948437}, {"type": "node", "id": 370495280, "lat": 13.0094878, "lon": 80.1948437}, {"type": "node", "id": 370495281, "lat": 13.0095212, "lon": 80.1946205}, {"type": "node", "id": 370495282, "lat": 13.009839, "lon": 80.1946291}, {"type": "node", "id": 370495283, "lat": 13.0098094, "lon": 80.1954082}, {"type": "node", "id": 370495284, "lat": 13.0093707, "lon": 80.195399}, {"type": "node", "id": 370967673, "lat": 13.009781, "lon": 80.1949734, "tags": {"amenity": "hospital", "healthcare": "hospital"}}, {"type": "node", "id": 442508332, "lat": 12.9653846, "lon": 80.2067733, "tags": {"amenity": "hospital", "healthcare": "hospital", "name": "Sarswathi Hospital", "wheelchair": "yes"}}, {"type": "node", "id": 559841171, "lat": 12.9459103, "lon": 80.136846}, {"type": "node", "id": 559841172, "lat": 12.946056, "lon": 80.1365496}, {"type": "node", "id": 559841173, "lat": 12.9462397, "lon": 80.1366447}, {"type": "node", "id": 559841174, "lat": 12.9463763, "lon": 80.1367566}, {"type": "node", "id": 559841175, "lat": 12.9465514, "lon": 80.1369008}, {"type": "node", "id": 559841177, "lat": 12.9460939, "lon": 80.1369411}, {"type": "node", "id": 559841178, "lat": 12.946184, "lon": 80.1370863}, {"type": "node", "id": 559841179, "lat": 12.9463694, "lon": 80.1372064}, {"type": "node", "id": 591555028, "lat": 12.9447938, "lon": 80.1405596, "tags": {"amenity": "hospital", "healthcare": "hospital", "name": "skandan nursing home"}}, {"type": "node", "id": 1789987574, "lat": 12.9799192, "lon": 80.2044922, "tags": {"addr:street": "44, Shakti Nagar Main Road, Adambakkam, Balaji Nagar, Adambakkam, Chennai, Tamil Nadu 600088", "amenity": "hospital", "healthcare": "hospital", "name": "Prime Care Nursing Home"}}, {"type": "node", "id": 1905763222, "lat": 12.9534134, "lon": 80.1395627}, {"type": "node", "id": 1905763231, "lat": 12.9549427, "lon": 80.1400408}, {"type": "node", "id": 1905763233, "lat": 12.9550487, "lon": 80.1398017}, {"type": "node", "id": 1905763234, "lat": 12.9554426, "lon": 80.1399061}, {"type": "node", "id": 1905763239, "lat": 12.9557307, "lon": 80.1394887}, {"type": "node", "id": 1905763242, "lat": 12.9559129, "lon": 80.1395887}, {"type": "node", "id": 1905763246, "lat": 12.956129, "lon": 80.1389062}, {"type": "node", "id": 1979247767, "lat": 12.9730642, "lon": 80.1339663, "tags": {"addr:district": "Kanchipuram", "addr:full": "Plot No.6, Gokulam Colony, Anna Salai, Pammal, Kanchepuram", "addr:postcode": "600075", "addr:state": "Tamil Nadu", "amenity": "hospital", "emergency": "yes", "healthcare": "hospital", "name": "B.P. Jain Hospital (Sri Sankara Health Centre)", "source": "OpenGovernmentData"}}, {"type": "node", "id": 2086712439, "lat": 12.9559409, "lon": 80.1855637, "tags": {"amenity": "hospital", "healthcare": "hospital"}}, {"type": "node", "id": 2120763195, "lat": 12.9933638, "lon": 80.2009134, "tags": {"addr:district": "Kanchipuram", "addr:full": "No 11, Vellalar 1st Street, Adambakkam", "addr:postcode": "600088", "addr:state": "Tamil Nadu", "amenity": "hospital", "emergency": "yes", "healthcare": "hospital", "name": "SP Hospital", "source": "OpenGovernmentData"}}, {"type": "node", "id": 2126461371, "lat": 12.9837958, "lon": 80.1932105, "tags": {"addr:district": "Chennai", "addr:full": "No. 13, 7Th Street,Nanganallur", "addr:postcode": "600001", "addr:state": "Tamil Nadu", "amenity": "hospital", "healthcare": "hospital", "name": "Rotary Central Margaret Sidney Hospital", "source": "OpenGovernmentData"}}, {"type": "node", "id": 2145405955, "lat": 12.9786524, "lon": 80.1850278, "tags": {"addr:city": "Chennai", "amenity": "hospital", "healthcare": "hospital", "name": "Sri Chakra Hospital"}}, {"type": "node", "id": 2253361647, "lat": 12.9842586, "lon": 80.1886083, "tags": {"amenity": "hospital", "healthcare": "hospital", "name": "Dr. Janardhanan Multispeciality Dental Clinic"}}, {"type": "node", "id": 2299085689, "lat": 12.9772356, "lon": 80.1884063}, {"type": "node", "id": 2299085690, "lat": 12.9775289, "lon": 80.1884332}, {"type": "node", "id": 2299085691, "lat": 12.9775414, "lon": 80.1882459}, {"type": "node", "id": 2299085692, "lat": 12.9772853, "lon": 80.1882325}, {"type": "node", "id": 2517035814, "lat": 12.9658002, "lon": 80.191882, "tags": {"addr:district": "Kanchipuram", "addr:full": "No: 683/5, Mahalingam Street ( Near Sbi ) Madipakkam", "addr:postcode": "600091", "addr:state": "Tamil Nadu", "amenity": "hospital", "healthcare": "hospital", "name": "Vasan Eye care", "source": "OpenGovernmentData"}}, {"type": "node", "id": 2669702938, "lat": 12.9710287, "lon": 80.2082964, "tags": {"addr:city": "Chennai", "addr:housename": "Sukrthi Nursing Home", "addr:housenumber": "21", "addr:postcode": "600091", "addr:street": "Mullai Street", "amenity": "hospital", "emergency": "yes", "healthcare": "hospital", "name": "Sukrthi Nursing Home"}}, {"type": "node", "id": 3602354635, "lat": 13.0073187, "lon": 80.2059344}, {"type": "node", "id": 3602354636, "lat": 13.0073406, "lon": 80.2062443}, {"type": "node", "id": 3602354643, "lat": 13.0074229, "lon": 80.2059262}, {"type": "node", "id": 3602354648, "lat": 13.0074851, "lon": 80.2062398}, {"type": "node", "id": 3602473678, "lat": 12.9615714, "lon": 80.1468902}, {"type": "node", "id": 3602473679, "lat": 12.961703, "lon": 80.1469834}, {"type": "node", "id": 3602473682, "lat": 12.9618824, "lon": 80.1464168}, {"type": "node", "id": 3602473688, "lat": 12.9620003, "lon": 80.1464888}, {"type": "node", "id": 3606874346, "lat": 12.9855188, "lon": 80.2183753}, {"type": "node", "id": 3606874348, "lat": 12.9855221, "lon": 80.2184829}, {"type": "node", "id": 3606874517, "lat": 12.9856513, "lon": 80.2182846}, {"type": "node", "id": 3606874518, "lat": 12.985654, "lon": 80.2183709}, {"type": "node", "id": 3606874531, "lat": 12.9857021, "lon": 80.2182829}, {"type": "node", "id": 3606874533, "lat": 12.985708, "lon": 80.2184769}, {"type": "node", "id": 3683910119, "lat": 12.9808674, "lon": 80.1871242}, {"type": "node", "id": 3683910120, "lat": 12.9808749, "lon": 80.1871549}, {"type": "node", "id": 3683910121, "lat": 12.9809103, "lon": 80.1870668}, {"type": "node", "id": 3683910122, "lat": 12.9810196, "lon": 80.1871618}, {"type": "node", "id": 3683910123, "lat": 12.9810232, "lon": 80.1870716}, {"type": "node", "id": 3687685030, "lat": 12.9764429, "lon": 80.2221405}, {"type": "node", "id": 3687685031, "lat": 12.976479, "lon": 80.2221924}, {"type": "node", "id": 3687685032, "lat": 12.976426, "lon": 80.2222414}, {"type": "node", "id": 3687685033, "lat": 12.9763889, "lon": 80.222185}, {"type": "node", "id": 3687685034, "lat": 12.9764202, "lon": 80.2221583}, {"type": "node", "id": 3687711447, "lat": 12.9767775, "lon": 80.2223505, "tags": {"amenity": "hospital", "healthcare": "hospital", "name": "Kaya Skin clinic"}}, {"type": "node", "id": 3755137037, "lat": 12.9496755, "lon": 80.2085052}, {"type": "node", "id": 3755137038, "lat": 12.9494353, "lon": 80.2099965}, {"type": "node", "id": 3755137039, "lat": 12.9487987, "lon": 80.2097161}, {"type": "node", "id": 3755137040, "lat": 12.9489098, "lon": 80.2083204}, {"type": "node", "id": 3876121221, "lat": 12.9493365, "lon": 80.209953}, {"type": "node", "id": 4329387869, "lat": 12.9733792, "lon": 80.187599, "tags": {"addr:city": "nanganallur", "addr:district": "Kanchipuram", "addr:full": "11/77, Voltas Colony,6Th Street Nanganallur- 61", "addr:housenumber": "11/77", "addr:postcode": "600061", "addr:state": "Tamil Nadu", "addr:street": "6th street,voltas colony", "amenity": "hospital", "emergency": "yes", "healthcare": "hospital", "name": "Srinivasan Rajalakshmi Memorial Hospital", "operator": "Dr. S.Krishnan , MD.RT, Dr. Mrs. P. Radha [MD]", "operator:type": "private", "phone": "+91 98401 17136, +91 44 4504 6010", "source": "OpenGovernmentData", "wheelchair": "yes"}}, {"type": "node", "id": 4644225942, "lat": 13.0074492, "lon": 80.2059613}, {"type": "node", "id": 4644225943, "lat": 13.0074515, "lon": 80.2060549}, {"type": "node", "id": 4644225944, "lat": 13.007469, "lon": 80.206071}, {"type": "node", "id": 4644225945, "lat": 13.0074809, "lon": 80.2061687}, {"type": "node", "id": 4644225946, "lat": 13.0074635, "lon": 80.2061644}, {"type": "node", "id": 4644225947, "lat": 13.0074607, "lon": 80.2061424}, {"type": "node", "id": 4644225948, "lat": 13.0074764, "lon": 80.2061364}, {"type": "node", "id": 5792664046, "lat": 12.9794, "lon": 80.2043658, "tags": {"addr:street": "68, 18th St, Balaji Nagar Extn-II, Vanuvampet, Madipakkam, Chennai, Tamil Nadu 600088", "amenity": "hospital", "healthcare": "hospital", "name": "Qure Ortho Clinic, Physiotherapy, X Ray & Pharmacy", "opening_hours": "Mo-Su 08:00-22:00", "phone": "095000 06644"}}, {"type": "node", "id": 5988132878, "lat": 12.9488105, "lon": 80.2095679}, {"type": "node", "id": 6853185490, "lat": 12.954176, "lon": 80.1366628}, {"type": "node", "id": 6914764645, "lat": 12.9439622, "lon": 80.1388438, "tags": {"addr:district": "Kanchipuram", "addr:full": "No.13/6,Patel Street,Nehru Nagar, (OppositeVarasidhi Vinayagar Koli), Chromepet Chennai", "addr:postcode": "600044", "addr:state": "Tamil Nadu", "amenity": "hospital", "healthcare": "hospital", "name": "Dr. A. L. Annamalais Ent Care Centre", "source": "OpenGovernmentData"}}, {"type": "node", "id": 6914767985, "lat": 12.9504411, "lon": 80.1438314, "tags": {"addr:district": "Kanchipuram", "addr:full": "A.G Trust, No. 2, Bharathi Street,Radha Nagar,Chrompet,Chennai", "addr:postcode": "600044", "addr:state": "Tamil Nadu", "amenity": "hospital", "healthcare": "hospital", "name": "A G Chrompet Health And Maternity Centre", "source": "OpenGovernmentData"}}, {"type": "node", "id": 6914880539, "lat": 12.9789449, "lon": 80.2246302, "tags": {"addr:district": "Chennai", "addr:full": "No 6 12Th Cross Steet Dhandeeswaram Nagar Velachery", "addr:postcode": "600042", "addr:state": "Tamil Nadu", "amenity": "hospital", "healthcare": "hospital", "name": "Chennai Eye Care Hospital", "source": "OpenGovernmentData"}}, {"type": "node", "id": 6915201226, "lat": 12.9855882, "lon": 80.2189144, "tags": {"addr:district": "Chennai", "addr:full": "No.39, Rajalakhsmi Nagar", "addr:postcode": "600042", "addr:state": "Tamil Nadu", "amenity": "hospital", "healthcare": "hospital", "name": "Helios Hospital Pvt Ltd", "source": "OpenGovernmentData"}}, {"type": "node", "id": 6915207418, "lat": 12.9558311, "lon": 80.1381424}, {"type": "node", "id": 6915231638, "lat": 12.971439, "lon": 80.1378152, "tags": {"addr:district": "Kanchipuram", "addr:full": "No.19, 4Th Cross Street, Krishna Nagar, Pammal, Chennai", "addr:postcode": "600075", "addr:state": "Tamil Nadu", "amenity": "hospital", "healthcare": "hospital", "name": "Devibala Maternity", "source": "OpenGovernmentData"}}, {"type": "node", "id": 6916036803, "lat": 12.9644392, "lon": 80.187601, "tags": {"addr:district": "Kanchipuram", "addr:full": "No. 20, Medavakkam Main Road, Madipakkam", "addr:postcode": "600091", "addr:state": "Tamil Nadu", "addr:street": "Mount - Medavakkam Road", "amenity": "hospital", "healthcare": "hospital", "name": "Divya Hospital", "source": "OpenGovernmentData", "website": "http://chennaipregnancycare.blogspot.com/"}}, {"type": "node", "id": 6926049961, "lat": 12.9779713, "lon": 80.1883923, "tags": {"addr:district": "Kanchipuram", "addr:full": "18, 6Th Street Lakshmi Nagar, Nanganallur Chennai", "addr:postcode": "600061", "addr:state": "Tamil Nadu", "amenity": "hospital", "healthcare": "hospital", "name": "Gowri Nursing Home, Kanchipuram", "source": "OpenGovernmentData"}}, {"type": "node", "id": 6926082101, "lat": 12.943659, "lon": 80.1437791, "tags": {"addr:district": "Kanchipuram", "addr:full": "29/20, Hanumar Koil Street, Radha Nagar, Chromepet, Chennai", "addr:postcode": "600044", "addr:state": "Tamil Nadu", "amenity": "hospital", "healthcare": "hospital", "name": "I Care Eye Care Eye Institute", "source": "OpenGovernmentData"}}, {"type": "node", "id": 6926173267, "lat": 13.0012687, "lon": 80.2001283, "tags": {"addr:district": "Kanchipuram", "addr:full": "Ii Gst Road, St. Thomas Mount", "addr:postcode": "600016", "addr:state": "Tamil Nadu", "amenity": "hospital", "healthcare": "hospital", "name": "Cu Shah Sankara Netralaya", "source": "OpenGovernmentData"}}, {"type": "node", "id": 6926437476, "lat": 12.9569773, "lon": 80.1867561, "tags": {"addr:district": "Kanchipuram", "addr:full": "No.56 Medavaakkam Main Raod Keelkattalai", "addr:postcode": "600045", "addr:state": "Tamil Nadu", "amenity": "hospital", "healthcare": "hospital", "name": "Grace Multipeciality Hospital", "source": "OpenGovernmentData"}}, {"type": "node", "id": 6926494055, "lat": 12.9952982, "lon": 80.2068955, "tags": {"addr:district": "Chennai", "addr:full": "#12/6, City Link Road, Near NGO Colony Bus Stand", "addr:postcode": "600088", "addr:state": "Tamil Nadu", "addr:subdistrict": "Adambakkam", "amenity": "hospital", "email": "grhospital@gmail.com", "healthcare": "hospital", "name": "G. R. Hospital & Fertility Centre", "operator:type": "private", "source": "OpenGovernmentData", "website": "http://www.grfertilitycentre.com/"}}, {"type": "node", "id": 6926953024, "lat": 12.9911179, "lon": 80.1986745, "tags": {"addr:district": "Kanchipuram", "addr:full": "No 3, Near Jayalakshmi Cinema Hall & St Thomas Mount Railway Station, Medavakkam Main Road, Adambakkam, Chennai - 600088", "addr:postcode": "600088", "addr:state": "Tamil Nadu", "amenity": "hospital", "healthcare": "hospital", "name": "K P Childrens Hospital And Neuro Centre", "source": "OpenGovernmentData"}}, {"type": "node", "id": 6928094720, "lat": 12.9762711, "lon": 80.2222002, "tags": {"addr:district": "Chennai", "addr:full": "No.-4, 100 Feet Road, Tansi Nagar, Velachery", "addr:postcode": "600042", "addr:state": "Tamil Nadu", "amenity": "hospital", "healthcare": "hospital", "name": "Athipathi Hospital and Research Centre", "source": "OpenGovernmentData"}}, {"type": "node", "id": 6928936148, "lat": 12.9832366, "lon": 80.217509, "tags": {"addr:district": "Chennai", "addr:full": "27, 100 Feet Road, Taramani Link Road, Velacherry", "addr:postcode": "600042", "addr:state": "Tamil Nadu", "amenity": "hospital", "healthcare": "hospital", "name": "Dr.Agarwals Eye Hospital - Velacherry", "operator": "Dr. Agarwal's Eye Hospital", "operator:type": "private", "operator:wikidata": "Q17052044", "source": "OpenGovernmentData"}}, {"type": "node", "id": 6928936149, "lat": 12.9827844, "lon": 80.1891661, "tags": {"addr:city": "Chennai", "addr:district": "Kanchipuram", "addr:full": "Ophthalmology Department, Margaret Sydney Hospital, 13,2nd Street, Nanganallur", "addr:postcode": "600061", "addr:state": "Tamil Nadu", "amenity": "hospital", "healthcare": "hospital", "name": "Dr.Agarwal's Eye Hospital Ltd, Nanganallur", "source": "OpenGovernmentData"}}, {"type": "node", "id": 6929359056, "lat": 12.9646856, "lon": 80.1522294, "tags": {"addr:district": "Vellore", "addr:full": "No.41, Dharga Road,Pallavaram", "addr:postcode": "632001", "addr:state": "Tamil Nadu", "amenity": "hospital", "healthcare": "hospital", "name": "B.M. Silver Jubilee Multi Speciality Hospital", "source": "OpenGovernmentData"}}, {"type": "node", "id": 6929372896, "lat": 12.9823277, "lon": 80.1937835, "tags": {"addr:district": "Chennai", "addr:full": "72, I Main Road,Naganallur", "addr:housenumber": "72", "addr:postcode": "600061", "addr:state": "Tamil Nadu", "addr:street": "Nanganallur 1st Main Road", "amenity": "hospital", "healthcare": "hospital", "name": "Bharath Hospital", "opening_hours": "24/7", "phone": "+91 44 2224 6481;+91 44 2224 6789;+91 98419 72378", "source": "OpenGovernmentData", "website": "http://www.bharathhospital.in"}}, {"type": "node", "id": 6929625900, "lat": 12.9343227, "lon": 80.1384374, "tags": {"addr:block": "Tambaram Mpty", "addr:district": "Kanchipuram", "addr:full": "Chitlapakkam 3Rd Main Rd, State Bank Of India Colony, Chitlapakkam", "addr:postcode": "600064", "addr:state": "Tamil Nadu", "amenity": "hospital", "healthcare": "hospital", "name": "B.S. Hospital", "source": "OpenGovernmentData"}}, {"type": "node", "id": 6933510862, "lat": 12.9548325, "lon": 80.141636, "tags": {"addr:district": "Kanchipuram", "addr:full": "No-26, Pammal Mn Road ,Muthamizh Ngr,Pammal , Chennai", "addr:postcode": "600074", "addr:state": "Tamil Nadu", "amenity": "hospital", "healthcare": "hospital", "name": "Jip Diabetic and Heart Care Centre", "source": "OpenGovernmentData"}}, {"type": "node", "id": 6934031649, "lat": 12.9652266, "lon": 80.1927643, "tags": {"addr:district": "Kanchipuram", "addr:full": "#.39, Sabari Salai,Madipakkam", "addr:postcode": "600091", "addr:state": "Tamil Nadu", "amenity": "hospital", "healthcare": "hospital", "name": "Sri G.M. Hospital", "source": "OpenGovernmentData"}}, {"type": "node", "id": 6934061609, "lat": 12.97853, "lon": 80.1851381, "tags": {"addr:district": "Kancheepuram", "addr:full": "Chennai, No 1 Civil Aviation Colony, 100 Feet Road, Nanganallur", "addr:postcode": "600061", "addr:state": "Tamil Nadu", "addr:subdistrict": "Tambaram", "amenity": "hospital", "healthcare": "hospital", "name": "Srichakara Multispeciality Hospital", "source": "OpenGovernmentData"}}, {"type": "node", "id": 6934139598, "lat": 12.9731392, "lon": 80.1371252, "tags": {"addr:district": "Kanchipuram", "addr:full": "No. 1, Ganesan Street, (Pammal Main Road) Krishna Nagar, Pammal", "addr:postcode": "600075", "addr:state": "Tamil Nadu", "amenity": "hospital", "healthcare": "hospital", "name": "Arvind Sai Eye Hospital", "source": "OpenGovernmentData"}}, {"type": "node", "id": 6934163318, "lat": 12.9697917, "lon": 80.1904562, "tags": {"addr:district": "Kanchipuram", "addr:full": "Plot No. 5, Medavakkam Main Road, , Madipakkam,Near Madipakkam Koot Oad", "addr:postcode": "600091", "addr:state": "Tamil Nadu", "amenity": "hospital", "healthcare": "hospital", "name": "Sibi Hospital", "source": "OpenGovernmentData"}}, {"type": "node", "id": 6934186203, "lat": 12.9857914, "lon": 80.185987, "tags": {"addr:district": "Chennai", "addr:full": "No.1, 47th Street, 5th Main Road", "addr:postcode": "600 061", "addr:state": "Tamil Nadu", "addr:subdistrict": "Nanganallur", "amenity": "hospital", "email": "info@cmhospital.in", "healthcare": "hospital", "name": "Sri Venkateshwara`s C.M. Hospital", "operator:type": "private", "source": "OpenGovernmentData", "website": "https://cmhospital.in/"}}, {"type": "node", "id": 6934270989, "lat": 12.9637407, "lon": 80.1880047, "tags": {"addr:city": "Chennai", "addr:district": "Kanchipuram", "addr:full": "#23, Medavakkam Main Road ,Near K.K.Mahal ,Madipakkam", "addr:housenumber": "23", "addr:postcode": "600091", "addr:state": "Tamil Nadu", "addr:street": "Mount - Medavakkam Road", "amenity": "hospital", "email": "anjakha@yahoo.co.in", "healthcare": "hospital", "healthcare:speciality": "multi_speciality", "name": "Anjakha Hospital", "name:ta": "\u0b85\u0b9e\u0bcd\u0b9a\u0b95\u0bbe \u0bae\u0bb0\u0bc1\u0ba4\u0bcd\u0ba4\u0bc1\u0bb5\u0bae\u0ba9\u0bc8", "phone": "+91 44 2247 0405;+91 44 2247 0406", "source": "OpenGovernmentData", "website": "https://anjakhahospitals.com/"}}, {"type": "node", "id": 6934271042, "lat": 12.9521441, "lon": 80.1438126, "tags": {"addr:district": "Kanchipuram", "addr:full": "8/26 Sarathy Kalyana Mandapam", "addr:postcode": "600043", "addr:state": "Tamil Nadu", "amenity": "hospital", "healthcare": "hospital", "name": "M.S.M. Skin and Hair Care Clinic", "source": "OpenGovernmentData"}}, {"type": "node", "id": 6934340601, "lat": 12.9784706, "lon": 80.2247932, "tags": {"addr:district": "Chennai", "addr:full": "40B, Tansi Nagar Vii St, Velachery", "addr:postcode": "600042", "addr:state": "Tamil Nadu", "amenity": "hospital", "healthcare": "hospital", "name": "Nandhini Hospital", "source": "OpenGovernmentData"}}, {"type": "node", "id": 6934340781, "lat": 13.0122123, "lon": 80.2235084, "tags": {"addr:district": "Dindigul", "addr:full": "4/12A, Anna Nagar,Palani", "addr:postcode": "624601", "addr:state": "Tamil Nadu", "amenity": "hospital", "name": "Palani Balaji Fertility Centre", "source": "OpenGovernmentData"}}, {"type": "node", "id": 6934340789, "lat": 12.9801472, "lon": 80.1835965, "tags": {"addr:district": "Kanchipuram", "addr:full": "C3, Hindu Colony, Nanganallur", "addr:postcode": "600061", "addr:state": "Tamil Nadu", "amenity": "hospital", "healthcare": "hospital", "name": "Pankajam Memorial Hospital", "source": "OpenGovernmentData"}}, {"type": "node", "id": 6935159758, "lat": 12.9673347, "lon": 80.1867983, "tags": {"addr:district": "Kanchipuram", "addr:full": "2/93, 2nd Main Rod, Ragavanagar, Madipakkam", "addr:postcode": "600091", "addr:state": "Tamil Nadu", "amenity": "hospital", "healthcare": "hospital", "name": "Thirimoorthys Heart Care Hospital", "source": "OpenGovernmentData"}}, {"type": "node", "id": 6936134766, "lat": 12.9498348, "lon": 80.1690781, "tags": {"addr:full": "No: 2, Iii Main Road, New Colony, Chrompet,Chennai", "amenity": "hospital", "healthcare": "hospital"}}, {"type": "node", "id": 6936663153, "lat": 12.9763914, "lon": 80.2114016, "tags": {"addr:district": "Chennai", "addr:full": "No.14, 10Th Cross Street , A.G.S.Colony, Velachery", "addr:postcode": "600042", "addr:state": "Tamil Nadu", "amenity": "hospital", "healthcare": "hospital", "name": "Velachery K S Hospital", "source": "OpenGovernmentData"}}, {"type": "node", "id": 6936684328, "lat": 12.9925116, "lon": 80.2061465, "tags": {"addr:district": "Kanchipuram", "addr:full": "#1, Kakkan Nagar 1st Main Road, Adambakkam", "addr:postcode": "600088", "addr:state": "Tamil Nadu", "amenity": "hospital", "name": "Ponmalligai Hospital Pvt Ltd", "source": "OpenGovernmentData"}}, {"type": "node", "id": 6936695177, "lat": 12.9833895, "lon": 80.2181782, "tags": {"addr:district": "Chennai", "addr:full": "7/14, 7Th Cross Street, Rajalakshmi Nagar, Velachery", "addr:postcode": "600042", "addr:state": "Tamil Nadu", "amenity": "hospital", "healthcare": "hospital", "name": "Xcellent Care Superspeciality Hospital", "source": "OpenGovernmentData"}}, {"type": "node", "id": 6936695215, "lat": 12.9740991, "lon": 80.1387607, "tags": {"addr:block": "Tambaram Mpty", "addr:district": "Kancheepuram", "addr:full": "Krishna Nagar, Pammal, Pilliyar Koil Street", "addr:postcode": "600075", "addr:state": "Tamil Nadu", "addr:subdistrict": "Tambaram", "amenity": "hospital", "healthcare": "hospital", "name": "Subhiksha Hospital", "source": "OpenGovernmentData"}}, {"type": "node", "id": 6937055902, "lat": 12.9758647, "lon": 80.2205016, "tags": {"addr:district": "Chennai", "addr:full": "Plot No. 191, 100 Feet By-Pass Road, Velacherry", "addr:postcode": "600042", "addr:state": "Tamil Nadu", "amenity": "hospital", "healthcare": "hospital", "name": "Appasamy Krishna Hospital and Medical Research Centre", "source": "OpenGovernmentData"}}, {"type": "node", "id": 7257421555, "lat": 12.9408644, "lon": 80.1828683, "tags": {"addr:block": "Chennai Zone I", "addr:district": "Chennai", "addr:full": "Near Kvb Bank, Medavakkam Main Rd, Rose Nagar, Kovilambakkam", "addr:postcode": "600117", "addr:state": "Tamil Nadu", "amenity": "hospital", "healthcare": "hospital", "name": "Arun Hospital", "source": "OpenGovernmentData"}}, {"type": "node", "id": 7257421563, "lat": 12.9521921, "lon": 80.1442251, "tags": {"addr:block": "Tambaram Mpty", "addr:district": "Kancheepuram", "addr:full": "Canara Bank, Chrompet, Radha Nagar Main Road", "addr:postcode": "603044", "addr:state": "Tamil Nadu", "addr:subdistrict": "Tambaram", "amenity": "hospital", "healthcare": "hospital", "name": "Shree Eye & Maternity Hospital", "source": "OpenGovernmentData"}}, {"type": "node", "id": 7257421573, "lat": 12.94505, "lon": 80.13456, "tags": {"addr:block": "Kundrathur", "addr:district": "Kancheepuram", "addr:full": "No 17, Near Mit Gate Bus Stop, Chrompet, Gst Road", "addr:postcode": "600045", "addr:state": "Tamil Nadu", "addr:subdistrict": "Sriperumbudur", "amenity": "hospital", "healthcare": "hospital", "name": "Government Hospital, Tambaram", "source": "OpenGovernmentData"}}, {"type": "node", "id": 7257421582, "lat": 12.95866, "lon": 80.187198, "tags": {"addr:block": "Tambaram Mpty", "addr:district": "Kanchipuram", "addr:full": "No. 70, Medavakkam Main Road, Next To Subiksha Super Market, Keelkattalai, Chennai", "addr:postcode": "600117", "addr:state": "Tamil Nadu", "addr:subdistrict": "Tambaram", "amenity": "hospital", "healthcare": "hospital", "name": "Vijayam Hospital & Fertility Centre", "source": "OpenGovernmentData"}}, {"type": "node", "id": 7257421613, "lat": 13.0048164, "lon": 80.2025432, "tags": {"addr:block": "Chennai Zone Xii", "addr:district": "Chennai", "addr:full": "Near Rto Office, Alandhur, Sowri Street", "addr:postcode": "600016", "addr:state": "Tamil Nadu", "amenity": "hospital", "healthcare": "hospital", "name": "Government Hospital Alandur", "source": "OpenGovernmentData"}}, {"type": "node", "id": 7257421619, "lat": 12.9342227, "lon": 80.1807557, "tags": {"addr:block": "Tambaram Mpty", "addr:district": "Kancheepuram", "addr:full": "Vijayaraja Kalyana Mandapam, Kovilambakkam, Dhinakaran Street", "addr:postcode": "600117", "addr:state": "Tamil Nadu", "addr:subdistrict": "Tambaram", "amenity": "hospital", "healthcare": "hospital", "name": "T.K.R. Hospital", "source": "OpenGovernmentData"}}, {"type": "node", "id": 7652449746, "lat": 12.9645886, "lon": 80.1958518, "tags": {"amenity": "hospital", "description": "Child and General Physician", "emergency": "no", "healthcare": "hospital", "healthcare:speciality": "general", "name": "Malar Clinic", "operator": "Dr. Arun", "operator:type": "public"}}, {"type": "node", "id": 7821906820, "lat": 12.9372891, "lon": 80.1390198, "tags": {"addr:district": "Chengalpattu", "addr:full": "Tambaram", "addr:postcode": "600059", "addr:state": "Tamil Nadu", "amenity": "hospital", "healthcare": "hospital", "name": "Dr. Sathish Kumar Institute Of Child Health and Hospital for Children", "source": "Local Knowledge"}}, {"type": "node", "id": 7821906903, "lat": 12.9370716, "lon": 80.1394473, "tags": {"addr:district": "Chengalpattu", "addr:full": "Tambaram", "addr:postcode": "600064", "addr:state": "Tamil Nadu", "amenity": "hospital", "healthcare": "hospital", "name": "Manimegalai Hospital", "source": "Local Knowledge"}}, {"type": "node", "id": 7822543395, "lat": 12.9383762, "lon": 80.1725401, "tags": {"addr:district": "Chengalpattu", "addr:full": "Nanmangalam", "addr:postcode": "600117", "addr:state": "Tamil Nadu", "amenity": "hospital", "name": "Avinash Ortho Hospital", "source": "Local Knowledge"}}, {"type": "node", "id": 7822543399, "lat": 12.9502691, "lon": 80.1513316, "tags": {"addr:district": "Chengalpattu", "addr:full": "Jamin Rayapettah, Chromepet", "addr:postcode": "600044", "addr:state": "Tamil Nadu", "amenity": "hospital", "healthcare": "hospital", "name": "Kavitha Ortho and Multi Speciality Hospital", "source": "Local Knowledge"}}, {"type": "node", "id": 7822543406, "lat": 12.9549234, "lon": 80.1340441, "tags": {"addr:district": "Chengalpattu", "addr:full": "Nagappa Nagar, Chromepet", "addr:postcode": "600044", "addr:state": "Tamil Nadu", "amenity": "hospital", "healthcare": "hospital", "name": "Ray's Head, Neck Care Centre-ENT and Dental Clinic", "source": "Local Knowledge"}}, {"type": "node", "id": 7822543416, "lat": 12.9462077, "lon": 80.1399766, "tags": {"addr:district": "Chengalpattu", "addr:full": "Nehru Nagar", "addr:postcode": "600044", "addr:state": "Tamil Nadu", "amenity": "hospital", "healthcare": "hospital", "name": "Sri Santhanakrishna Padmavati Health Care and Research Centre", "source": "Local Knowledge"}}, {"type": "node", "id": 7822543423, "lat": 12.9540623, "lon": 80.1339845, "tags": {"addr:district": "Chengalpattu", "addr:full": "Chandran Nagar, Chromepet", "addr:postcode": "600044", "addr:state": "Tamil Nadu", "amenity": "hospital", "healthcare": "hospital", "name": "Sri Venkateshwara Hospital", "source": "Local Knowledge"}}, {"type": "node", "id": 7822543424, "lat": 12.9296419, "lon": 80.2029589, "tags": {"addr:district": "Chengalpattu", "addr:full": "Pallikaranai", "addr:postcode": "600100", "addr:state": "Tamil Nadu", "amenity": "hospital", "healthcare": "hospital", "name": "Dr. Velmurugan Hospital", "source": "Local Knowledge"}}, {"type": "node", "id": 7822543426, "lat": 12.9499064, "lon": 80.1349811, "tags": {"addr:district": "Chengalpattu", "addr:full": "Chromepet", "addr:postcode": "600047", "addr:state": "Tamil Nadu", "amenity": "hospital", "healthcare": "hospital", "name": "Sri Ram Hospital", "source": "Local Knowledge"}}, {"type": "node", "id": 7822543429, "lat": 12.952496, "lon": 80.137893, "tags": {"addr:district": "Chengalpattu", "addr:full": "Pallavapuram, Chromepet", "addr:postcode": "600044", "addr:state": "Tamil Nadu", "amenity": "hospital", "healthcare": "hospital", "name": "Kidney Hospital and Diagnostic Centre", "source": "Local Knowledge"}}, {"type": "node", "id": 7822543430, "lat": 12.9344546, "lon": 80.1819961, "tags": {"addr:district": "Chengalpattu", "addr:full": "Medavakkam, Nanmangalam", "addr:postcode": "600117", "addr:state": "Tamil Nadu", "amenity": "hospital", "healthcare": "hospital", "name": "AM Hospital", "source": "Local Knowledge"}}, {"type": "node", "id": 7822543433, "lat": 12.9575434, "lon": 80.143138, "tags": {"addr:district": "Chengalpattu", "addr:full": "Kothandam Nagar, Chromepet", "addr:postcode": "600044", "addr:state": "Tamil Nadu", "amenity": "hospital", "healthcare": "hospital", "name": "HCG Cancer Centre", "source": "Local Knowledge"}}, {"type": "node", "id": 7822543434, "lat": 12.9521949, "lon": 80.1432074, "tags": {"addr:district": "Chengalpattu", "addr:full": "Chromepet", "addr:postcode": "600044", "addr:state": "Tamil Nadu", "amenity": "hospital", "healthcare": "hospital", "name": "Sayee Hospitals", "source": "Local Knowledge"}}, {"type": "node", "id": 7822543438, "lat": 12.9339688, "lon": 80.2041509, "tags": {"addr:district": "Chengalpattu", "addr:full": "Selvam Nagar, Pallikaranai", "addr:postcode": "600100", "addr:state": "Tamil Nadu", "amenity": "hospital", "healthcare": "hospital", "name": "Inbam Hospital", "source": "Local Knowledge"}}, {"type": "node", "id": 7822543439, "lat": 12.9503116, "lon": 80.1513212, "tags": {"addr:district": "Chengalpattu", "addr:full": "Jamin Rayapettah, Gajalakshmi Colony, Chromepet", "addr:postcode": "600044", "addr:state": "Tamil Nadu", "amenity": "hospital", "healthcare": "hospital", "name": "Thanushika Hospital", "source": "Local Knowledge"}}, {"type": "node", "id": 7822543444, "lat": 12.9393514, "lon": 80.1806898, "tags": {"addr:district": "Chengalpattu", "addr:full": "Nanmangalam", "addr:postcode": "600117", "addr:state": "Tamil Nadu", "amenity": "hospital", "healthcare": "hospital", "name": "Hindusthan Hospital", "source": "Local Knowledge"}}, {"type": "node", "id": 7822543448, "lat": 12.9478556, "lon": 80.1370503, "tags": {"addr:district": "Chengalpattu", "addr:full": "Chromepet", "addr:postcode": "600047", "addr:state": "Tamil Nadu", "amenity": "hospital", "healthcare": "hospital", "name": "Puthur Kattu", "source": "Local Knowledge"}}, {"type": "node", "id": 7822543452, "lat": 12.9379829, "lon": 80.1799993, "tags": {"addr:district": "Chengalpattu", "addr:full": "Vaithiyalingam Nagar, Nanmangalam", "addr:postcode": "600117", "addr:state": "Tamil Nadu", "amenity": "hospital", "healthcare": "hospital", "name": "RKP Hospital", "source": "Local Knowledge"}}, {"type": "node", "id": 7822543455, "lat": 12.928263, "lon": 80.200805, "tags": {"addr:district": "Chengalpattu", "addr:full": "Devi Karumariamman Nagar, Pallikaranai", "addr:postcode": "600100", "addr:state": "Tamil Nadu", "amenity": "hospital", "healthcare": "hospital", "name": "Muthu Multi Speciality Hospital and Pharmacy", "source": "Local Knowledge"}}, {"type": "node", "id": 7822543459, "lat": 12.960669, "lon": 80.139703, "tags": {"addr:district": "Chengalpattu", "addr:full": "Chromepet", "addr:postcode": "600044", "addr:state": "Tamil Nadu", "amenity": "hospital", "healthcare": "hospital", "name": "Kokila Siddha Hospital", "source": "Local Knowledge"}}, {"type": "node", "id": 7822543469, "lat": 12.9544931, "lon": 80.1439701, "tags": {"addr:district": "Chengalpattu", "addr:postcode": "600044", "addr:state": "Tamil Nadu", "amenity": "hospital", "healthcare": "hospital", "name": "Thomas Health Care Centre", "source": "Local Knowledge"}}, {"type": "node", "id": 7822543471, "lat": 12.935221, "lon": 80.181802, "tags": {"addr:district": "Chengalpattu", "addr:full": "Nehru Nagar, Nanmangalam", "addr:postcode": "600117", "addr:state": "Tamil Nadu", "amenity": "hospital", "healthcare": "hospital", "name": "Raj Joty Eye Hospital", "source": "Local Knowledge"}}, {"type": "node", "id": 7822543477, "lat": 12.9537198, "lon": 80.143246, "tags": {"addr:district": "Chengalpattu", "addr:full": "Lakshmi Nagar, Rajaji Nagar, Chromepet", "addr:postcode": "600044", "addr:state": "Tamil Nadu", "amenity": "hospital", "healthcare": "hospital", "name": "Sun Hospital", "source": "Local Knowledge"}}, {"type": "node", "id": 7822543484, "lat": 12.9520555, "lon": 80.1372784, "tags": {"addr:district": "Chengalpattu", "addr:full": "Pallavapuram, Chromepet", "addr:postcode": "600044", "addr:state": "Tamil Nadu", "amenity": "hospital", "healthcare": "hospital", "name": "Apollo Hospitals", "operator": "Apollo Hospitals", "operator:wikidata": "Q4780321", "operator:wikipedia": "en:Apollo Hospitals", "source": "Local Knowledge"}}, {"type": "node", "id": 7822543489, "lat": 12.9531004, "lon": 80.1440661, "tags": {"addr:district": "Chengalpattu", "addr:full": "Chromepet", "addr:postcode": "600044", "addr:state": "Tamil Nadu", "amenity": "hospital", "healthcare": "hospital", "name": "Shailaja Hospital", "source": "Local Knowledge"}}, {"type": "node", "id": 7822543490, "lat": 12.9452437, "lon": 80.140022, "tags": {"addr:district": "Chengalpattu", "addr:full": "Chromepet", "addr:postcode": "600044", "addr:state": "Tamil Nadu", "amenity": "hospital", "healthcare": "hospital", "name": "Dhanwantari Hospital", "source": "Local Knowledge"}}, {"type": "node", "id": 7822543491, "lat": 12.954659, "lon": 80.134998, "tags": {"addr:district": "Chengalpattu", "addr:full": "Nagappa Nagar, Chromepet", "addr:postcode": "600044", "addr:state": "Tamil Nadu", "amenity": "hospital", "healthcare": "hospital", "name": "Dr. Ashok Kumar Children's Hospital", "source": "Local Knowledge"}}, {"type": "node", "id": 7822543498, "lat": 12.9422406, "lon": 80.1381022, "tags": {"addr:district": "Chengalpattu", "addr:full": "Nehru Nagar, Chromepet", "addr:postcode": "600044", "addr:state": "Tamil Nadu", "amenity": "hospital", "healthcare": "hospital", "name": "Venus Accupoint", "source": "Local Knowledge"}}, {"type": "node", "id": 7822543500, "lat": 12.9425452, "lon": 80.1405737, "tags": {"addr:district": "Chengalpattu", "addr:full": "Nehru Nagar, Chromepet", "addr:postcode": "600044", "addr:state": "Tamil Nadu", "amenity": "hospital", "healthcare": "hospital", "name": "Saraswathy Hospital", "source": "Local Knowledge"}}, {"type": "node", "id": 7822543501, "lat": 12.9280452, "lon": 80.199546, "tags": {"addr:district": "Chengalpattu", "addr:full": "Pallikaranai", "addr:postcode": "600100", "addr:state": "Tamil Nadu", "amenity": "hospital", "healthcare": "hospital", "name": "V Cure Hospital", "source": "Local Knowledge"}}, {"type": "node", "id": 7822543502, "lat": 12.9569609, "lon": 80.1424509, "tags": {"addr:district": "Chengalpattu", "addr:full": "Chambers Colony, Chromepet", "addr:postcode": "600044", "addr:state": "Tamil Nadu", "amenity": "hospital", "healthcare": "hospital", "name": "Al Elaj Accupressure and Health Centre", "source": "Local Knowledge"}}, {"type": "node", "id": 7822543505, "lat": 12.933726, "lon": 80.1811973, "tags": {"addr:district": "Chengalpattu", "addr:full": "Vellakkal", "addr:postcode": "600117", "addr:state": "Tamil Nadu", "amenity": "hospital", "healthcare": "hospital", "name": "V.S. Hospital", "source": "Local Knowledge"}}, {"type": "node", "id": 7822543510, "lat": 12.9576893, "lon": 80.1429026, "tags": {"addr:district": "Chengalpattu", "addr:full": "Kothandam Nagar, Chromepet", "addr:postcode": "600044", "addr:state": "Tamil Nadu", "amenity": "hospital", "healthcare": "hospital", "name": "Daisy Hospitals", "source": "Local Knowledge"}}, {"type": "node", "id": 7823212562, "lat": 12.9719872, "lon": 80.1407516, "tags": {"addr:district": "Chengalpattu", "addr:full": "Muthamizh Nagar, Pallavaram", "addr:postcode": "600074", "addr:state": "Tamil Nadu", "amenity": "hospital", "healthcare": "hospital", "name": "JIP Hospital", "source": "Local Knowledge"}}, {"type": "node", "id": 7823212567, "lat": 12.9668133, "lon": 80.144778, "tags": {"addr:district": "Chengalpattu", "addr:full": "Abdul Kalam Nagar, Periyar Nagar, Pallavaram", "addr:postcode": "600043", "addr:state": "Tamil Nadu", "amenity": "hospital", "healthcare": "hospital", "name": "Dr. Habeb Child Care Hospital", "source": "Local Knowledge"}}, {"type": "node", "id": 7823212573, "lat": 13.0087475, "lon": 80.1937172, "tags": {"addr:district": "Chengalpattu", "addr:postcode": "600016", "addr:state": "Tamil Nadu", "amenity": "hospital", "healthcare": "hospital", "name": "Rathna Hospital", "source": "Local Knowledge"}}, {"type": "node", "id": 7823212576, "lat": 13.0036449, "lon": 80.2030844, "tags": {"addr:district": "Chengalpattu", "addr:full": "Alandur", "addr:postcode": "600016", "addr:state": "Tamil Nadu", "amenity": "hospital", "healthcare": "hospital", "name": "S.S. Hospital", "source": "Local Knowledge"}}, {"type": "node", "id": 7823212579, "lat": 13.0017797, "lon": 80.2033269, "tags": {"addr:district": "Chengalpattu", "addr:full": "Alandu", "addr:postcode": "600016", "addr:state": "Tamil Nadu", "amenity": "hospital", "healthcare": "hospital", "name": "Dhanraj Hospital", "source": "Local Knowledge"}}, {"type": "node", "id": 7823212616, "lat": 12.9718921, "lon": 80.1445381, "tags": {"addr:district": "Chengalpattu", "addr:full": "Pallavaram", "addr:postcode": "600043", "addr:state": "Tamil Nadu", "amenity": "hospital", "healthcare": "hospital", "name": "Shadithya Hospital", "source": "Local Knowledge"}}, {"type": "node", "id": 7823212623, "lat": 13.0027883, "lon": 80.207025, "tags": {"addr:district": "Chengalpattu", "addr:full": "Alandur", "addr:postcode": "600016", "addr:state": "Tamil Nadu", "amenity": "hospital", "name": "Jaya Sri Hospital", "source": "Local Knowledge"}}, {"type": "node", "id": 7823212631, "lat": 13.003406, "lon": 80.2063632, "tags": {"addr:district": "Chengalpattu", "addr:full": "Alandur", "addr:postcode": "600016", "addr:state": "Tamil Nadu", "amenity": "hospital", "name": "Kaanthi Makapperu Hospital", "source": "Local Knowledge"}}, {"type": "node", "id": 7823212633, "lat": 12.9700475, "lon": 80.1499015, "tags": {"addr:district": "Chengalpattu", "addr:full": "Pallavaram", "addr:postcode": "600043", "addr:state": "Tamil Nadu", "amenity": "hospital", "healthcare": "hospital", "name": "Medforte Health Care", "source": "Local Knowledge"}}, {"type": "node", "id": 7823212640, "lat": 12.97059, "lon": 80.148318, "tags": {"addr:district": "Chengalpattu", "addr:full": "Pallavaram", "addr:postcode": "600044", "addr:state": "Tamil Nadu", "amenity": "hospital", "healthcare": "hospital", "name": "Contonment Board General Hospital", "source": "Local Knowledge"}}, {"type": "node", "id": 8105683179, "lat": 13.0117736, "lon": 80.1941708, "tags": {"addr:street": "Mount Poonamalle High Rd, Seven Wells, St.Thomas Mount, Tamil Nadu 600016", "amenity": "hospital", "healthcare": "hospital", "name": "Military Hospital", "opening_hours": "24/7"}}, {"type": "node", "id": 8639896900, "lat": 12.9784544, "lon": 80.2214698, "tags": {"addr:city": "Chennai", "addr:housenumber": "36", "addr:postcode": "600042", "addr:street": "Velachery Main Road", "amenity": "hospital", "email": "info@prashanthhospitals.org", "healthcare": "hospital", "name": "Prashanth Hospitals", "phone": "+91 44 2243 9494;+91 44 4680 5544;+91 82962 63415", "website": "https://prashanthhospitals.org"}}, {"type": "node", "id": 8714264559, "lat": 12.969558, "lon": 80.1850882}, {"type": "node", "id": 8714264560, "lat": 12.9694349, "lon": 80.185025}, {"type": "node", "id": 8714264561, "lat": 12.9693465, "lon": 80.1849803}, {"type": "node", "id": 8714264562, "lat": 12.9693174, "lon": 80.1851514}, {"type": "node", "id": 8714264563, "lat": 12.9693084, "lon": 80.1851938}, {"type": "node", "id": 8714264564, "lat": 12.9694998, "lon": 80.1852306}, {"type": "node", "id": 9902439490, "lat": 12.9558886, "lon": 80.1379761}, {"type": "node", "id": 9902439499, "lat": 12.956414, "lon": 80.1367933}, {"type": "node", "id": 9902439500, "lat": 12.9563011, "lon": 80.1367483}, {"type": "node", "id": 9902439501, "lat": 12.9542707, "lon": 80.1362971}, {"type": "node", "id": 11207304481, "lat": 12.9549742, "lon": 80.1399698}, {"type": "node", "id": 11782793599, "lat": 12.9622155, "lon": 80.159938, "tags": {"amenity": "hospital", "healthcare": "hospital", "name": "Sugam Hospital"}}, {"type": "node", "id": 12378706312, "lat": 12.9831959, "lon": 80.2013573, "tags": {"addr:city": "chennai", "addr:district": "chennai", "addr:housenumber": "14", "addr:postcode": "600088", "addr:street": "Vanalar Street", "amenity": "hospital", "healthcare": "hospital", "healthcare:speciality": "dermatovenereology", "name": "Dr Bala's Skin clinic", "operator": "Dr Balakumatan", "operator:type": "private"}}, {"type": "node", "id": 12534252943, "lat": 12.9492208, "lon": 80.2083955}, {"type": "node", "id": 12560767886, "lat": 12.9809491, "lon": 80.1871116, "tags": {"amenity": "hospital", "healthcare": "hospital"}}, {"type": "way", "id": 32896904, "nodes": [370495279, 370495280, 370495281, 370495282, 370495283, 370495284, 370495279], "tags": {"amenity": "hospital", "healthcare": "hospital", "name": "Cantonment General Hospital"}}, {"type": "way", "id": 44034276, "nodes": [559841172, 559841171, 559841177, 559841173, 559841172], "tags": {"addr:city": "Chennai", "addr:district": "Kanchipuram", "addr:full": "No.241, G S T Road (Near M I T Gate), Chromepet, Chennai", "addr:place": "Chromepet", "addr:postcode": "600044", "addr:state": "Tamil Nadu", "addr:street": "Grand Southern Trunk Road", "amenity": "hospital", "check_date": "2019-02-23", "contact:facebook": "parvathyhospitalchennai", "contact:linkedin": "https://www.linkedin.com/company/parvathy-hospital/", "contact:twitter": "parvathychennai", "healthcare": "hospital", "name": "Parvathy Hospital", "phone": "+91-98412-98412", "source": "OpenGovernmentData", "website": "https://www.parvathyhospital.com/"}}, {"type": "way", "id": 44034282, "nodes": [559841174, 559841175, 559841179, 559841178, 559841174], "tags": {"addr:block": "Tambaram Mpty", "addr:district": "Kancheepuram", "addr:full": "297, Gst Road, Near Mit Gate, Chrompet", "addr:postcode": "600044", "addr:state": "Tamil Nadu", "addr:subdistrict": "Tambaram", "amenity": "hospital", "healthcare": "hospital", "name": "Chennai Krishna Hospital", "source": "OpenGovernmentData"}}, {"type": "way", "id": 180145742, "nodes": [9902439500, 9902439499, 9902439490, 6915207418, 1905763246, 1905763242, 1905763239, 1905763234, 1905763233, 11207304481, 1905763231, 1905763222, 6853185490, 9902439501, 9902439500], "tags": {"addr:block": "Tambaram Mpty", "addr:district": "Kancheepuram", "addr:full": "Works, Road, Chromepet", "addr:postcode": "600044", "addr:state": "Tamil Nadu", "addr:subdistrict": "Tambaram", "amenity": "hospital", "healthcare": "hospital", "name": "Sree Balaji Medical College And Hospital", "operator:type": "government", "source": "OpenGovernmentData", "website": "https://sbmch.ac.in/"}}, {"type": "way", "id": 220821765, "nodes": [2299085691, 2299085690, 2299085689, 2299085692, 2299085691], "tags": {"addr:city": "Chennai", "addr:street": "100ft Road", "amenity": "hospital", "healthcare": "hospital", "name": "Gowri Nursing Home"}}, {"type": "way", "id": 354540004, "nodes": [3602354643, 4644225942, 4644225943, 4644225944, 4644225948, 4644225947, 4644225946, 4644225945, 3602354648, 3602354636, 3602354635, 3602354643], "tags": {"addr:district": "Chennai", "addr:full": "No. 1, Lawyer Jaganathan Street, Guindy", "addr:postcode": "600032", "addr:state": "Tamil Nadu", "addr:street": "Anna Salai (Mount Road)", "amenity": "hospital", "building": "yes", "name": "Balaji Hospital (P) Ltd", "source": "OpenGovernmentData", "website": "https://sribalajihospital.com/"}}, {"type": "way", "id": 354562297, "nodes": [3602473688, 3602473679, 3602473678, 3602473682, 3602473688], "tags": {"addr:block": "Tambaram Mpty", "addr:city": "Chrompet", "addr:full": "No. 107 A, Grand Southern Trunk Rd, Sunnambu Colony, Chromepet, Chennai", "addr:housenumber": "No 107 A", "addr:postcode": "600044", "addr:street": "Grand Southern Trunk Road", "amenity": "hospital", "emergency": "yes", "healthcare": "hospital", "name": "Deepam Hospitals"}}, {"type": "way", "id": 355074781, "nodes": [3606874531, 3606874533, 3606874348, 3606874346, 3606874518, 3606874517, 3606874531], "tags": {"addr:street": "7th Cross Street, Rajalaksmi nagar", "amenity": "hospital", "building": "yes", "emergency": "yes", "name": "Xcellent Care Hospital", "operator": "Xcellent Care Super Speciality Hospital ( P ) Ltd.", "website": "http://xcellentcarehospital.com"}}, {"type": "way", "id": 364356223, "nodes": [3683910123, 3683910122, 3683910120, 3683910119, 3683910121, 3683910123], "tags": {"addr:city": "Chennai", "addr:district": "Chennai", "addr:housenumber": "No 6", "addr:postcode": "600061", "addr:street": "Nanganallur 6th Main Road", "amenity": "hospital", "description": "Diha Clinic is the best multispeciality hospital in Nanganallur, Chennai, offering expert care across specialties at an affordable price and with low waiting times.", "emergency": "yes", "healthcare": "hospital", "healthcare:speciality": "general;paediatrics;emergency;dermatology;otolaryngology;blood_check;orthopaedics;diabetology;gynaecology", "mobile": "+91 80565 80565", "name": "Diha Clinic", "operator": "Diha Trust", "operator:type": "private", "phone": "044 46878787", "website": "https://dihaclinic.org/"}}, {"type": "way", "id": 364721502, "nodes": [3687685030, 3687685031, 3687685032, 3687685033, 3687685034, 3687685030], "tags": {"amenity": "hospital", "healthcare": "hospital", "name": "Athipathy Hospitals"}}, {"type": "way", "id": 371970672, "nodes": [3755137037, 3755137038, 3876121221, 3755137039, 5988132878, 3755137040, 12534252943, 3755137037], "tags": {"addr:district": "Kancheepuram", "addr:full": "1,Radial Road , Pallikaranai Chennai-100", "addr:postcode": "600100", "addr:state": "Tamil Nadu", "addr:subdistrict": "Sholinganallur", "amenity": "hospital", "emergency": "yes", "healthcare": "hospital", "name": "Dr.Kamakshi Memorial Hospital", "source": "OpenGovernmentData"}}, {"type": "way", "id": 940932459, "nodes": [8714264559, 8714264560, 8714264561, 8714264562, 8714264563, 8714264564, 8714264559], "tags": {"amenity": "hospital", "healthcare": "hospital"}}]}