{"version": 0.6, "generator": "Overpass API 0.7.62.8 e802775f", "osm3s": {"timestamp_osm_base": "2026-01-16T06:52:48Z", "copyright": "The data included in this document is from www.openstreetmap.org. The data is made available under ODbL."}, "elements": [{"type": "node", "id": 1681598650, "lat": 59.6539298, "lon": 16.5405172, "tags": {"bus": "yes", "highway": "bus_stop", "public_transport": "platform"}}, {"type": "node", "id": 12996852916, "lat": 59.6199752, "lon": 16.5103625, "tags": {"bench": "no", "bin": "no", "highway": "bus_stop", "name": "Brandstationen", "network": "VL", "route_ref": "4", "shelter": "no"}}, {"type": "node", "id": 12996852917, "lat": 59.6194307, "lon": 16.5094195, "tags": {"bench": "yes", "bin": "yes", "highway": "bus_stop", "name": "Brandstationen", "network": "VL", "route_ref": "4", "shelter": "yes"}}, {"type": "node", "id": 12996852918, "lat": 59.6191876, "lon": 16.5014894, "tags": {"bench": "no", "bin": "no", "highway": "bus_stop", "name": "Fatbursgatan", "network": "VL", "route_ref": "4", "shelter": "no"}}, {"type": "node", "id": 12996852920, "lat": 59.6269845, "lon": 16.4834042, "tags": {"bench": "no", "bin": "no", "highway": "bus_stop", "name": "Hagaberg", "network": "VL", "route_ref": "4", "shelter": "no"}}, {"type": "node", "id": 12996852921, "lat": 59.626888, "lon": 16.4833703, "tags": {"bench": "yes", "bin": "yes", "highway": "bus_stop", "name": "Hagaberg", "network": "VL", "route_ref": "4", "shelter": "yes"}}, {"type": "node", "id": 12996852922, "lat": 59.629853, "lon": 16.4796385, "tags": {"bench": "yes", "bin": "yes", "highway": "bus_stop", "name": "Brottberga", "network": "VL", "shelter": "yes"}}, {"type": "node", "id": 12996852927, "lat": 59.6379976, "lon": 16.5135948, "tags": {"bench": "yes", "bin": "yes", "highway": "bus_stop", "name": "\u00c5shagen", "network": "VL", "route_ref": "6;21", "shelter": "yes"}}, {"type": "node", "id": 12996852928, "lat": 59.6381785, "lon": 16.5142323, "tags": {"bench": "no", "bin": "no", "highway": "bus_stop", "name": "\u00c5shagen", "network": "VL", "route_ref": "6;21", "shelter": "no"}}, {"type": "node", "id": 13108204001, "lat": 59.6204598, "lon": 16.5375883, "tags": {"bench": "yes", "bin": "yes", "highway": "bus_stop", "lit": "yes", "name": "Arosvallen", "network": "VL", "shelter": "yes"}}, {"type": "node", "id": 13108204002, "lat": 59.6196524, "lon": 16.5380729, "tags": {"bench": "yes", "bin": "yes", "highway": "bus_stop", "lit": "yes", "name": "Arosvallen", "network": "VL", "route_ref": "2;6;21", "shelter": "yes"}}, {"type": "node", "id": 13108204007, "lat": 59.6395676, "lon": 16.5083989, "tags": {"bench": "yes", "bin": "yes", "highway": "bus_stop", "name": "Billsta", "network": "VL", "route_ref": "6;21", "shelter": "yes"}}, {"type": "node", "id": 13108204008, "lat": 59.6401543, "lon": 16.507787, "tags": {"bench": "no", "bin": "no", "highway": "bus_stop", "name": "Billsta", "network": "VL", "route_ref": "6;21", "shelter": "no"}}, {"type": "node", "id": 13108204009, "lat": 59.642267, "lon": 16.5059491, "tags": {"bench": "no", "bin": "no", "highway": "bus_stop", "name": "Bandygatan", "network": "VL", "route_ref": "6", "shelter": "no"}}, {"type": "node", "id": 13108204010, "lat": 59.641756, "lon": 16.5063333, "tags": {"bench": "yes", "bin": "yes", "highway": "bus_stop", "name": "Bandygatan", "network": "VL", "route_ref": "6", "shelter": "yes"}}, {"type": "node", "id": 13108204013, "lat": 59.6443975, "lon": 16.5034545, "tags": {"bench": "yes", "bin": "yes", "highway": "bus_stop", "name": "Diskusgatan", "network": "VL", "route_ref": "6", "shelter": "yes"}}, {"type": "node", "id": 13108204016, "lat": 59.6450536, "lon": 16.5031215, "tags": {"bench": "no", "bin": "no", "highway": "bus_stop", "name": "Diskusgatan", "network": "VL", "route_ref": "6", "shelter": "no"}}, {"type": "node", "id": 13108204017, "lat": 59.6484118, "lon": 16.5060986, "tags": {"bench": "yes", "bin": "yes", "highway": "bus_stop", "name": "R\u00f6nnby centrum", "network": "VL", "route_ref": "6", "shelter": "yes"}}, {"type": "node", "id": 13108204020, "lat": 59.6472476, "lon": 16.5017832, "tags": {"bench": "yes", "bin": "yes", "highway": "bus_stop", "name": "Sl\u00e4ggkastargatan", "network": "VL", "route_ref": "6", "shelter": "yes"}}, {"type": "node", "id": 13108204021, "lat": 59.6471675, "lon": 16.5021226, "tags": {"bench": "no", "bin": "no", "highway": "bus_stop", "name": "Sl\u00e4ggkastargatan", "network": "VL", "route_ref": "6", "shelter": "no"}}, {"type": "node", "id": 13108204022, "lat": 59.6480261, "lon": 16.4984125, "tags": {"bench": "no", "bin": "no", "highway": "bus_stop", "name": "R\u00f6nnby v\u00e4gsk\u00e4l", "network": "VL", "route_ref": "21", "shelter": "no"}}, {"type": "node", "id": 13108204023, "lat": 59.6482605, "lon": 16.4984098, "tags": {"bench": "yes", "bin": "no", "highway": "bus_stop", "name": "R\u00f6nnby v\u00e4gsk\u00e4l", "network": "VL", "route_ref": "21", "shelter": "yes"}}, {"type": "node", "id": 13108204024, "lat": 59.6517951, "lon": 16.4934075, "tags": {"bench": "no", "bin": "no", "highway": "bus_stop", "name": "\u00c5by", "network": "VL", "route_ref": "21", "shelter": "no"}}, {"type": "node", "id": 13108204025, "lat": 59.6514793, "lon": 16.494121, "tags": {"bench": "no", "bin": "no", "highway": "bus_stop", "name": "\u00c5by", "network": "VL", "route_ref": "21", "shelter": "no"}}, {"type": "node", "id": 13108204098, "lat": 59.6260818, "lon": 16.4917158, "tags": {"bench": "no", "bin": "no", "highway": "bus_stop", "name": "Vallby norra", "network": "VL", "route_ref": "4", "shelter": "no"}}, {"type": "node", "id": 13108204099, "lat": 59.6260055, "lon": 16.4919363, "tags": {"bench": "yes", "bin": "yes", "highway": "bus_stop", "name": "Vallby norra", "network": "VL", "route_ref": "4", "shelter": "yes"}}, {"type": "node", "id": 13108204100, "lat": 59.6248276, "lon": 16.4998465, "tags": {"bench": "yes", "bin": "yes", "highway": "bus_stop", "name": "Kornbodsgatan", "network": "VL", "route_ref": "4", "shelter": "yes"}}, {"type": "node", "id": 13108204101, "lat": 59.6248717, "lon": 16.4997083, "tags": {"bench": "no", "bin": "no", "highway": "bus_stop", "name": "Kornbodsgatan", "network": "VL", "route_ref": "4", "shelter": "no"}}, {"type": "node", "id": 13108204102, "lat": 59.622362, "lon": 16.5029966, "tags": {"bench": "no", "bin": "yes", "highway": "bus_stop", "name": "Vallby centrum", "network": "VL", "route_ref": "4", "shelter": "no"}}, {"type": "node", "id": 13108204103, "lat": 59.6224022, "lon": 16.5027956, "tags": {"bench": "yes", "bin": "yes", "highway": "bus_stop", "name": "Vallby centrum", "network": "VL", "route_ref": "4", "shelter": "yes"}}, {"type": "node", "id": 13108204104, "lat": 59.6276925, "lon": 16.5334108, "tags": {"bench": "yes", "bin": "yes", "highway": "bus_stop", "name": "Rocklunda s\u00f6dra", "network": "VL", "route_ref": "2;6;21", "shelter": "yes"}}, {"type": "node", "id": 13108204105, "lat": 59.6277821, "lon": 16.533832, "tags": {"bench": "yes", "bin": "yes", "highway": "bus_stop", "name": "Rocklunda s\u00f6dra", "network": "VL", "route_ref": "2;6;21", "shelter": "yes"}}, {"type": "node", "id": 13108204106, "lat": 59.6224827, "lon": 16.5349992, "tags": {"bench": "yes", "bin": "yes", "highway": "bus_stop", "name": "S\u00e5ngargatan", "network": "VL", "route_ref": "2;6;21", "shelter": "yes"}}, {"type": "node", "id": 13108204107, "lat": 59.6221131, "lon": 16.5357763, "tags": {"bench": "no", "bin": "no", "highway": "bus_stop", "name": "S\u00e5ngargatan", "network": "VL", "route_ref": "2;6;21", "shelter": "no"}}, {"type": "node", "id": 13109904487, "lat": 59.6221438, "lon": 16.5466493, "tags": {"bench": "no", "bin": "no", "highway": "bus_stop", "name": "Ges\u00e4llgatan", "network": "VL", "shelter": "no"}}, {"type": "node", "id": 13109904488, "lat": 59.6221642, "lon": 16.5464723, "tags": {"bench": "yes", "bin": "yes", "highway": "bus_stop", "name": "Ges\u00e4llgatan", "network": "VL", "shelter": "yes"}}, {"type": "node", "id": 13109904490, "lat": 59.6200207, "lon": 16.5449388, "tags": {"bench": "yes", "bin": "yes", "highway": "bus_stop", "name": "Kristiansborgsbadet", "network": "VL", "shelter": "yes"}}, {"type": "node", "id": 13109904492, "lat": 59.6198339, "lon": 16.5451401, "tags": {"bench": "yes", "bin": "yes", "highway": "bus_stop", "lit": "yes", "name": "Kristiansborgsbadet", "network": "VL", "route_ref": "5", "shelter": "yes"}}, {"type": "node", "id": 13114928360, "lat": 59.6350338, "lon": 16.5317104, "tags": {"bench": "yes", "bin": "yes", "highway": "bus_stop", "name": "Apalby", "network": "VL", "route_ref": "2;6;21", "shelter": "yes"}}, {"type": "node", "id": 13114928361, "lat": 59.6361627, "lon": 16.5324937, "tags": {"bench": "yes", "bin": "yes", "highway": "bus_stop", "name": "Apalby", "network": "VL", "route_ref": "2;6;21", "shelter": "yes"}}, {"type": "node", "id": 13114928362, "lat": 59.6319942, "lon": 16.5318173, "tags": {"bench": "yes", "bin": "yes", "highway": "bus_stop", "name": "Rocklunda norra", "network": "VL", "route_ref": "2;6;21", "shelter": "yes"}}, {"type": "node", "id": 13114928363, "lat": 59.6325564, "lon": 16.5321136, "tags": {"bench": "yes", "bin": "yes", "highway": "bus_stop", "name": "Rocklunda norra", "network": "VL", "route_ref": "2;6;21", "shelter": "yes"}}, {"type": "node", "id": 13175062828, "lat": 59.652703, "lon": 16.5473172, "tags": {"bench": "no", "bin": "no", "highway": "bus_stop", "name": "Bl\u00e5regnsgatan", "network": "VL", "route_ref": "2", "shelter": "no"}}, {"type": "node", "id": 13175062829, "lat": 59.6525784, "lon": 16.5455067, "tags": {"bench": "yes", "bin": "yes", "highway": "bus_stop", "name": "Bl\u00e5regnsgatan", "network": "VL", "route_ref": "2", "shelter": "yes"}}, {"type": "node", "id": 13175062830, "lat": 59.6489736, "lon": 16.5387708, "tags": {"bench": "yes", "bin": "yes", "highway": "bus_stop", "name": "\u00d6nsta centrum", "network": "VL", "route_ref": "2", "shelter": "yes"}}, {"type": "node", "id": 13175062831, "lat": 59.6490682, "lon": 16.5389054, "tags": {"bench": "no", "bin": "no", "highway": "bus_stop", "name": "\u00d6nsta centrum", "network": "VL", "route_ref": "2", "shelter": "no"}}, {"type": "node", "id": 13175062832, "lat": 59.6452582, "lon": 16.5385239, "tags": {"bench": "no", "bin": "no", "highway": "bus_stop", "name": "St\u00f6varv\u00e4gen", "network": "VL", "route_ref": "2", "shelter": "no"}}, {"type": "node", "id": 13175062833, "lat": 59.6448097, "lon": 16.5384632, "tags": {"bench": "yes", "bin": "yes", "highway": "bus_stop", "name": "St\u00f6varv\u00e4gen", "network": "VL", "route_ref": "2", "shelter": "yes"}}, {"type": "node", "id": 13175062834, "lat": 59.6469173, "lon": 16.5386037, "tags": {"bench": "yes", "bin": "yes", "highway": "bus_stop", "name": "Dreverv\u00e4gen", "network": "VL", "route_ref": "2", "shelter": "yes"}}, {"type": "node", "id": 13175062835, "lat": 59.6469648, "lon": 16.5387636, "tags": {"bench": "no", "bin": "no", "highway": "bus_stop", "name": "Dreverv\u00e4gen", "network": "VL", "route_ref": "2", "shelter": "no"}}, {"type": "node", "id": 13175062836, "lat": 59.642573, "lon": 16.538697, "tags": {"bench": "yes", "bin": "yes", "highway": "bus_stop", "name": "S\u00f6dra Gryta", "network": "VL", "route_ref": "2", "shelter": "yes"}}, {"type": "node", "id": 13175062837, "lat": 59.6426239, "lon": 16.5388842, "tags": {"bench": "no", "bin": "no", "highway": "bus_stop", "name": "S\u00f6dra Gryta", "network": "VL", "route_ref": "2", "shelter": "no"}}, {"type": "node", "id": 13175062838, "lat": 59.6395147, "lon": 16.535022, "tags": {"bench": "no", "bin": "no", "highway": "bus_stop", "name": "Illerv\u00e4gen", "network": "VL", "route_ref": "2", "shelter": "no"}}, {"type": "node", "id": 13175062839, "lat": 59.6393039, "lon": 16.5343621, "tags": {"bench": "yes", "bin": "yes", "highway": "bus_stop", "name": "Illerv\u00e4gen", "network": "VL", "route_ref": "2", "shelter": "yes"}}, {"type": "node", "id": 13175062888, "lat": 59.6303666, "lon": 16.5469068, "tags": {"bench": "yes", "bin": "yes", "highway": "bus_stop", "name": "Karlfeldtsplatsen", "network": "VL", "route_ref": "5", "shelter": "yes"}}, {"type": "node", "id": 13175062889, "lat": 59.6300213, "lon": 16.546899, "tags": {"bench": "no", "bin": "no", "highway": "bus_stop", "name": "Karlfeldtsplatsen", "network": "VL", "route_ref": "5", "shelter": "no"}}, {"type": "node", "id": 13175062891, "lat": 59.6270016, "lon": 16.5465603, "tags": {"bench": "no", "bin": "no", "highway": "bus_stop", "name": "Dybecksgatan", "network": "VL", "route_ref": "5", "shelter": "no"}}, {"type": "node", "id": 13175062892, "lat": 59.6265, "lon": 16.5469986, "tags": {"bench": "yes", "bin": "yes", "highway": "bus_stop", "name": "Dybecksgatan", "network": "VL", "route_ref": "5", "shelter": "yes"}}, {"type": "node", "id": 13385603658, "lat": 59.6355346, "lon": 16.533067, "tags": {"bench": "no", "bin": "no", "bus": "yes", "departures_board": "no", "highway": "bus_stop", "lit": "yes", "name:signed": "no", "network": "VL", "network:wikidata": "Q10718177", "operator": "VL", "public_transport": "platform", "ref": "1801", "route_ref": "91", "shelter": "no", "tactile_paving": "no"}}]}