{"version": 0.6, "generator": "Overpass API 0.7.62.8 e802775f", "osm3s": {"timestamp_osm_base": "2026-01-15T12:32:26Z", "copyright": "The data included in this document is from www.openstreetmap.org. The data is made available under ODbL."}, "elements": [{"type": "node", "id": 12040016593, "lat": 52.0930307, "lon": 4.3816717}, {"type": "node", "id": 12040016594, "lat": 52.0942764, "lon": 4.3844851}, {"type": "node", "id": 12040016595, "lat": 52.0931574, "lon": 4.385712}, {"type": "node", "id": 12040016596, "lat": 52.0924575, "lon": 4.3845142}, {"type": "node", "id": 12040016597, "lat": 52.0918656, "lon": 4.3832468}, {"type": "node", "id": 12405473860, "lat": 52.0919815, "lon": 4.3829434}, {"type": "way", "id": 1299806696, "nodes": [12040016597, 12040016596, 12040016595, 12040016594, 12040016593, 12405473860, 12040016597], "tags": {"addr:city": "Leidschendam", "addr:housenumber": "1", "addr:postcode": "2262BA", "addr:street": "Burgemeester Banninglaan", "amenity": "hospital", "emergency": "no", "healthcare": "hospital", "name": "HMC Antoniushove", "operator": "Haaglanden Medisch Centrum", "operator:website": "https://www.haaglandenmc.nl/", "operator:wikidata": "Q2619956", "phone": "+31 88 979 79 00", "source": "BAG", "source:date": "2014-02-11", "toilets:wheelchair": "yes", "website": "https://www.haaglandenmc.nl/antoniushove/", "wheelchair": "yes", "wikidata": "Q1903638", "wikipedia": "nl:HMC Antoniushove"}}]}