{"version": 0.6, "generator": "Overpass API 0.7.62.8 e802775f", "osm3s": {"timestamp_osm_base": "2026-01-15T02:18:08Z", "copyright": "The data included in this document is from www.openstreetmap.org. The data is made available under ODbL."}, "elements": [{"type": "node", "id": 25744440, "lat": 43.6930714, "lon": 7.1941645, "tags": {"bus": "yes", "name": "Les Arboras", "public_transport": "stop_position"}}, {"type": "node", "id": 25744628, "lat": 43.6759491, "lon": 7.1991948, "tags": {"bus": "yes", "layer": "-1", "name": "CADAM / Centre Administratif", "public_transport": "stop_position"}}, {"type": "node", "id": 27333892, "lat": 43.6673978, "lon": 7.2076639}, {"type": "node", "id": 27333927, "lat": 43.6700757, "lon": 7.2146923, "tags": {"railway": "switch"}}, {"type": "node", "id": 27333930, "lat": 43.6702436, "lon": 7.2151293}, {"type": "node", "id": 27333931, "lat": 43.6684958, "lon": 7.2106118, "tags": {"SNCF:stop_name": "Nice-St-Augustin", "name": "Nice Saint-Augustin", "official_name": "Nice Saint-Augustin", "operator": "SNCF Gares & Connexions", "operator:wikidata": "Q3098278", "operator:wikipedia": "fr:SNCF Gares & Connexions", "public_transport": "station", "railway": "station", "railway:ref": "NIA", "ref:FR:sncf:resarail": "FRNSA", "ref:FR:uic8": "87756254", "start_date": "2022-09-01", "train": "yes", "uic_ref": "8775625", "wheelchair": "no", "wikidata": "Q3097206", "wikipedia": "fr:Gare de Nice-Saint-Augustin"}}, {"type": "node", "id": 27333941, "lat": 43.6715087, "lon": 7.2184718}, {"type": "node", "id": 27333942, "lat": 43.6720438, "lon": 7.2196332}, {"type": "node", "id": 27333945, "lat": 43.6727953, "lon": 7.2207026}, {"type": "node", "id": 27333948, "lat": 43.6734042, "lon": 7.2213097}, {"type": "node", "id": 27333955, "lat": 43.674252, "lon": 7.2219914}, {"type": "node", "id": 27333973, "lat": 43.6777902, "lon": 7.2247897}, {"type": "node", "id": 27334298, "lat": 43.6786651, "lon": 7.225605}, {"type": "node", "id": 27334310, "lat": 43.6793726, "lon": 7.226432}, {"type": "node", "id": 27334316, "lat": 43.6801538, "lon": 7.22757}, {"type": "node", "id": 27334344, "lat": 43.6833277, "lon": 7.2323559}, {"type": "node", "id": 27334501, "lat": 43.6857861, "lon": 7.2347726}, {"type": "node", "id": 247921458, "lat": 43.6921182, "lon": 7.2000348, "tags": {"bus": "yes", "name": "Les Arboras", "public_transport": "stop_position"}}, {"type": "node", "id": 247921589, "lat": 43.7008464, "lon": 7.2042187, "tags": {"bus": "yes", "name": "Les Freesias", "public_transport": "stop_position"}}, {"type": "node", "id": 247921597, "lat": 43.7025878, "lon": 7.2032217, "tags": {"bus": "yes", "name": "Vallon Ginesti\u00e8re", "public_transport": "stop_position"}}, {"type": "node", "id": 247921610, "lat": 43.7047653, "lon": 7.1999934, "tags": {"bus": "yes", "name": "Castel Fabron", "public_transport": "stop_position"}}, {"type": "node", "id": 247921650, "lat": 43.6885027, "lon": 7.2066509, "tags": {"bus": "yes", "name": "R\u00e9sidence", "public_transport": "stop_position"}}, {"type": "node", "id": 249802979, "lat": 43.6846304, "lon": 7.2095374, "tags": {"bus": "yes", "name": "Jardin Botanique", "public_transport": "stop_position"}}, {"type": "node", "id": 251777323, "lat": 43.6787122, "lon": 7.2188612, "tags": {"bus": "yes", "name": "Batterie", "public_transport": "stop_position"}}, {"type": "node", "id": 251777333, "lat": 43.6858336, "lon": 7.2256525, "tags": {"bus": "yes", "name": "Clair Horizon", "public_transport": "stop_position"}}, {"type": "node", "id": 251777373, "lat": 43.6886743, "lon": 7.2357409, "tags": {"bus": "yes", "name": "Pl\u00e9iade", "public_transport": "stop_position"}}, {"type": "node", "id": 251777417, "lat": 43.6957896, "lon": 7.2352001, "tags": {"bus": "yes", "name": "Boulangerie", "public_transport": "stop_position"}}, {"type": "node", "id": 257075528, "lat": 43.696604, "lon": 7.2332147, "tags": {"bus": "yes", "name": "Rond Point", "public_transport": "stop_position"}}, {"type": "node", "id": 257157707, "lat": 43.6971598, "lon": 7.227427, "tags": {"bus": "yes", "name": "H\u00f4pital Archet 2", "public_transport": "stop_position"}}, {"type": "node", "id": 257157786, "lat": 43.6989068, "lon": 7.2276961, "tags": {"bus": "yes", "name": "Uletta", "public_transport": "stop_position"}}, {"type": "node", "id": 257157791, "lat": 43.7003749, "lon": 7.2249526, "tags": {"bus": "yes", "name": "Le Foyer", "public_transport": "stop_position"}}, {"type": "node", "id": 257157797, "lat": 43.7033646, "lon": 7.2215145, "tags": {"bus": "yes", "name": "Usine / Canta Galet", "public_transport": "stop_position"}}, {"type": "node", "id": 259806106, "lat": 43.6923133, "lon": 7.2107049, "tags": {"bus": "yes", "name": "Azura Park", "public_transport": "stop_position"}}, {"type": "node", "id": 259806116, "lat": 43.690587, "lon": 7.2139117, "tags": {"bus": "yes", "name": "Pignata", "public_transport": "stop_position"}}, {"type": "node", "id": 259806128, "lat": 43.6874651, "lon": 7.2122757, "tags": {"bus": "yes", "name": "\u00c9cole Fabron", "public_transport": "stop_position"}}, {"type": "node", "id": 259806134, "lat": 43.6859163, "lon": 7.2142276, "tags": {"bus": "yes", "name": "Les Belles Terres", "public_transport": "stop_position"}}, {"type": "node", "id": 259806135, "lat": 43.6859009, "lon": 7.2145106, "tags": {"bus": "yes", "name": "Les Belles Terres", "public_transport": "stop_position"}}, {"type": "node", "id": 259806149, "lat": 43.6847942, "lon": 7.2150021, "tags": {"bus": "yes", "name": "Dufy", "public_transport": "stop_position"}}, {"type": "node", "id": 259806158, "lat": 43.6832087, "lon": 7.2181195, "tags": {"bus": "yes", "name": "Place de la Lanterne", "public_transport": "stop_position"}}, {"type": "node", "id": 259806171, "lat": 43.6828849, "lon": 7.2118089, "tags": {"bus": "yes", "name": "Mirandole", "public_transport": "stop_position"}}, {"type": "node", "id": 259806175, "lat": 43.6819067, "lon": 7.2138632, "tags": {"bus": "yes", "name": "Bangui", "public_transport": "stop_position"}}, {"type": "node", "id": 259806195, "lat": 43.6813401, "lon": 7.2144259, "tags": {"bus": "yes", "name": "Primavera", "public_transport": "stop_position"}}, {"type": "node", "id": 259806206, "lat": 43.6804073, "lon": 7.2154537, "tags": {"bus": "yes", "name": "Raoul Dufy", "public_transport": "stop_position"}}, {"type": "node", "id": 259806211, "lat": 43.6792202, "lon": 7.2173537, "tags": {"bus": "yes", "name": "Provinces", "public_transport": "stop_position"}}, {"type": "node", "id": 259981058, "lat": 43.7056457, "lon": 7.2341515}, {"type": "node", "id": 259981059, "lat": 43.7052355, "lon": 7.2345935}, {"type": "node", "id": 259981060, "lat": 43.7047291, "lon": 7.235221}, {"type": "node", "id": 259981061, "lat": 43.7043706, "lon": 7.2358286}, {"type": "node", "id": 259981062, "lat": 43.7042597, "lon": 7.2361088}, {"type": "node", "id": 259981063, "lat": 43.7041579, "lon": 7.2364522}, {"type": "node", "id": 275660679, "lat": 43.7004338, "lon": 7.2339115, "tags": {"bus": "yes", "name": "Auda", "public_transport": "stop_position"}}, {"type": "node", "id": 275660693, "lat": 43.6978045, "lon": 7.2370283, "tags": {"bus": "yes", "name": "Mencarelli", "public_transport": "stop_position"}}, {"type": "node", "id": 275661812, "lat": 43.6810139, "lon": 7.2247495, "tags": {"bus": "yes", "name": "Somora", "public_transport": "stop_position"}}, {"type": "node", "id": 275661840, "lat": 43.6789154, "lon": 7.2238226, "tags": {"bus": "yes", "name": "Costabella", "public_transport": "stop_position"}}, {"type": "node", "id": 277889844, "lat": 43.6763348, "lon": 7.1989845, "tags": {"bus": "yes", "name": "CADAM / Centre Administratif", "public_transport": "stop_position"}}, {"type": "node", "id": 278480327, "lat": 43.701854, "lon": 7.2072336, "tags": {"bus": "yes", "name": "Terron", "public_transport": "stop_position"}}, {"type": "node", "id": 278480331, "lat": 43.7039753, "lon": 7.2075462, "tags": {"bus": "yes", "name": "Orangerie", "public_transport": "stop_position"}}, {"type": "node", "id": 278480334, "lat": 43.7049331, "lon": 7.2078834, "tags": {"bus": "yes", "name": "Groupe Scolaire / Moretti", "public_transport": "stop_position"}}, {"type": "node", "id": 323131258, "lat": 43.6895519, "lon": 7.2192135, "tags": {"bus": "yes", "name": "Les Oliviers / Fabron", "public_transport": "stop_position"}}, {"type": "node", "id": 368239348, "lat": 43.6849973, "lon": 7.2230886, "tags": {"bus": "yes", "name": "Montr\u00e9al", "public_transport": "stop_position"}}, {"type": "node", "id": 368239352, "lat": 43.687137, "lon": 7.2185058, "tags": {"bus": "yes", "name": "Isabella", "public_transport": "stop_position"}}, {"type": "node", "id": 368239570, "lat": 43.6844565, "lon": 7.2194432, "tags": {"bus": "yes", "name": "Florval", "public_transport": "stop_position"}}, {"type": "node", "id": 460594481, "lat": 43.7035901, "lon": 7.2438799, "tags": {"source": "cadastre-dgi-fr source : Direction G\u00e9n\u00e9rale des Imp\u00f4ts - Cadastre. Mise \u00e0 jour : 2009"}}, {"type": "node", "id": 460594495, "lat": 43.7038823, "lon": 7.2427134, "tags": {"source": "cadastre-dgi-fr source : Direction G\u00e9n\u00e9rale des Imp\u00f4ts - Cadastre. Mise \u00e0 jour : 2009"}}, {"type": "node", "id": 460594516, "lat": 43.7040514, "lon": 7.2415519, "tags": {"source": "cadastre-dgi-fr source : Direction G\u00e9n\u00e9rale des Imp\u00f4ts - Cadastre. Mise \u00e0 jour : 2009"}}, {"type": "node", "id": 460594528, "lat": 43.7041379, "lon": 7.240532, "tags": {"source": "cadastre-dgi-fr source : Direction G\u00e9n\u00e9rale des Imp\u00f4ts - Cadastre. Mise \u00e0 jour : 2009"}}, {"type": "node", "id": 460594539, "lat": 43.7041134, "lon": 7.2391486, "tags": {"source": "cadastre-dgi-fr source : Direction G\u00e9n\u00e9rale des Imp\u00f4ts - Cadastre. Mise \u00e0 jour : 2009"}}, {"type": "node", "id": 460594560, "lat": 43.7040367, "lon": 7.2372502, "tags": {"source": "cadastre-dgi-fr source : Direction G\u00e9n\u00e9rale des Imp\u00f4ts - Cadastre. Mise \u00e0 jour : 2009"}}, {"type": "node", "id": 622358501, "lat": 43.676903, "lon": 7.2227339, "tags": {"bus": "yes", "name": "Eden Park", "public_transport": "stop_position"}}, {"type": "node", "id": 706799512, "lat": 43.6740707, "lon": 7.1896566, "tags": {"bus": "yes", "name": "Jean M\u00e9decin", "public_transport": "stop_position"}}, {"type": "node", "id": 756675661, "lat": 43.6872768, "lon": 7.2271165, "tags": {"bus": "yes", "name": "Constellations / IUT", "public_transport": "stop_position"}}, {"type": "node", "id": 768911939, "lat": 43.6910997, "lon": 7.2198319, "tags": {"bus": "yes", "name": "Floralies", "public_transport": "stop_position"}}, {"type": "node", "id": 768911946, "lat": 43.6923329, "lon": 7.2173701, "tags": {"bus": "yes", "name": "G\u00e9ronima", "public_transport": "stop_position"}}, {"type": "node", "id": 824528196, "lat": 43.6921661, "lon": 7.2205623, "tags": {"bus": "yes", "name": "Beau Terron", "public_transport": "stop_position"}}, {"type": "node", "id": 944549410, "lat": 43.6816977, "lon": 7.229927}, {"type": "node", "id": 944549474, "lat": 43.6926737, "lon": 7.2437824}, {"type": "node", "id": 1022155482, "lat": 43.6826704, "lon": 7.2227175, "tags": {"bus": "yes", "name": "Arcadia", "public_transport": "stop_position"}}, {"type": "node", "id": 1022155503, "lat": 43.6843994, "lon": 7.2170895, "tags": {"bus": "yes", "name": "Azurelle", "public_transport": "stop_position"}}, {"type": "node", "id": 1022155514, "lat": 43.6846168, "lon": 7.2167285, "tags": {"bus": "yes", "name": "Azurelle", "public_transport": "stop_position"}}, {"type": "node", "id": 1022155595, "lat": 43.6789946, "lon": 7.2255586, "tags": {"bus": "yes", "name": "Mutuelle Agricole", "public_transport": "stop_position"}}, {"type": "node", "id": 1055439758, "lat": 43.6808404, "lon": 7.2073917, "tags": {"bus": "yes", "name": "Caucade / Place Sainte-Marguerite", "public_transport": "stop_position"}}, {"type": "node", "id": 1122841039, "lat": 43.6718223, "lon": 7.2192017}, {"type": "node", "id": 1330003842, "lat": 43.6954919, "lon": 7.2172414, "tags": {"bus": "yes", "name": "Le Centenaire", "public_transport": "stop_position"}}, {"type": "node", "id": 1330003879, "lat": 43.6923076, "lon": 7.2171004, "tags": {"bus": "yes", "name": "G\u00e9ronima", "public_transport": "stop_position"}}, {"type": "node", "id": 1371044975, "lat": 43.6724137, "lon": 7.2202196}, {"type": "node", "id": 1371142197, "lat": 43.6694542, "lon": 7.2178668, "tags": {"bus": "yes", "name": "Parc Phoenix", "public_transport": "stop_position"}}, {"type": "node", "id": 1371152144, "lat": 43.6699192, "lon": 7.2152873, "tags": {"railway": "level_crossing"}}, {"type": "node", "id": 1486397343, "lat": 43.6849555, "lon": 7.2347243, "tags": {"bench": "no", "bin": "no", "bus": "yes", "departures_board": "timetable", "highway": "bus_stop", "name": "Sainte-H\u00e9l\u00e8ne", "network": "Lignes d'Azur", "network:wikidata": "Q3240177", "public_transport": "platform", "route_ref": "34", "shelter": "no", "tactile_paving": "no", "wheelchair": "no"}}, {"type": "node", "id": 1486397348, "lat": 43.6850042, "lon": 7.2351578, "tags": {"bench": "no", "bin": "no", "bus": "yes", "departures_board": "timetable", "highway": "bus_stop", "name": "Sainte-H\u00e9l\u00e8ne", "network": "Lignes d'Azur", "network:wikidata": "Q3240177", "public_transport": "platform", "route_ref": "34", "shelter": "no", "tactile_paving": "no", "wheelchair": "no"}}, {"type": "node", "id": 1486397353, "lat": 43.6867593, "lon": 7.2368517, "tags": {"bus": "yes", "name": "Fabron", "public_transport": "stop_position"}}, {"type": "node", "id": 1487946356, "lat": 43.6718225, "lon": 7.2099227}, {"type": "node", "id": 1500269872, "lat": 43.6778027, "lon": 7.2050091, "tags": {"railway": "level_crossing"}}, {"type": "node", "id": 1500269888, "lat": 43.6828798, "lon": 7.1984492, "tags": {"bus": "yes", "name": "Robini", "public_transport": "stop_position"}}, {"type": "node", "id": 1536647666, "lat": 43.6885199, "lon": 7.2311378, "tags": {"bus": "yes", "name": "Ch\u00e2teau Saint-Anne", "public_transport": "stop_position"}}, {"type": "node", "id": 1561662931, "lat": 43.6986919, "lon": 7.204424, "tags": {"bus": "yes", "name": "Belv\u00e9d\u00e8re", "public_transport": "stop_position"}}, {"type": "node", "id": 1599982319, "lat": 43.6795707, "lon": 7.2305276, "tags": {"bus": "yes", "name": "Carras / Promenade", "public_transport": "stop_position"}}, {"type": "node", "id": 1599982340, "lat": 43.6840286, "lon": 7.2350168, "tags": {"bus": "yes", "name": "Sainte-H\u00e9l\u00e8ne / Promenade", "public_transport": "stop_position"}}, {"type": "node", "id": 1599982343, "lat": 43.6867435, "lon": 7.2381754, "tags": {"bus": "yes", "name": "Fabron / Promenade", "public_transport": "stop_position"}}, {"type": "node", "id": 1600219095, "lat": 43.6757204, "lon": 7.1993065, "tags": {"bus": "yes", "name": "CADAM / Centre Administratif", "public_transport": "stop_position"}}, {"type": "node", "id": 1600219104, "lat": 43.6754328, "lon": 7.2013279, "tags": {"bench": "yes", "bin": "yes", "bus": "yes", "highway": "bus_stop", "lit": "yes", "name": "Santoline", "network": "Lignes d'Azur", "public_transport": "platform", "shelter": "yes", "tactile_paving": "no", "wheelchair": "limited"}}, {"type": "node", "id": 1600219109, "lat": 43.6723902, "lon": 7.2019461, "tags": {"bench": "yes", "bin": "yes", "bus": "yes", "highway": "bus_stop", "lit": "no", "name": "Bois de Boulogne", "network": "Lignes d'Azur", "public_transport": "platform", "shelter": "yes", "tactile_paving": "yes"}}, {"type": "node", "id": 1600219126, "lat": 43.6735993, "lon": 7.22653, "tags": {"bench": "yes", "bin": "yes", "bus": "yes", "highway": "bus_stop", "lit": "yes", "name": "Californie / Promenade", "network": "Lignes d'Azur", "public_transport": "platform", "route_ref": "12+", "shelter": "yes", "wheelchair": "yes"}}, {"type": "node", "id": 1600275390, "lat": 43.6729571, "lon": 7.2020768, "tags": {"bus": "yes", "name": "Bois de Boulogne", "public_transport": "stop_position"}}, {"type": "node", "id": 1600275398, "lat": 43.6752346, "lon": 7.2016758, "tags": {"bus": "yes", "name": "Santoline", "public_transport": "stop_position"}}, {"type": "node", "id": 1600853850, "lat": 43.7046807, "lon": 7.2170781, "tags": {"bus": "yes", "name": "La Croix", "public_transport": "stop_position"}}, {"type": "node", "id": 1600853851, "lat": 43.7027734, "lon": 7.2195471, "tags": {"bus": "yes", "name": "Raccourci", "public_transport": "stop_position"}}, {"type": "node", "id": 1600853852, "lat": 43.7009195, "lon": 7.2214212, "tags": {"bus": "yes", "name": "La Massabella", "public_transport": "stop_position"}}, {"type": "node", "id": 1600853853, "lat": 43.699643, "lon": 7.2231252, "tags": {"bus": "yes", "name": "Belle Ni\u00e7oise", "public_transport": "stop_position"}}, {"type": "node", "id": 1600853854, "lat": 43.6983914, "lon": 7.2248108, "tags": {"bus": "yes", "name": "La Colline", "public_transport": "stop_position"}}, {"type": "node", "id": 1600853856, "lat": 43.6968332, "lon": 7.2280314, "tags": {"bus": "yes", "name": "H\u00f4pital Archet 1", "public_transport": "stop_position"}}, {"type": "node", "id": 1600853857, "lat": 43.6947478, "lon": 7.2286601, "tags": {"bus": "yes", "name": "Chemin de l'Archet", "public_transport": "stop_position"}}, {"type": "node", "id": 1600853858, "lat": 43.6931957, "lon": 7.2283932, "tags": {"bus": "yes", "name": "Abbaye de Roseland", "public_transport": "stop_position"}}, {"type": "node", "id": 1600853859, "lat": 43.6925523, "lon": 7.2291634, "tags": {"bus": "yes", "name": "Coll\u00e8ge de l'Archet", "public_transport": "stop_position"}}, {"type": "node", "id": 1600853861, "lat": 43.6939972, "lon": 7.2307192, "tags": {"bus": "yes", "name": "Parc des Miniatures", "public_transport": "stop_position"}}, {"type": "node", "id": 1600853862, "lat": 43.6926485, "lon": 7.2329657, "tags": {"bus": "yes", "name": "R\u00e9sidence Universitaire", "public_transport": "stop_position"}}, {"type": "node", "id": 1600853863, "lat": 43.6919364, "lon": 7.2336441, "tags": {"bus": "yes", "name": "Imp\u00e9ratrice Eug\u00e9nie", "public_transport": "stop_position"}}, {"type": "node", "id": 1600853864, "lat": 43.6921487, "lon": 7.2373582, "tags": {"bus": "yes", "name": "Facult\u00e9 de Lettres", "public_transport": "stop_position"}}, {"type": "node", "id": 1600853867, "lat": 43.6925719, "lon": 7.2388391, "tags": {"bus": "yes", "name": "Saint-Honor\u00e9", "public_transport": "stop_position"}}, {"type": "node", "id": 1600916922, "lat": 43.6968578, "lon": 7.2281141, "tags": {"bus": "yes", "name": "H\u00f4pital Archet 1", "public_transport": "stop_position"}}, {"type": "node", "id": 1782622435, "lat": 43.6986944, "lon": 7.2366571, "tags": {"bus": "yes", "name": "La Pin\u00e8de", "public_transport": "stop_position"}}, {"type": "node", "id": 2049720582, "lat": 43.6785718, "lon": 7.2286439, "tags": {"bin": "no", "bus": "yes", "highway": "bus_stop", "name": "Carras / Fr\u00e9mont", "network": "Lignes d'Azur", "public_transport": "platform", "route_ref": "32;51;60/61", "shelter": "yes", "tactile_paving": "no", "wheelchair": "no"}}, {"type": "node", "id": 2049735148, "lat": 43.6963497, "lon": 7.2337065, "tags": {"bus": "yes", "name": "Rond Point", "public_transport": "stop_position"}}, {"type": "node", "id": 2049735149, "lat": 43.6977726, "lon": 7.2305676, "tags": {"bus": "yes", "name": "Colette", "public_transport": "stop_position"}}, {"type": "node", "id": 2049767000, "lat": 43.69331, "lon": 7.2104901, "tags": {"bus": "yes", "name": "Col de Spagnol", "public_transport": "stop_position"}}, {"type": "node", "id": 2049767001, "lat": 43.6976769, "lon": 7.209378, "tags": {"bus": "yes", "name": "Chez Cane", "public_transport": "stop_position"}}, {"type": "node", "id": 2049820383, "lat": 43.6901008, "lon": 7.2134865, "tags": {"bus": "yes", "name": "Mont Fabron", "public_transport": "stop_position"}}, {"type": "node", "id": 2049820386, "lat": 43.6825809, "lon": 7.2249486, "tags": {"bus": "yes", "name": "L'Or\u00e9e", "public_transport": "stop_position"}}, {"type": "node", "id": 2049820396, "lat": 43.6780684, "lon": 7.2282288, "tags": {"bus": "yes", "name": "La Madrague", "name:oc": "La Madraga", "public_transport": "stop_position", "source:name:oc": "ieo-bdtopoc"}}, {"type": "node", "id": 2049820398, "lat": 43.6786674, "lon": 7.2242536, "tags": {"bus": "yes", "name": "Costabella", "public_transport": "stop_position"}}, {"type": "node", "id": 2111264428, "lat": 43.6904038, "lon": 7.2062296, "tags": {"bus": "yes", "name": "Jardins Corniche Fleurie", "public_transport": "stop_position"}}, {"type": "node", "id": 2138735980, "lat": 43.6826547, "lon": 7.2226473, "tags": {"bus": "yes", "highway": "bus_stop", "name": "Arcadia", "public_transport": "platform", "tactile_paving": "yes", "wheelchair": "yes"}}, {"type": "node", "id": 2138743802, "lat": 43.6831904, "lon": 7.2231242, "tags": {"bus": "yes", "highway": "bus_stop", "name": "Arcadia", "public_transport": "platform", "tactile_paving": "yes", "wheelchair": "yes"}}, {"type": "node", "id": 2138744367, "lat": 43.6828414, "lon": 7.222176, "tags": {"bus": "yes", "highway": "bus_stop", "name": "Arcadia", "public_transport": "platform", "tactile_paving": "yes", "wheelchair": "yes"}}, {"type": "node", "id": 2138971077, "lat": 43.6807692, "lon": 7.2207624, "tags": {"bench": "yes", "bin": "no", "bus": "yes", "highway": "bus_stop", "lit": "yes", "name": "Magnolias", "public_transport": "platform", "shelter": "yes", "tactile_paving": "yes", "wheelchair": "yes"}}, {"type": "node", "id": 2138979594, "lat": 43.6786989, "lon": 7.2187708, "tags": {"bench": "yes", "bin": "yes", "bus": "yes", "highway": "bus_stop", "lit": "yes", "name": "Batterie", "public_transport": "platform", "shelter": "yes", "tactile_paving": "yes"}}, {"type": "node", "id": 2138981511, "lat": 43.677728, "lon": 7.2188672, "tags": {"bench": "yes", "bin": "yes", "bus": "yes", "highway": "bus_stop", "lit": "yes", "name": "Batterie", "network": "Lignes d'Azur", "public_transport": "platform", "route_ref": "17", "shelter": "yes"}}, {"type": "node", "id": 2139861206, "lat": 43.6872859, "lon": 7.2270513, "tags": {"bench": "yes", "bin": "yes", "bus": "yes", "highway": "bus_stop", "lit": "yes", "name": "Constellations / IUT", "public_transport": "platform", "shelter": "yes", "tactile_paving": "yes"}}, {"type": "node", "id": 2142941268, "lat": 43.6825741, "lon": 7.2201235, "tags": {"bus": "yes", "name": "Corniche Fleurie", "public_transport": "stop_position"}}, {"type": "node", "id": 2142942624, "lat": 43.6828379, "lon": 7.2204265, "tags": {"bus": "yes", "name": "Corniche Fleurie", "public_transport": "stop_position"}}, {"type": "node", "id": 2169042212, "lat": 43.6858383, "lon": 7.2255838, "tags": {"bench": "yes", "bin": "yes", "bus": "yes", "highway": "bus_stop", "lit": "yes", "name": "Clair Horizon", "public_transport": "platform", "shelter": "yes", "tactile_paving": "yes", "wheelchair": "yes"}}, {"type": "node", "id": 2178623687, "lat": 43.6807722, "lon": 7.2207065, "tags": {"bus": "yes", "name": "Magnolias", "public_transport": "stop_position"}}, {"type": "node", "id": 2191423048, "lat": 43.6803676, "lon": 7.2302635, "tags": {"railway": "level_crossing"}}, {"type": "node", "id": 2196151351, "lat": 43.6776304, "lon": 7.2265533, "tags": {"bus": "yes", "name": "Sainte-Marguerite", "public_transport": "stop_position"}}, {"type": "node", "id": 2205078008, "lat": 43.675587, "lon": 7.2206143, "tags": {"bench": "no", "bin": "no", "bus": "yes", "departures_board": "timetable", "highway": "bus_stop", "lit": "yes", "name": "Les Eucalyptus", "network": "Lignes d'Azur", "public_transport": "platform", "shelter": "no", "tactile_paving": "no", "wheelchair": "no"}}, {"type": "node", "id": 2206387980, "lat": 43.6756161, "lon": 7.2207495, "tags": {"bench": "yes", "bin": "no", "bus": "yes", "highway": "bus_stop", "lit": "yes", "name": "Les Eucalyptus", "network": "Lignes d'Azur", "public_transport": "platform", "route_ref": "17", "shelter": "yes", "tactile_paving": "no", "wheelchair": "no"}}, {"type": "node", "id": 2214890186, "lat": 43.6809727, "lon": 7.2307967, "tags": {"crossing": "traffic_signals", "railway": "crossing"}}, {"type": "node", "id": 2229349960, "lat": 43.674241, "lon": 7.2267394, "tags": {"railway": "level_crossing"}}, {"type": "node", "id": 2278525593, "lat": 43.6816153, "lon": 7.2313905, "tags": {"railway": "crossing"}}, {"type": "node", "id": 2279724136, "lat": 43.6823409, "lon": 7.2320856, "tags": {"railway": "crossing"}}, {"type": "node", "id": 2279726713, "lat": 43.682439, "lon": 7.2317703, "tags": {"bench": "no", "bin": "no", "bus": "yes", "departures_board": "timetable", "highway": "bus_stop", "lit": "yes", "name": "Vallon Barla", "network": "Lignes d'Azur", "network:wikidata": "Q3240177", "public_transport": "platform", "route_ref": "34", "shelter": "no", "tactile_paving": "yes", "wheelchair": "yes"}}, {"type": "node", "id": 2279726732, "lat": 43.6826075, "lon": 7.2318406, "tags": {"bench": "yes", "bin": "no", "bus": "yes", "departures_board": "timetable", "highway": "bus_stop", "lit": "no", "name": "Vallon Barla", "network": "Lignes d'Azur", "network:wikidata": "Q3240177", "public_transport": "platform", "route_ref": "34", "shelter": "no", "tactile_paving": "yes", "wheelchair": "yes"}}, {"type": "node", "id": 2279735583, "lat": 43.6840402, "lon": 7.2310926, "tags": {"bus": "yes", "name": "Dauphin\u00e9", "public_transport": "stop_position"}}, {"type": "node", "id": 2279735584, "lat": 43.6839831, "lon": 7.231068, "tags": {"bench": "no", "bin": "no", "bus": "yes", "departures_board": "timetable", "highway": "bus_stop", "lit": "no", "name": "Dauphin\u00e9", "public_transport": "platform", "shelter": "no", "tactile_paving": "no", "wheelchair": "no"}}, {"type": "node", "id": 2279735711, "lat": 43.6840893, "lon": 7.2311016, "tags": {"bench": "no", "bin": "no", "bus": "yes", "departures_board": "timetable", "highway": "bus_stop", "lit": "no", "name": "Dauphin\u00e9", "public_transport": "platform", "shelter": "no", "tactile_paving": "no", "wheelchair": "no"}}, {"type": "node", "id": 2279741747, "lat": 43.6871699, "lon": 7.2294738, "tags": {"bench": "yes", "bin": "no", "bus": "yes", "departures_board": "timetable", "highway": "bus_stop", "lit": "yes", "name": "Val d'Azur", "public_transport": "platform", "shelter": "no", "tactile_paving": "no", "wheelchair": "no"}}, {"type": "node", "id": 2279741748, "lat": 43.6870974, "lon": 7.2298062, "tags": {"bench": "yes", "bin": "no", "bus": "yes", "departures_board": "timetable", "highway": "bus_stop", "lit": "yes", "name": "Val d'Azur", "public_transport": "platform", "shelter": "no", "tactile_paving": "no", "wheelchair": "no"}}, {"type": "node", "id": 2279743381, "lat": 43.6882969, "lon": 7.2288633, "tags": {"bench": "no", "bin": "no", "bus": "yes", "departures_board": "timetable", "highway": "bus_stop", "lit": "yes", "name": "Vallon", "public_transport": "platform", "shelter": "no", "tactile_paving": "no", "wheelchair": "no"}}, {"type": "node", "id": 2279743623, "lat": 43.6884748, "lon": 7.2288613, "tags": {"bench": "no", "bin": "no", "bus": "yes", "departures_board": "timetable", "highway": "bus_stop", "lit": "yes", "name": "Vallon", "public_transport": "platform", "shelter": "no", "tactile_paving": "no", "wheelchair": "no"}}, {"type": "node", "id": 2281082834, "lat": 43.6856019, "lon": 7.2255242, "tags": {"bench": "yes", "bin": "yes", "bus": "yes", "departures_board": "timetable", "highway": "bus_stop", "lit": "yes", "name": "Clair Horizon", "public_transport": "platform", "shelter": "no", "tactile_paving": "yes", "wheelchair": "yes"}}, {"type": "node", "id": 2289464580, "lat": 43.68591, "lon": 7.2303266, "tags": {"bench": "no", "bin": "no", "bus": "yes", "departures_board": "timetable", "highway": "bus_stop", "lit": "yes", "name": "Deux Cypr\u00e8s", "public_transport": "platform", "shelter": "no", "tactile_paving": "no", "wheelchair": "no"}}, {"type": "node", "id": 2289464582, "lat": 43.6858979, "lon": 7.2302132, "tags": {"bench": "no", "bin": "no", "bus": "yes", "departures_board": "timetable", "highway": "bus_stop", "lit": "yes", "name": "Deux Cypr\u00e8s", "public_transport": "platform", "shelter": "no", "tactile_paving": "no", "wheelchair": "no"}}, {"type": "node", "id": 2290787875, "lat": 43.6893281, "lon": 7.2281823, "tags": {"bench": "no", "bin": "no", "bus": "yes", "highway": "bus_stop", "lit": "yes", "name": "Trois Vall\u00e9es", "public_transport": "platform", "shelter": "yes", "tactile_paving": "no", "wheelchair": "no"}}, {"type": "node", "id": 2290793391, "lat": 43.6898274, "lon": 7.2277148, "tags": {"bench": "yes", "bin": "yes", "bus": "yes", "departures_board": "timetable", "highway": "platform", "lit": "yes", "name": "Trois Vall\u00e9es", "public_transport": "platform", "shelter": "no", "tactile_paving": "no", "wheelchair": "no"}}, {"type": "node", "id": 2304005077, "lat": 43.6752434, "lon": 7.2017452, "tags": {"bench": "yes", "bin": "yes", "bus": "yes", "highway": "bus_stop", "lit": "yes", "name": "Santoline", "network": "Lignes d'Azur", "public_transport": "platform", "shelter": "yes", "tactile_paving": "no", "wheelchair": "limited"}}, {"type": "node", "id": 2305334863, "lat": 43.690572, "lon": 7.2236352, "tags": {"bench": "no", "bus": "yes", "highway": "bus_stop", "name": "L'Usine / Terron", "public_transport": "platform", "shelter": "no", "tactile_paving": "no", "wheelchair": "no"}}, {"type": "node", "id": 2305334949, "lat": 43.6904541, "lon": 7.2236452, "tags": {"bench": "no", "bus": "yes", "highway": "bus_stop", "name": "L'Usine / Terron", "public_transport": "platform", "shelter": "no", "tactile_paving": "no", "wheelchair": "no"}}, {"type": "node", "id": 2308627221, "lat": 43.6730448, "lon": 7.2021369, "tags": {"bench": "yes", "bin": "yes", "bus": "yes", "highway": "bus_stop", "lit": "yes", "name": "Bois de Boulogne", "network": "Lignes d'Azur", "public_transport": "platform", "shelter": "yes", "tactile_paving": "yes", "wheelchair": "yes"}}, {"type": "node", "id": 2437598101, "lat": 43.6738324, "lon": 7.2216597}, {"type": "node", "id": 2437598104, "lat": 43.6742376, "lon": 7.2220312}, {"type": "node", "id": 2437598108, "lat": 43.6733833, "lon": 7.2213428}, {"type": "node", "id": 2437598109, "lat": 43.6727638, "lon": 7.2207313}, {"type": "node", "id": 2437598111, "lat": 43.6723949, "lon": 7.2202653}, {"type": "node", "id": 2437598114, "lat": 43.6720143, "lon": 7.2196551}, {"type": "node", "id": 2437598116, "lat": 43.6717955, "lon": 7.2192277}, {"type": "node", "id": 2437598118, "lat": 43.6714822, "lon": 7.2184944}, {"type": "node", "id": 2437598121, "lat": 43.6702689, "lon": 7.2152994}, {"type": "node", "id": 2437598122, "lat": 43.6699456, "lon": 7.214451}, {"type": "node", "id": 2437631590, "lat": 43.668636, "lon": 7.2110263}, {"type": "node", "id": 2437631592, "lat": 43.6678725, "lon": 7.2090177}, {"type": "node", "id": 2437677483, "lat": 43.6670762, "lon": 7.2068714, "tags": {"railway": "signal", "source": "BDOrtho IGN"}}, {"type": "node", "id": 2439273566, "lat": 43.6793512, "lon": 7.2264629}, {"type": "node", "id": 2439273567, "lat": 43.6926403, "lon": 7.2438097}, {"type": "node", "id": 2439273569, "lat": 43.6786476, "lon": 7.22564}, {"type": "node", "id": 2439273576, "lat": 43.6857667, "lon": 7.2348161}, {"type": "node", "id": 2439273583, "lat": 43.6833028, "lon": 7.2323934}, {"type": "node", "id": 2439273585, "lat": 43.6777869, "lon": 7.2248358}, {"type": "node", "id": 2439273591, "lat": 43.6754824, "lon": 7.223009}, {"type": "node", "id": 2439273595, "lat": 43.6809402, "lon": 7.2288333}, {"type": "node", "id": 2439273596, "lat": 43.6907088, "lon": 7.2412616}, {"type": "node", "id": 2439273603, "lat": 43.688998, "lon": 7.2390045}, {"type": "node", "id": 2439708572, "lat": 43.6877175, "lon": 7.2373268}, {"type": "node", "id": 2710574019, "lat": 43.6838555, "lon": 7.2329978}, {"type": "node", "id": 2710574021, "lat": 43.6838745, "lon": 7.2329604}, {"type": "node", "id": 2710574027, "lat": 43.6852228, "lon": 7.2342436}, {"type": "node", "id": 2710574029, "lat": 43.685242, "lon": 7.2342012}, {"type": "node", "id": 2710574037, "lat": 43.6861785, "lon": 7.2352944}, {"type": "node", "id": 2710574039, "lat": 43.6861972, "lon": 7.2352594}, {"type": "node", "id": 2710596444, "lat": 43.6738152, "lon": 7.2216956}, {"type": "node", "id": 2710596446, "lat": 43.6782159, "lon": 7.2252201}, {"type": "node", "id": 2710596447, "lat": 43.6782324, "lon": 7.2251816}, {"type": "node", "id": 2710596448, "lat": 43.6790069, "lon": 7.2260395}, {"type": "node", "id": 2710596449, "lat": 43.6790255, "lon": 7.2259936}, {"type": "node", "id": 2710596451, "lat": 43.6796029, "lon": 7.2268106}, {"type": "node", "id": 2710596452, "lat": 43.6796282, "lon": 7.2267769}, {"type": "node", "id": 2710596455, "lat": 43.6801326, "lon": 7.2276025}, {"type": "node", "id": 2710596456, "lat": 43.6805333, "lon": 7.2282154}, {"type": "node", "id": 2710596457, "lat": 43.6805557, "lon": 7.2281848}, {"type": "node", "id": 2710596458, "lat": 43.6809654, "lon": 7.2288061}, {"type": "node", "id": 2710596459, "lat": 43.6813011, "lon": 7.2293866}, {"type": "node", "id": 2710596460, "lat": 43.6813248, "lon": 7.2293572}, {"type": "node", "id": 2710596462, "lat": 43.682307, "lon": 7.2309296}, {"type": "node", "id": 2710596463, "lat": 43.6823347, "lon": 7.2309026}, {"type": "node", "id": 2710596464, "lat": 43.6829547, "lon": 7.2319069}, {"type": "node", "id": 2710596465, "lat": 43.6829839, "lon": 7.2318869}, {"type": "node", "id": 2710596466, "lat": 43.6835692, "lon": 7.2327077}, {"type": "node", "id": 2710596467, "lat": 43.6835939, "lon": 7.2326752}, {"type": "node", "id": 3121344068, "lat": 43.6715846, "lon": 7.2100046, "tags": {"railway": "level_crossing"}}, {"type": "node", "id": 3224928875, "lat": 43.6877401, "lon": 7.237289}, {"type": "node", "id": 3224928877, "lat": 43.6874267, "lon": 7.2369427}, {"type": "node", "id": 3224928878, "lat": 43.6874448, "lon": 7.2369054}, {"type": "node", "id": 3224928890, "lat": 43.6816805, "lon": 7.2299672}, {"type": "node", "id": 3224928891, "lat": 43.6820566, "lon": 7.2304798}, {"type": "node", "id": 3224928892, "lat": 43.6820376, "lon": 7.2305128}, {"type": "node", "id": 3224939069, "lat": 43.6665946, "lon": 7.2054154}, {"type": "node", "id": 3224939070, "lat": 43.6665722, "lon": 7.205429}, {"type": "node", "id": 3406242132, "lat": 43.6697585, "lon": 7.2165815, "tags": {"railway": "level_crossing"}}, {"type": "node", "id": 3406242133, "lat": 43.6739641, "lon": 7.2264016}, {"type": "node", "id": 3406242134, "lat": 43.6694434, "lon": 7.2191341, "tags": {"name": "Parc Phoenix", "public_transport": "stop_position", "railway": "tram_stop", "start_date": "2018-06-30", "tram": "yes"}}, {"type": "node", "id": 3406242135, "lat": 43.6693896, "lon": 7.2197338}, {"type": "node", "id": 3406242138, "lat": 43.6745018, "lon": 7.2269152}, {"type": "node", "id": 3406242139, "lat": 43.6804756, "lon": 7.2303581, "tags": {"railway": "crossing"}}, {"type": "node", "id": 3406242142, "lat": 43.6835999, "lon": 7.2335757, "tags": {"name": "Sainte-H\u00e9l\u00e8ne", "public_transport": "stop_position", "railway": "tram_stop", "start_date": "2018-06-30", "tram": "yes"}}, {"type": "node", "id": 3406242143, "lat": 43.6696677, "lon": 7.2172888, "tags": {"railway": "level_crossing"}}, {"type": "node", "id": 3406242147, "lat": 43.679988, "lon": 7.2299919}, {"type": "node", "id": 3406242151, "lat": 43.6900992, "lon": 7.2420137}, {"type": "node", "id": 3406242153, "lat": 43.6831647, "lon": 7.2331402}, {"type": "node", "id": 3406242155, "lat": 43.6757314, "lon": 7.2276549}, {"type": "node", "id": 3406242158, "lat": 43.6735631, "lon": 7.225872}, {"type": "node", "id": 3406242159, "lat": 43.6788286, "lon": 7.2293328}, {"type": "node", "id": 3406242162, "lat": 43.6695309, "lon": 7.2202022, "tags": {"railway": "crossing"}}, {"type": "node", "id": 3406242163, "lat": 43.6826205, "lon": 7.2324398}, {"type": "node", "id": 3406242165, "lat": 43.685685, "lon": 7.2356728}, {"type": "node", "id": 3406242166, "lat": 43.6764603, "lon": 7.2280666}, {"type": "node", "id": 3406242167, "lat": 43.6698921, "lon": 7.2155172}, {"type": "node", "id": 3406242169, "lat": 43.6700369, "lon": 7.2143213}, {"type": "node", "id": 3406242170, "lat": 43.6871953, "lon": 7.2375247, "tags": {"railway": "level_crossing"}}, {"type": "node", "id": 3406242171, "lat": 43.6864076, "lon": 7.2365408}, {"type": "node", "id": 3511444399, "lat": 43.6895649, "lon": 7.2411915, "tags": {"name": "Lenval - H\u00f4pital", "public_transport": "stop_position", "railway": "tram_stop", "start_date": "2018-06-30", "tram": "yes"}}, {"type": "node", "id": 3511444400, "lat": 43.6868445, "lon": 7.2370795, "tags": {"name": "Fabron", "public_transport": "stop_position", "railway": "tram_stop", "start_date": "2018-06-30", "tram": "yes"}}, {"type": "node", "id": 3511444401, "lat": 43.6807453, "lon": 7.2305975, "tags": {"name": "Carras", "public_transport": "stop_position", "railway": "tram_stop", "start_date": "2018-06-30", "tram": "yes"}}, {"type": "node", "id": 3511444402, "lat": 43.6769068, "lon": 7.2283234, "tags": {"name": "Ferber", "public_transport": "stop_position", "railway": "tram_stop", "start_date": "2018-06-30", "tram": "yes"}}, {"type": "node", "id": 3511444403, "lat": 43.6723016, "lon": 7.2240993, "tags": {"name": "Cassin Kirchner", "public_transport": "stop_position", "railway": "tram_stop", "start_date": "2018-06-30", "tram": "yes"}}, {"type": "node", "id": 3698594599, "lat": 43.7038042, "lon": 7.2431118}, {"type": "node", "id": 3698594600, "lat": 43.7039719, "lon": 7.2421513}, {"type": "node", "id": 3698594601, "lat": 43.7040989, "lon": 7.2410369}, {"type": "node", "id": 3698594602, "lat": 43.7041425, "lon": 7.2398151}, {"type": "node", "id": 3698594603, "lat": 43.7040854, "lon": 7.2367886}, {"type": "node", "id": 3698594604, "lat": 43.704032, "lon": 7.2376104}, {"type": "node", "id": 3759247682, "lat": 43.6762529, "lon": 7.1989188, "tags": {"bench": "yes", "bin": "yes", "bus": "yes", "highway": "bus_stop", "lit": "yes", "name": "CADAM / Centre Administratif", "public_transport": "platform", "shelter": "yes", "tactile_paving": "yes", "wheelchair": "yes"}}, {"type": "node", "id": 3759247683, "lat": 43.6758989, "lon": 7.1991186, "tags": {"bench": "yes", "bin": "yes", "bus": "yes", "highway": "bus_stop", "layer": "-1", "lit": "yes", "name": "CADAM / Centre Administratif", "public_transport": "platform", "shelter": "yes", "tactile_paving": "yes", "wheelchair": "yes"}}, {"type": "node", "id": 3759248967, "lat": 43.6808654, "lon": 7.1993625, "tags": {"bench": "yes", "bin": "yes", "bus": "yes", "departures_board": "timetable", "highway": "bus_stop", "lit": "yes", "map": "no", "name": "Palais Nika\u00efa", "network": "Lignes d'Azur", "passenger_information_display": "yes", "public_transport": "platform", "seats": "8", "shelter": "yes", "tactile_paving": "no", "wheelchair": "yes"}}, {"type": "node", "id": 3759249976, "lat": 43.6803075, "lon": 7.1992596, "tags": {"bench": "yes", "bin": "yes", "bus": "yes", "highway": "bus_stop", "lit": "yes", "name": "Palais Nika\u00efa", "network": "Lignes d'Azur", "public_transport": "platform", "shelter": "yes", "tactile_paving": "no", "wheelchair": "no"}}, {"type": "node", "id": 3759250060, "lat": 43.6844457, "lon": 7.1984828, "tags": {"bus": "yes", "name": "Lyc\u00e9e Thierry Maulnier", "public_transport": "stop_position"}}, {"type": "node", "id": 3759250062, "lat": 43.6852702, "lon": 7.1986268, "tags": {"bus": "yes", "covered": "yes", "highway": "bus_stop", "name": "Pontr\u00e9moli", "public_transport": "platform", "shelter": "no", "tactile_paving": "yes", "wheelchair": "yes"}}, {"type": "node", "id": 4059717103, "lat": 43.7034091, "lon": 7.2276372, "tags": {"bus": "yes", "name": "La Chapelle / Bellet", "public_transport": "stop_position"}}, {"type": "node", "id": 4151902689, "lat": 43.6757436, "lon": 7.2232161, "tags": {"railway": "signal"}}, {"type": "node", "id": 4151902690, "lat": 43.6757602, "lon": 7.2231736, "tags": {"railway": "signal"}}, {"type": "node", "id": 4151902691, "lat": 43.6845146, "lon": 7.2335992, "tags": {"railway": "signal"}}, {"type": "node", "id": 4151902692, "lat": 43.6845284, "lon": 7.2335552, "tags": {"railway": "signal"}}, {"type": "node", "id": 4397273801, "lat": 43.6712576, "lon": 7.1900906, "tags": {"bus": "yes", "highway": "bus_stop", "name": "Square B\u00e8nes", "public_transport": "platform", "tactile_paving": "no", "wheelchair": "no"}}, {"type": "node", "id": 4397273802, "lat": 43.671398, "lon": 7.1904899, "tags": {"bus": "yes", "highway": "bus_stop", "name": "Square B\u00e8nes", "public_transport": "platform", "shelter": "yes"}}, {"type": "node", "id": 4397273803, "lat": 43.6714184, "lon": 7.1926102, "tags": {"bus": "yes", "name": "Coubertin", "public_transport": "stop_position"}}, {"type": "node", "id": 4397273807, "lat": 43.6743057, "lon": 7.189588, "tags": {"bus": "yes", "highway": "bus_stop", "name": "Jean M\u00e9decin", "public_transport": "platform", "tactile_paving": "no", "wheelchair": "no"}}, {"type": "node", "id": 4397273808, "lat": 43.6740594, "lon": 7.1896055, "tags": {"bus": "yes", "highway": "bus_stop", "name": "Jean M\u00e9decin", "public_transport": "platform", "tactile_paving": "yes", "wheelchair": "yes"}}, {"type": "node", "id": 4688958356, "lat": 43.6820038, "lon": 7.2328745, "tags": {"bench": "yes", "bin": "yes", "bus": "yes", "highway": "bus_stop", "lit": "yes", "name": "Vallon Barla / Promenade", "network": "Lignes d'Azur", "public_transport": "platform", "route_ref": "12+", "shelter": "yes", "tactile_paving": "yes", "wheelchair": "yes"}}, {"type": "node", "id": 4688962403, "lat": 43.679568, "lon": 7.2305974, "tags": {"bench": "yes", "bin": "yes", "bus": "yes", "highway": "bus_stop", "lit": "yes", "name": "Carras / Promenade", "network": "Lignes d'Azur", "public_transport": "platform", "route_ref": "12+;741;742;744;Exp3", "shelter": "yes"}}, {"type": "node", "id": 4806026068, "lat": 43.6849709, "lon": 7.2357006, "tags": {"bench": "yes", "bin": "yes", "bus": "yes", "highway": "bus_stop", "lit": "yes", "name": "Sainte-H\u00e9l\u00e8ne / Promenade", "network": "Lignes d'Azur", "public_transport": "platform", "route_ref": "12+", "shelter": "yes", "tactile_paving": "yes", "wheelchair": "yes"}}, {"type": "node", "id": 4810624514, "lat": 43.6903015, "lon": 7.2269176, "tags": {"bus": "yes", "name": "Trois Vall\u00e9es", "public_transport": "stop_position"}}, {"type": "node", "id": 4971641475, "lat": 43.6712343, "lon": 7.1901415, "tags": {"bus": "yes", "name": "Square B\u00e8nes", "public_transport": "stop_position"}}, {"type": "node", "id": 5481019636, "lat": 43.6956814, "lon": 7.1922344, "tags": {"bench": "no", "bicycle_parking": "no", "bin": "no", "bus": "yes", "covered": "no", "departures_board": "timetable", "highway": "bus_stop", "lit": "yes", "map": "no", "name": "Les Barraques", "network": "Lignes d'Azur", "passenger_information_display": "no", "public_transport": "platform", "shelter": "no", "tactile_paving": "no", "temporary": "no", "wheelchair": "no"}}, {"type": "node", "id": 5481019637, "lat": 43.6989342, "lon": 7.1897055, "tags": {"bench": "yes", "bicycle_parking": "no", "bin": "no", "bus": "yes", "covered": "yes", "departures_board": "timetable", "highway": "bus_stop", "lit": "yes", "map": "yes", "name": "Les Barraques", "network": "Lignes d'Azur", "passenger_information_display": "no", "public_transport": "platform", "seats": "4", "shelter": "yes", "tactile_paving": "yes", "temporary": "no", "wheelchair": "no"}}, {"type": "node", "id": 5481029600, "lat": 43.6828769, "lon": 7.1983771, "tags": {"bench": "no", "bicycle_parking": "no", "bin": "no", "bus": "yes", "departures_board": "yes", "highway": "bus_stop", "lit": "no", "map": "no", "name": "Robini", "network": "Lignes d'Azur", "passenger_information_display": "no", "public_transport": "platform", "shelter": "no", "tactile_paving": "no", "temporary": "no", "wheelchair": "no"}}, {"type": "node", "id": 5481029601, "lat": 43.6827542, "lon": 7.1987433, "tags": {"bench": "yes", "bus": "yes", "departures_board": "yes", "highway": "bus_stop", "lit": "yes", "map": "yes", "name": "Robini", "network": "Lignes d'Azur", "passenger_information_display": "no", "public_transport": "platform", "shelter": "yes", "tactile_paving": "no", "wheelchair": "no"}}, {"type": "node", "id": 5481083770, "lat": 43.6840045, "lon": 7.2350806, "tags": {"bench": "yes", "bin": "yes", "bus": "yes", "highway": "bus_stop", "lit": "yes", "name": "Sainte-H\u00e9l\u00e8ne / Promenade", "network": "Lignes d'Azur", "public_transport": "platform", "route_ref": "12+;Exp3", "shelter": "yes"}}, {"type": "node", "id": 5481095882, "lat": 43.6867313, "lon": 7.2382521, "tags": {"bench": "yes", "bin": "yes", "bus": "yes", "highway": "bus_stop", "lit": "yes", "name": "Fabron / Promenade", "network": "Lignes d'Azur", "public_transport": "platform", "route_ref": "12+;630;Exp3", "shelter": "yes", "tactile_paving": "yes"}}, {"type": "node", "id": 5481150126, "lat": 43.687249, "lon": 7.2386108, "tags": {"bench": "yes", "bin": "yes", "bus": "yes", "highway": "bus_stop", "lit": "yes", "name": "Fabron / Promenade", "network": "Lignes d'Azur", "public_transport": "platform", "route_ref": "12+;630", "shelter": "yes", "tactile_paving": "no"}}, {"type": "node", "id": 5481150127, "lat": 43.6822578, "lon": 7.2327802, "tags": {"bench": "yes", "bin": "yes", "bus": "yes", "highway": "bus_stop", "lit": "yes", "name": "Vallon Barla / Promenade", "network": "Lignes d'Azur", "public_transport": "platform", "route_ref": "12+", "shelter": "yes", "tactile_paving": "yes", "wheelchair": "yes"}}, {"type": "node", "id": 5485927255, "lat": 43.691363, "lon": 7.1957652, "tags": {"bench": "no", "bicycle_parking": "no", "bin": "no", "bus": "yes", "covered": "no", "departures_board": "yes", "highway": "bus_stop", "lit": "no", "map": "no", "name": "Les Arboras", "network": "Lignes d'Azur", "passenger_information_display": "no", "public_transport": "platform", "setback": "yes", "tactile_paving": "no", "temporary": "no", "wheelchair": "yes"}}, {"type": "node", "id": 5494022293, "lat": 43.6796352, "lon": 7.2303254, "tags": {"bench": "yes", "bin": "yes", "bus": "yes", "highway": "bus_stop", "lit": "yes", "name": "Carras / Promenade", "network": "Lignes d'Azur", "public_transport": "platform", "route_ref": "12+;630;741;742;744", "shelter": "yes", "tactile_paving": "yes", "wheelchair": "yes"}}, {"type": "node", "id": 5640617146, "lat": 43.6694319, "lon": 7.2112868}, {"type": "node", "id": 5640617147, "lat": 43.6694167, "lon": 7.2113324}, {"type": "node", "id": 5640617150, "lat": 43.6700077, "lon": 7.2143116}, {"type": "node", "id": 5640617151, "lat": 43.6698649, "lon": 7.2154987}, {"type": "node", "id": 5640617152, "lat": 43.669732, "lon": 7.2165767, "tags": {"railway": "level_crossing"}}, {"type": "node", "id": 5640617153, "lat": 43.6696406, "lon": 7.2172827, "tags": {"railway": "level_crossing"}}, {"type": "node", "id": 5640617154, "lat": 43.6694149, "lon": 7.2191288, "tags": {"name": "Parc Phoenix", "public_transport": "stop_position", "railway": "tram_stop", "start_date": "2018-06-30", "tram": "yes"}}, {"type": "node", "id": 5640617155, "lat": 43.6693601, "lon": 7.2197479}, {"type": "node", "id": 5640617156, "lat": 43.6695064, "lon": 7.2202275, "tags": {"railway": "crossing"}}, {"type": "node", "id": 5640617161, "lat": 43.6722847, "lon": 7.224125, "tags": {"name": "Cassin Kirchner", "public_transport": "stop_position", "railway": "tram_stop", "start_date": "2018-06-30", "tram": "yes"}}, {"type": "node", "id": 5640617162, "lat": 43.6735375, "lon": 7.2259069}, {"type": "node", "id": 5640617163, "lat": 43.673926, "lon": 7.2264119}, {"type": "node", "id": 5640617164, "lat": 43.6746837, "lon": 7.2270874}, {"type": "node", "id": 5640617165, "lat": 43.6757978, "lon": 7.2277358}, {"type": "node", "id": 5640617166, "lat": 43.6764403, "lon": 7.2281011}, {"type": "node", "id": 5640617167, "lat": 43.6769012, "lon": 7.2283563, "tags": {"name": "Ferber", "public_transport": "stop_position", "railway": "tram_stop", "start_date": "2018-06-30", "tram": "yes"}}, {"type": "node", "id": 5640617171, "lat": 43.67882, "lon": 7.2293618}, {"type": "node", "id": 5640617173, "lat": 43.6799775, "lon": 7.2300218}, {"type": "node", "id": 5640617175, "lat": 43.6807299, "lon": 7.2306277, "tags": {"name": "Carras", "public_transport": "stop_position", "railway": "tram_stop", "start_date": "2018-06-30", "tram": "yes"}}, {"type": "node", "id": 5640617180, "lat": 43.6831455, "lon": 7.2331707}, {"type": "node", "id": 5640617181, "lat": 43.6835854, "lon": 7.2336032, "tags": {"name": "Sainte-H\u00e9l\u00e8ne", "public_transport": "stop_position", "railway": "tram_stop", "start_date": "2018-06-30", "tram": "yes"}}, {"type": "node", "id": 5640617183, "lat": 43.6856743, "lon": 7.2357098}, {"type": "node", "id": 5640617185, "lat": 43.6868236, "lon": 7.2371033, "tags": {"name": "Fabron", "public_transport": "stop_position", "railway": "tram_stop", "start_date": "2018-06-30", "tram": "yes"}}, {"type": "node", "id": 5640617188, "lat": 43.6895407, "lon": 7.2412257, "tags": {"name": "Lenval - H\u00f4pital", "public_transport": "stop_position", "railway": "tram_stop", "start_date": "2018-06-30", "tram": "yes"}}, {"type": "node", "id": 5640617189, "lat": 43.6900568, "lon": 7.242041}, {"type": "node", "id": 5640617190, "lat": 43.6905157, "lon": 7.2427721}, {"type": "node", "id": 5640617204, "lat": 43.6693323, "lon": 7.211323, "tags": {"railway": "switch"}}, {"type": "node", "id": 5640617205, "lat": 43.6693501, "lon": 7.2112787, "tags": {"railway": "switch"}}, {"type": "node", "id": 5640617206, "lat": 43.6688614, "lon": 7.2115186}, {"type": "node", "id": 5640617207, "lat": 43.6688248, "lon": 7.2115228}, {"type": "node", "id": 5640617208, "lat": 43.6686731, "lon": 7.2110225}, {"type": "node", "id": 5698955145, "lat": 43.6705871, "lon": 7.2111115}, {"type": "node", "id": 5698955148, "lat": 43.6708768, "lon": 7.2108513}, {"type": "node", "id": 5698955149, "lat": 43.6711106, "lon": 7.210522}, {"type": "node", "id": 5698955150, "lat": 43.6713032, "lon": 7.2102761}, {"type": "node", "id": 5698955151, "lat": 43.6714105, "lon": 7.2101561}, {"type": "node", "id": 5698955153, "lat": 43.6719648, "lon": 7.2097028}, {"type": "node", "id": 5698955154, "lat": 43.6727088, "lon": 7.2091052}, {"type": "node", "id": 5698955155, "lat": 43.6736461, "lon": 7.2083601, "tags": {"railway": "crossing"}}, {"type": "node", "id": 5698955156, "lat": 43.674386, "lon": 7.2077654}, {"type": "node", "id": 5698955160, "lat": 43.6775237, "lon": 7.2052715, "tags": {"railway": "switch"}}, {"type": "node", "id": 5698955161, "lat": 43.6775848, "lon": 7.2052132}, {"type": "node", "id": 5698955162, "lat": 43.6776085, "lon": 7.2051747}, {"type": "node", "id": 5698955163, "lat": 43.6776234, "lon": 7.2051279}, {"type": "node", "id": 5698955165, "lat": 43.6776362, "lon": 7.2049212}, {"type": "node", "id": 5698955167, "lat": 43.6774358, "lon": 7.2042076}, {"type": "node", "id": 5698955168, "lat": 43.6772693, "lon": 7.2036553}, {"type": "node", "id": 5698955169, "lat": 43.6767025, "lon": 7.2017556}, {"type": "node", "id": 5698955170, "lat": 43.6766734, "lon": 7.201617}, {"type": "node", "id": 5698955171, "lat": 43.6766665, "lon": 7.2014666}, {"type": "node", "id": 5698955172, "lat": 43.6766799, "lon": 7.2013538}, {"type": "node", "id": 5698955173, "lat": 43.6768382, "lon": 7.2008038}, {"type": "node", "id": 5698955174, "lat": 43.6769429, "lon": 7.2004433}, {"type": "node", "id": 5698955175, "lat": 43.6769607, "lon": 7.2003447}, {"type": "node", "id": 5698955176, "lat": 43.6769663, "lon": 7.2002877}, {"type": "node", "id": 5698955177, "lat": 43.676968, "lon": 7.2002349}, {"type": "node", "id": 5698955178, "lat": 43.676966, "lon": 7.2001906}, {"type": "node", "id": 5698955179, "lat": 43.6769476, "lon": 7.2000491}, {"type": "node", "id": 5698955180, "lat": 43.6768171, "lon": 7.199453}, {"type": "node", "id": 5698955181, "lat": 43.6764878, "lon": 7.1979671}, {"type": "node", "id": 5698955182, "lat": 43.6704173, "lon": 7.2111708}, {"type": "node", "id": 5698955183, "lat": 43.6702512, "lon": 7.2111873}, {"type": "node", "id": 5698955186, "lat": 43.6703869, "lon": 7.2112205, "tags": {"railway": "crossing"}}, {"type": "node", "id": 5698955187, "lat": 43.6705761, "lon": 7.2112027}, {"type": "node", "id": 5698955189, "lat": 43.6707469, "lon": 7.2111382}, {"type": "node", "id": 5698955190, "lat": 43.6707789, "lon": 7.2111101}, {"type": "node", "id": 5698955191, "lat": 43.6708536, "lon": 7.2110283}, {"type": "node", "id": 5698955192, "lat": 43.6712636, "lon": 7.2104563}, {"type": "node", "id": 5698955193, "lat": 43.6713975, "lon": 7.210286}, {"type": "node", "id": 5698955194, "lat": 43.6714857, "lon": 7.2101934}, {"type": "node", "id": 5698955195, "lat": 43.6720212, "lon": 7.209763}, {"type": "node", "id": 5698955196, "lat": 43.6727055, "lon": 7.209211}, {"type": "node", "id": 5698955197, "lat": 43.6734523, "lon": 7.2086127, "tags": {"name": "Paul Montel - Les Moulins", "public_transport": "stop_position", "railway": "tram_stop", "start_date": "2018-06-30", "tram": "yes"}}, {"type": "node", "id": 5698955198, "lat": 43.6740325, "lon": 7.2081488}, {"type": "node", "id": 5698955199, "lat": 43.6744263, "lon": 7.2078261}, {"type": "node", "id": 5698955206, "lat": 43.6775796, "lon": 7.2052842, "tags": {"railway": "switch"}}, {"type": "node", "id": 5698955207, "lat": 43.677617, "lon": 7.2052406}, {"type": "node", "id": 5698955208, "lat": 43.6776456, "lon": 7.205193, "tags": {"railway": "switch", "railway:switch": "single_slip"}}, {"type": "node", "id": 5698955209, "lat": 43.6776633, "lon": 7.2051461}, {"type": "node", "id": 5698955210, "lat": 43.6776636, "lon": 7.2048744, "tags": {"railway": "switch", "railway:switch": "single_slip"}}, {"type": "node", "id": 5698955211, "lat": 43.67764, "lon": 7.2047837, "tags": {"railway": "switch"}}, {"type": "node", "id": 5698955213, "lat": 43.6774623, "lon": 7.2041939}, {"type": "node", "id": 5698955214, "lat": 43.6772401, "lon": 7.2034469}, {"type": "node", "id": 5698955215, "lat": 43.6768396, "lon": 7.2020951}, {"type": "node", "id": 5698955217, "lat": 43.6767047, "lon": 7.2016163}, {"type": "node", "id": 5698955218, "lat": 43.6766969, "lon": 7.2015606}, {"type": "node", "id": 5698955219, "lat": 43.6767034, "lon": 7.201417}, {"type": "node", "id": 5698955220, "lat": 43.6767182, "lon": 7.2013415}, {"type": "node", "id": 5698956621, "lat": 43.6768542, "lon": 7.2008699}, {"type": "node", "id": 5698956622, "lat": 43.6769575, "lon": 7.2005231}, {"type": "node", "id": 5698956623, "lat": 43.6769818, "lon": 7.2004213}, {"type": "node", "id": 5698956624, "lat": 43.6769921, "lon": 7.2003496}, {"type": "node", "id": 5698956625, "lat": 43.6769959, "lon": 7.2002373}, {"type": "node", "id": 5698956626, "lat": 43.6769933, "lon": 7.2001532}, {"type": "node", "id": 5698956627, "lat": 43.676978, "lon": 7.2000576}, {"type": "node", "id": 5698956628, "lat": 43.6768506, "lon": 7.1994834}, {"type": "node", "id": 5698956629, "lat": 43.6765157, "lon": 7.197929}, {"type": "node", "id": 5698962036, "lat": 43.6766738, "lon": 7.2013904, "tags": {"railway": "level_crossing"}}, {"type": "node", "id": 5699108370, "lat": 43.6771333, "lon": 7.2030899, "tags": {"railway": "level_crossing"}}, {"type": "node", "id": 5699108371, "lat": 43.6771076, "lon": 7.2031066, "tags": {"railway": "level_crossing"}}, {"type": "node", "id": 5699111532, "lat": 43.6776833, "lon": 7.2051642}, {"type": "node", "id": 5699120851, "lat": 43.6755303, "lon": 7.2068425, "tags": {"railway": "level_crossing"}}, {"type": "node", "id": 5699120852, "lat": 43.6755629, "lon": 7.2069154, "tags": {"railway": "level_crossing"}}, {"type": "node", "id": 5699120856, "lat": 43.6721954, "lon": 7.2095176, "tags": {"railway": "switch"}}, {"type": "node", "id": 5699120858, "lat": 43.672513, "lon": 7.2093663, "tags": {"railway": "switch"}}, {"type": "node", "id": 5699120859, "lat": 43.671782, "lon": 7.2098479}, {"type": "node", "id": 5699120860, "lat": 43.6716722, "lon": 7.2100435, "tags": {"railway": "level_crossing"}}, {"type": "node", "id": 5709614080, "lat": 43.6784641, "lon": 7.1949685}, {"type": "node", "id": 5709614081, "lat": 43.6786325, "lon": 7.1949045}, {"type": "node", "id": 5709614082, "lat": 43.6787072, "lon": 7.1949131}, {"type": "node", "id": 5709614083, "lat": 43.6787656, "lon": 7.1949465}, {"type": "node", "id": 5709614084, "lat": 43.6788607, "lon": 7.1950975}, {"type": "node", "id": 5709614085, "lat": 43.6788685, "lon": 7.1951276}, {"type": "node", "id": 5709614086, "lat": 43.6788765, "lon": 7.1951676}, {"type": "node", "id": 5709614087, "lat": 43.6789825, "lon": 7.1956671}, {"type": "node", "id": 5709614088, "lat": 43.6789757, "lon": 7.1958049}, {"type": "node", "id": 5709614089, "lat": 43.6789586, "lon": 7.1958814}, {"type": "node", "id": 5709614090, "lat": 43.678942, "lon": 7.1959228}, {"type": "node", "id": 5709614091, "lat": 43.6789006, "lon": 7.1959903}, {"type": "node", "id": 5709614092, "lat": 43.6788414, "lon": 7.1960388}, {"type": "node", "id": 5709614093, "lat": 43.6787853, "lon": 7.1960614}, {"type": "node", "id": 5709614094, "lat": 43.6787241, "lon": 7.1960612}, {"type": "node", "id": 5709614095, "lat": 43.678505, "lon": 7.1960186}, {"type": "node", "id": 5709614096, "lat": 43.6784764, "lon": 7.1959362}, {"type": "node", "id": 5709614097, "lat": 43.6786848, "lon": 7.1959765}, {"type": "node", "id": 5709614098, "lat": 43.6787234, "lon": 7.1959834}, {"type": "node", "id": 5709614099, "lat": 43.6788127, "lon": 7.195969}, {"type": "node", "id": 5709614100, "lat": 43.6788472, "lon": 7.1959481}, {"type": "node", "id": 5709614101, "lat": 43.6788763, "lon": 7.195923}, {"type": "node", "id": 5709614102, "lat": 43.6789498, "lon": 7.1957928}, {"type": "node", "id": 5709614103, "lat": 43.6789688, "lon": 7.1956854}, {"type": "node", "id": 5709614104, "lat": 43.6789676, "lon": 7.1955863}, {"type": "node", "id": 5709614105, "lat": 43.6784314, "lon": 7.1956772}, {"type": "node", "id": 5709614106, "lat": 43.6785885, "lon": 7.195795}, {"type": "node", "id": 5709614107, "lat": 43.6786485, "lon": 7.1958333}, {"type": "node", "id": 5709614108, "lat": 43.6787113, "lon": 7.1958471}, {"type": "node", "id": 5709614109, "lat": 43.6787789, "lon": 7.1958338}, {"type": "node", "id": 5709614110, "lat": 43.6788871, "lon": 7.1957334}, {"type": "node", "id": 5709614111, "lat": 43.6789371, "lon": 7.1955813}, {"type": "node", "id": 5709614112, "lat": 43.6789407, "lon": 7.1955476}, {"type": "node", "id": 5709614113, "lat": 43.6789423, "lon": 7.1955179}, {"type": "node", "id": 5709614114, "lat": 43.6789388, "lon": 7.1954543}, {"type": "node", "id": 5709614115, "lat": 43.6785055, "lon": 7.1954792}, {"type": "node", "id": 5709614116, "lat": 43.6786442, "lon": 7.1955501}, {"type": "node", "id": 5709614117, "lat": 43.6786787, "lon": 7.1955482}, {"type": "node", "id": 5709614118, "lat": 43.6787545, "lon": 7.1955211}, {"type": "node", "id": 5709619624, "lat": 43.6784699, "lon": 7.1958437}, {"type": "node", "id": 5709619625, "lat": 43.6785458, "lon": 7.1958805}, {"type": "node", "id": 5709619629, "lat": 43.6786591, "lon": 7.1960481}, {"type": "node", "id": 5709619630, "lat": 43.6784698, "lon": 7.1957659}, {"type": "node", "id": 5709619631, "lat": 43.6784994, "lon": 7.1957793}, {"type": "node", "id": 5709619632, "lat": 43.6785348, "lon": 7.1958061}, {"type": "node", "id": 5709619633, "lat": 43.6786392, "lon": 7.1958955}, {"type": "node", "id": 5709619634, "lat": 43.6787209, "lon": 7.195919}, {"type": "node", "id": 5709619635, "lat": 43.6787829, "lon": 7.1959119}, {"type": "node", "id": 5709619636, "lat": 43.6788413, "lon": 7.1958774}, {"type": "node", "id": 5709619637, "lat": 43.6788933, "lon": 7.1958177}, {"type": "node", "id": 5709619638, "lat": 43.6789294, "lon": 7.1957452}, {"type": "node", "id": 5709619639, "lat": 43.6789569, "lon": 7.195584}, {"type": "node", "id": 5709619640, "lat": 43.6789533, "lon": 7.1955187}, {"type": "node", "id": 5709619642, "lat": 43.6782683, "lon": 7.1951552}, {"type": "node", "id": 5717629732, "lat": 43.6701516, "lon": 7.2128315}, {"type": "node", "id": 5717629733, "lat": 43.6701272, "lon": 7.2128646}, {"type": "node", "id": 5717629734, "lat": 43.6694871, "lon": 7.2113102, "tags": {"railway": "railway_crossing"}}, {"type": "node", "id": 5717629742, "lat": 43.6697275, "lon": 7.2117197, "tags": {"railway": "switch"}}, {"type": "node", "id": 5717629743, "lat": 43.6697125, "lon": 7.2116636}, {"type": "node", "id": 5717629744, "lat": 43.669704, "lon": 7.2115885}, {"type": "node", "id": 5717629745, "lat": 43.6697053, "lon": 7.2115499}, {"type": "node", "id": 5717629746, "lat": 43.6697277, "lon": 7.2114412}, {"type": "node", "id": 5717629747, "lat": 43.669772, "lon": 7.211359}, {"type": "node", "id": 5717629748, "lat": 43.6698154, "lon": 7.2113133}, {"type": "node", "id": 5717629749, "lat": 43.6699229, "lon": 7.2112684, "tags": {"railway": "switch"}}, {"type": "node", "id": 5717629750, "lat": 43.6696823, "lon": 7.2116988, "tags": {"railway": "switch"}}, {"type": "node", "id": 5717629752, "lat": 43.6696621, "lon": 7.2116236}, {"type": "node", "id": 5717629753, "lat": 43.669655, "lon": 7.2115292, "tags": {"railway": "railway_crossing"}}, {"type": "node", "id": 5717629754, "lat": 43.6696572, "lon": 7.2114962}, {"type": "node", "id": 5717629755, "lat": 43.6696787, "lon": 7.2114015}, {"type": "node", "id": 5717629756, "lat": 43.6696902, "lon": 7.2113725}, {"type": "node", "id": 5717629757, "lat": 43.6697189, "lon": 7.2113253}, {"type": "node", "id": 5717629758, "lat": 43.6697358, "lon": 7.2113035}, {"type": "node", "id": 5717629759, "lat": 43.6697556, "lon": 7.2112835, "tags": {"railway": "railway_crossing"}}, {"type": "node", "id": 5717629760, "lat": 43.6697748, "lon": 7.2112656}, {"type": "node", "id": 5717629761, "lat": 43.6698776, "lon": 7.2112286, "tags": {"railway": "switch"}}, {"type": "node", "id": 5717632751, "lat": 43.6696231, "lon": 7.211456}, {"type": "node", "id": 5717632752, "lat": 43.669546, "lon": 7.2113525}, {"type": "node", "id": 5717632753, "lat": 43.6695884, "lon": 7.2114004}, {"type": "node", "id": 5717632754, "lat": 43.6694372, "lon": 7.2113402}, {"type": "node", "id": 5717632755, "lat": 43.6695764, "lon": 7.2114535}, {"type": "node", "id": 5717632756, "lat": 43.6695345, "lon": 7.2114035}, {"type": "node", "id": 5717632757, "lat": 43.6694634, "lon": 7.2113521}, {"type": "node", "id": 5717632758, "lat": 43.669556, "lon": 7.2114275}, {"type": "node", "id": 5734880191, "lat": 43.6890447, "lon": 7.2404498}, {"type": "node", "id": 5734880195, "lat": 43.6904317, "lon": 7.2425667}, {"type": "node", "id": 5734880200, "lat": 43.6905367, "lon": 7.2427522}, {"type": "node", "id": 5772876017, "lat": 43.6767791, "lon": 7.1991651, "tags": {"name": "CADAM / Centre Administratif", "public_transport": "stop_position", "railway": "tram_stop", "start_date": "2018-06-30", "tram": "yes"}}, {"type": "node", "id": 5772876018, "lat": 43.6767544, "lon": 7.199179, "tags": {"name": "CADAM / Centre Administratif", "public_transport": "stop_position", "railway": "tram_stop", "start_date": "2018-06-30", "tram": "yes"}}, {"type": "node", "id": 5772876021, "lat": 43.6766775, "lon": 7.2060211, "tags": {"name": "Digue des Fran\u00e7ais", "public_transport": "stop_position", "railway": "tram_stop", "start_date": "2018-06-30", "tram": "yes"}}, {"type": "node", "id": 5772876022, "lat": 43.6766473, "lon": 7.205933, "tags": {"name": "Digue des Fran\u00e7ais", "public_transport": "stop_position", "railway": "tram_stop", "start_date": "2018-06-30", "tram": "yes"}}, {"type": "node", "id": 5772923617, "lat": 43.6744856, "lon": 7.2269526}, {"type": "node", "id": 5772923618, "lat": 43.6741948, "lon": 7.2266953}, {"type": "node", "id": 5772923619, "lat": 43.6743284, "lon": 7.2267716}, {"type": "node", "id": 5772923620, "lat": 43.674216, "lon": 7.2266651}, {"type": "node", "id": 5772923621, "lat": 43.6738201, "lon": 7.2262249}, {"type": "node", "id": 5772923622, "lat": 43.6737755, "lon": 7.2262283}, {"type": "node", "id": 5772923623, "lat": 43.6736921, "lon": 7.2260565}, {"type": "node", "id": 5772968363, "lat": 43.6760894, "lon": 7.227901}, {"type": "node", "id": 5772968364, "lat": 43.6754131, "lon": 7.2275152}, {"type": "node", "id": 5772968365, "lat": 43.6753843, "lon": 7.2274571}, {"type": "node", "id": 5772968366, "lat": 43.6761429, "lon": 7.2278862}, {"type": "node", "id": 5773043338, "lat": 43.69168, "lon": 7.2457656, "tags": {"name": "Magnan", "public_transport": "stop_position", "railway": "tram_stop", "start_date": "2018-06-30", "tram": "yes"}}, {"type": "node", "id": 5773043339, "lat": 43.691653, "lon": 7.245785, "tags": {"name": "Magnan", "public_transport": "stop_position", "railway": "tram_stop", "start_date": "2018-06-30", "tram": "yes"}}, {"type": "node", "id": 5773511532, "lat": 43.6779271, "lon": 7.1951368}, {"type": "node", "id": 5773511533, "lat": 43.677952, "lon": 7.1952514}, {"type": "node", "id": 5773511534, "lat": 43.6772305, "lon": 7.1955507}, {"type": "node", "id": 5773511535, "lat": 43.6772056, "lon": 7.1954362}, {"type": "node", "id": 5773511537, "lat": 43.6762635, "lon": 7.1967014}, {"type": "node", "id": 5773511538, "lat": 43.6762317, "lon": 7.1967273}, {"type": "node", "id": 5773511539, "lat": 43.6763028, "lon": 7.1970797}, {"type": "node", "id": 5773511540, "lat": 43.6763387, "lon": 7.1970767}, {"type": "node", "id": 5773511541, "lat": 43.6762888, "lon": 7.1968363}, {"type": "node", "id": 5773511542, "lat": 43.6762524, "lon": 7.1968377}, {"type": "node", "id": 5773511543, "lat": 43.6763999, "lon": 7.1975451}, {"type": "node", "id": 5773511544, "lat": 43.6764597, "lon": 7.1978322}, {"type": "node", "id": 5773511545, "lat": 43.6764883, "lon": 7.1977969}, {"type": "node", "id": 5773511546, "lat": 43.676428, "lon": 7.1975066}, {"type": "node", "id": 5773511547, "lat": 43.6762505, "lon": 7.1966044}, {"type": "node", "id": 5773511548, "lat": 43.6762541, "lon": 7.1965137}, {"type": "node", "id": 5773511549, "lat": 43.6762871, "lon": 7.1963766}, {"type": "node", "id": 5773511550, "lat": 43.6763377, "lon": 7.1962797}, {"type": "node", "id": 5773511551, "lat": 43.6762099, "lon": 7.1966051}, {"type": "node", "id": 5773511552, "lat": 43.6762204, "lon": 7.196442}, {"type": "node", "id": 5773511853, "lat": 43.6782386, "lon": 7.195167}, {"type": "node", "id": 5773511856, "lat": 43.6766833, "lon": 7.1959245}, {"type": "node", "id": 5773511857, "lat": 43.6770314, "lon": 7.1956648}, {"type": "node", "id": 5773511858, "lat": 43.6767309, "lon": 7.1958759}, {"type": "node", "id": 5773511859, "lat": 43.6763854, "lon": 7.196225}, {"type": "node", "id": 5773511860, "lat": 43.6762347, "lon": 7.1963955}, {"type": "node", "id": 5773511861, "lat": 43.6764993, "lon": 7.1960247}, {"type": "node", "id": 5773511862, "lat": 43.6769432, "lon": 7.1956114}, {"type": "node", "id": 5773511864, "lat": 43.6779409, "lon": 7.1951844}, {"type": "node", "id": 5773511865, "lat": 43.6772132, "lon": 7.1954854}, {"type": "node", "id": 5773511866, "lat": 43.6767912, "lon": 7.1957525}, {"type": "node", "id": 5773511868, "lat": 43.6784119, "lon": 7.1960224}, {"type": "node", "id": 5773511869, "lat": 43.677709, "lon": 7.1963139, "tags": {"railway": "buffer_stop"}}, {"type": "node", "id": 5773511870, "lat": 43.6783811, "lon": 7.1959393}, {"type": "node", "id": 5773511871, "lat": 43.6776892, "lon": 7.1962272, "tags": {"railway": "buffer_stop"}}, {"type": "node", "id": 5773511872, "lat": 43.6784029, "lon": 7.1958439}, {"type": "node", "id": 5773511873, "lat": 43.6783707, "lon": 7.1958514}, {"type": "node", "id": 5773511874, "lat": 43.6776715, "lon": 7.1961411, "tags": {"railway": "buffer_stop"}}, {"type": "node", "id": 5773511875, "lat": 43.6783775, "lon": 7.195755}, {"type": "node", "id": 5773511876, "lat": 43.6783509, "lon": 7.1957616}, {"type": "node", "id": 5773511877, "lat": 43.6776523, "lon": 7.1960503, "tags": {"railway": "buffer_stop"}}, {"type": "node", "id": 5773511878, "lat": 43.6783992, "lon": 7.1956719}, {"type": "node", "id": 5773511879, "lat": 43.6783347, "lon": 7.1956792}, {"type": "node", "id": 5773511880, "lat": 43.6776334, "lon": 7.1959694, "tags": {"railway": "buffer_stop"}}, {"type": "node", "id": 5773511881, "lat": 43.678388, "lon": 7.1953659}, {"type": "node", "id": 5773511884, "lat": 43.6775961, "lon": 7.1957947, "tags": {"railway": "buffer_stop"}}, {"type": "node", "id": 5773511885, "lat": 43.6785594, "lon": 7.1957074}, {"type": "node", "id": 5773511886, "lat": 43.6784442, "lon": 7.1956125}, {"type": "node", "id": 5773511887, "lat": 43.6783573, "lon": 7.1955864}, {"type": "node", "id": 5773511888, "lat": 43.6776132, "lon": 7.1958774, "tags": {"railway": "buffer_stop"}}, {"type": "node", "id": 5773511889, "lat": 43.6782639, "lon": 7.1955168}, {"type": "node", "id": 5773511890, "lat": 43.678281, "lon": 7.1955995}, {"type": "node", "id": 5773511891, "lat": 43.6783012, "lon": 7.1956915}, {"type": "node", "id": 5773511892, "lat": 43.6783201, "lon": 7.1957724}, {"type": "node", "id": 5773511893, "lat": 43.6783393, "lon": 7.1958632}, {"type": "node", "id": 5773511894, "lat": 43.678357, "lon": 7.1959493}, {"type": "node", "id": 5773511895, "lat": 43.6783768, "lon": 7.196036}, {"type": "node", "id": 5773511897, "lat": 43.6789843, "lon": 7.1957345}, {"type": "node", "id": 5774689097, "lat": 43.6777717, "lon": 7.2051539}, {"type": "node", "id": 5774689103, "lat": 43.6820815, "lon": 7.2034559, "tags": {"name": "M\u00e9ridia", "public_transport": "stop_position", "railway": "tram_stop", "start_date": "2019-11-13", "tram": "yes", "wheelchair": "limited"}}, {"type": "node", "id": 5774689104, "lat": 43.6829583, "lon": 7.2031078}, {"type": "node", "id": 5774689105, "lat": 43.6831626, "lon": 7.2030273}, {"type": "node", "id": 5774689107, "lat": 43.6844184, "lon": 7.2025922}, {"type": "node", "id": 5774689108, "lat": 43.6857514, "lon": 7.2021623}, {"type": "node", "id": 5774689113, "lat": 43.6903864, "lon": 7.2005785}, {"type": "node", "id": 5774689118, "lat": 43.6927686, "lon": 7.199281, "tags": {"name": "Les Arboras - Universit\u00e9", "public_transport": "stop_position", "railway": "tram_stop", "start_date": "2019-11-13", "tram": "yes"}}, {"type": "node", "id": 5774689119, "lat": 43.6932543, "lon": 7.1990249}, {"type": "node", "id": 5774689120, "lat": 43.6939792, "lon": 7.1985856}, {"type": "node", "id": 5774689121, "lat": 43.6943307, "lon": 7.1983576}, {"type": "node", "id": 5774689122, "lat": 43.6948325, "lon": 7.1980029}, {"type": "node", "id": 5774689123, "lat": 43.6953343, "lon": 7.1976535}, {"type": "node", "id": 5774689124, "lat": 43.6957028, "lon": 7.1973987}, {"type": "node", "id": 5774689127, "lat": 43.6960809, "lon": 7.1971802}, {"type": "node", "id": 5774689128, "lat": 43.6963427, "lon": 7.197038}, {"type": "node", "id": 5774689129, "lat": 43.6965803, "lon": 7.1969307}, {"type": "node", "id": 5774689131, "lat": 43.6968276, "lon": 7.1968194}, {"type": "node", "id": 5774689133, "lat": 43.6971252, "lon": 7.1967047}, {"type": "node", "id": 5774689134, "lat": 43.697802, "lon": 7.1965123, "tags": {"name": "Eco-Parc", "public_transport": "stop_position", "railway": "tram_stop", "start_date": "2019-11-13", "tram": "yes"}}, {"type": "node", "id": 5774689136, "lat": 43.698202, "lon": 7.196411}, {"type": "node", "id": 5774689137, "lat": 43.6983688, "lon": 7.1963883}, {"type": "node", "id": 5774689138, "lat": 43.6985472, "lon": 7.1963795}, {"type": "node", "id": 5774689139, "lat": 43.6987794, "lon": 7.1963748}, {"type": "node", "id": 5774689140, "lat": 43.6991217, "lon": 7.1963849}, {"type": "node", "id": 5774689142, "lat": 43.6995458, "lon": 7.1964345}, {"type": "node", "id": 5774689143, "lat": 43.6997616, "lon": 7.1964694}, {"type": "node", "id": 5774689144, "lat": 43.6999914, "lon": 7.196519}, {"type": "node", "id": 5774689147, "lat": 43.7009599, "lon": 7.1967825}, {"type": "node", "id": 5774689148, "lat": 43.701263, "lon": 7.1968623}, {"type": "node", "id": 5774689151, "lat": 43.701769, "lon": 7.1969468}, {"type": "node", "id": 5774689353, "lat": 43.702058, "lon": 7.1969863}, {"type": "node", "id": 5774689354, "lat": 43.7023357, "lon": 7.1970058}, {"type": "node", "id": 5774689355, "lat": 43.7025427, "lon": 7.1970138}, {"type": "node", "id": 5774689358, "lat": 43.7032898, "lon": 7.1969984}, {"type": "node", "id": 5774689359, "lat": 43.7035302, "lon": 7.1969682}, {"type": "node", "id": 5774689360, "lat": 43.703838, "lon": 7.196928}, {"type": "node", "id": 5774689361, "lat": 43.7040794, "lon": 7.1968798}, {"type": "node", "id": 5774689362, "lat": 43.7042922, "lon": 7.1968308}, {"type": "node", "id": 5774689365, "lat": 43.7059652, "lon": 7.196416, "tags": {"name": "Stade", "public_transport": "stop_position", "railway": "tram_stop", "start_date": "2019-11-13", "tram": "yes"}}, {"type": "node", "id": 5774689368, "lat": 43.7079839, "lon": 7.1958878}, {"type": "node", "id": 5774689369, "lat": 43.7082366, "lon": 7.1958119}, {"type": "node", "id": 5774689372, "lat": 43.7089502, "lon": 7.1955201}, {"type": "node", "id": 5774689373, "lat": 43.7093713, "lon": 7.1952767}, {"type": "node", "id": 5774689376, "lat": 43.6777528, "lon": 7.2051181}, {"type": "node", "id": 5774689378, "lat": 43.678068, "lon": 7.2050024, "tags": {"railway": "switch"}}, {"type": "node", "id": 5774689385, "lat": 43.6820767, "lon": 7.203414, "tags": {"name": "M\u00e9ridia", "public_transport": "stop_position", "railway": "tram_stop", "start_date": "2019-11-13", "tram": "yes", "wheelchair": "limited"}}, {"type": "node", "id": 5774689387, "lat": 43.6831581, "lon": 7.2029811}, {"type": "node", "id": 5774689388, "lat": 43.6835528, "lon": 7.2028471, "tags": {"railway": "crossing"}}, {"type": "node", "id": 5774689390, "lat": 43.6841047, "lon": 7.2026532}, {"type": "node", "id": 5774689392, "lat": 43.6857418, "lon": 7.2021248}, {"type": "node", "id": 5774689393, "lat": 43.6860706, "lon": 7.20202, "tags": {"railway": "crossing"}}, {"type": "node", "id": 5774689394, "lat": 43.686795, "lon": 7.2017922}, {"type": "node", "id": 5774689403, "lat": 43.6903739, "lon": 7.2005383}, {"type": "node", "id": 5774689409, "lat": 43.6927593, "lon": 7.1992474, "tags": {"name": "Les Arboras - Universit\u00e9", "public_transport": "stop_position", "railway": "tram_stop", "start_date": "2019-11-13", "tram": "yes"}}, {"type": "node", "id": 5774689411, "lat": 43.6932427, "lon": 7.1989886}, {"type": "node", "id": 5774689413, "lat": 43.6939671, "lon": 7.1985467}, {"type": "node", "id": 5774689414, "lat": 43.6943171, "lon": 7.1983094}, {"type": "node", "id": 5774689415, "lat": 43.694818, "lon": 7.1979607}, {"type": "node", "id": 5774689416, "lat": 43.6953159, "lon": 7.19762}, {"type": "node", "id": 5774689417, "lat": 43.6956873, "lon": 7.1973612}, {"type": "node", "id": 5774689420, "lat": 43.6960645, "lon": 7.1971332}, {"type": "node", "id": 5774689421, "lat": 43.696333, "lon": 7.1969871}, {"type": "node", "id": 5774689422, "lat": 43.6965657, "lon": 7.196873}, {"type": "node", "id": 5774689424, "lat": 43.6968237, "lon": 7.1967684}, {"type": "node", "id": 5774689425, "lat": 43.6971199, "lon": 7.1966571}, {"type": "node", "id": 5774689428, "lat": 43.69796, "lon": 7.1964265}, {"type": "node", "id": 5774689429, "lat": 43.6981991, "lon": 7.1963755}, {"type": "node", "id": 5774689430, "lat": 43.6985491, "lon": 7.1963332}, {"type": "node", "id": 5774689431, "lat": 43.6987828, "lon": 7.1963279}, {"type": "node", "id": 5774689432, "lat": 43.6991197, "lon": 7.1963353}, {"type": "node", "id": 5774689434, "lat": 43.6997702, "lon": 7.1964258}, {"type": "node", "id": 5774689435, "lat": 43.6999924, "lon": 7.1964761}, {"type": "node", "id": 5774689438, "lat": 43.7012654, "lon": 7.1968046}, {"type": "node", "id": 5774689439, "lat": 43.7017695, "lon": 7.1968965}, {"type": "node", "id": 5774689440, "lat": 43.7020613, "lon": 7.1969401}, {"type": "node", "id": 5774689441, "lat": 43.7025427, "lon": 7.1969689}, {"type": "node", "id": 5774689444, "lat": 43.7035263, "lon": 7.19692}, {"type": "node", "id": 5774689445, "lat": 43.7038336, "lon": 7.1968764}, {"type": "node", "id": 5774689446, "lat": 43.704076, "lon": 7.1968274}, {"type": "node", "id": 5774689447, "lat": 43.7042893, "lon": 7.1967818}, {"type": "node", "id": 5774689450, "lat": 43.7059604, "lon": 7.1963773, "tags": {"name": "Stade", "public_transport": "stop_position", "railway": "tram_stop", "start_date": "2019-11-13", "tram": "yes"}}, {"type": "node", "id": 5774689453, "lat": 43.7073733, "lon": 7.1960188}, {"type": "node", "id": 5774689455, "lat": 43.7082277, "lon": 7.1957705}, {"type": "node", "id": 5774689458, "lat": 43.7089375, "lon": 7.1954788}, {"type": "node", "id": 5774689463, "lat": 43.6777521, "lon": 7.204914}, {"type": "node", "id": 5774689464, "lat": 43.677821, "lon": 7.2049613}, {"type": "node", "id": 5774689465, "lat": 43.6778661, "lon": 7.2049849, "tags": {"railway": "level_crossing"}}, {"type": "node", "id": 5774689466, "lat": 43.6776183, "lon": 7.2048122, "tags": {"railway": "switch"}}, {"type": "node", "id": 5774689468, "lat": 43.6779186, "lon": 7.205049, "tags": {"railway": "switch", "railway:switch": "single_slip"}}, {"type": "node", "id": 5774689469, "lat": 43.6780595, "lon": 7.2050461, "tags": {"railway": "switch"}}, {"type": "node", "id": 5820774257, "lat": 43.6724765, "lon": 7.2019806, "tags": {"bus": "yes", "name": "Bois de Boulogne", "public_transport": "stop_position"}}, {"type": "node", "id": 5908586973, "lat": 43.6678959, "lon": 7.2114865, "tags": {"railway": "level_crossing"}}, {"type": "node", "id": 5908586974, "lat": 43.667893, "lon": 7.2114463, "tags": {"railway": "level_crossing"}}, {"type": "node", "id": 6162008056, "lat": 43.6745484, "lon": 7.2199441, "tags": {"bench": "yes", "bin": "yes", "bus": "yes", "departures_board": "timetable", "highway": "bus_stop", "name": "Grinda", "network": "Lignes d'Azur", "public_transport": "platform", "shelter": "no", "tactile_paving": "yes", "wheelchair": "yes"}}, {"type": "node", "id": 6162008057, "lat": 43.6744984, "lon": 7.2197219, "tags": {"bench": "yes", "bin": "yes", "bus": "yes", "highway": "bus_stop", "lit": "yes", "name": "Grinda", "network": "Lignes d'Azur", "public_transport": "platform", "shelter": "yes", "tactile_paving": "yes", "wheelchair": "yes"}}, {"type": "node", "id": 6162008059, "lat": 43.6749592, "lon": 7.2153305, "tags": {"bench": "yes", "bin": "yes", "bus": "yes", "highway": "bus_stop", "name": "Orangeraie", "network": "Lignes d'Azur", "public_transport": "platform", "shelter": "yes", "tactile_paving": "yes", "wheelchair": "yes"}}, {"type": "node", "id": 6162008060, "lat": 43.6748997, "lon": 7.2148821, "tags": {"bench": "yes", "bin": "yes", "bus": "yes", "departures_board": "timetable", "highway": "bus_stop", "name": "Orangeraie", "network": "Lignes d'Azur", "public_transport": "platform", "shelter": "no", "tactile_paving": "yes", "wheelchair": "yes"}}, {"type": "node", "id": 6162008062, "lat": 43.6743107, "lon": 7.2133994, "tags": {"bench": "yes", "bin": "yes", "bus": "yes", "highway": "bus_stop", "name": "Vittone", "network": "Lignes d'Azur", "public_transport": "platform", "shelter": "yes", "tactile_paving": "yes", "wheelchair": "yes"}}, {"type": "node", "id": 6261860785, "lat": 43.6688801, "lon": 7.2113188, "tags": {"name": "Grand Ar\u00e9nas (dir a\u00e9roport)", "public_transport": "stop_position", "railway": "tram_stop", "start_date": "2018-12-15", "tram": "yes"}}, {"type": "node", "id": 6261860788, "lat": 43.6701547, "lon": 7.2112416, "tags": {"name": "Grand Ar\u00e9nas (dir CADAM/St Isidore)", "public_transport": "stop_position", "railway": "tram_stop", "tram": "yes"}}, {"type": "node", "id": 6261860800, "lat": 43.6665106, "lon": 7.2117289}, {"type": "node", "id": 6261860801, "lat": 43.6665048, "lon": 7.2116785}, {"type": "node", "id": 6261860803, "lat": 43.6694232, "lon": 7.2200548, "tags": {"railway": "level_crossing"}}, {"type": "node", "id": 6261860804, "lat": 43.6694327, "lon": 7.219984, "tags": {"railway": "level_crossing"}}, {"type": "node", "id": 6261860805, "lat": 43.6694814, "lon": 7.2201127}, {"type": "node", "id": 6261860806, "lat": 43.6694101, "lon": 7.219888}, {"type": "node", "id": 6261860807, "lat": 43.6694189, "lon": 7.2199338, "tags": {"railway": "level_crossing"}}, {"type": "node", "id": 6261860808, "lat": 43.6694521, "lon": 7.2201281}, {"type": "node", "id": 6261860809, "lat": 43.6693707, "lon": 7.2198477}, {"type": "node", "id": 6261860810, "lat": 43.6696342, "lon": 7.2203471}, {"type": "node", "id": 6261860811, "lat": 43.6696062, "lon": 7.2203759}, {"type": "node", "id": 6261860813, "lat": 43.6693921, "lon": 7.2199522, "tags": {"railway": "level_crossing"}}, {"type": "node", "id": 6261860816, "lat": 43.6693907, "lon": 7.2195767}, {"type": "node", "id": 6261860817, "lat": 43.669369, "lon": 7.2195021}, {"type": "node", "id": 6261860831, "lat": 43.6685072, "lon": 7.2114002, "tags": {"railway": "level_crossing"}}, {"type": "node", "id": 6261860832, "lat": 43.668492, "lon": 7.2113549, "tags": {"railway": "level_crossing"}}, {"type": "node", "id": 6261860842, "lat": 43.6699418, "lon": 7.2123795, "tags": {"name": "Grand Ar\u00e9nas (dir Nice)", "public_transport": "stop_position", "railway": "tram_stop", "start_date": "2018-06-30", "tram": "yes"}}, {"type": "node", "id": 6261860846, "lat": 43.6701884, "lon": 7.2131063}, {"type": "node", "id": 6261860847, "lat": 43.670159, "lon": 7.2131365}, {"type": "node", "id": 6261860848, "lat": 43.6701897, "lon": 7.212991}, {"type": "node", "id": 6261860849, "lat": 43.6701534, "lon": 7.2129597}, {"type": "node", "id": 6261860850, "lat": 43.6701687, "lon": 7.212881}, {"type": "node", "id": 6548024694, "lat": 43.6699288, "lon": 7.2149758, "tags": {"railway": "level_crossing"}}, {"type": "node", "id": 6596087781, "lat": 43.6766878, "lon": 7.1987497, "tags": {"railway": "crossing"}}, {"type": "node", "id": 6596087782, "lat": 43.6766607, "lon": 7.1987602, "tags": {"railway": "crossing"}}, {"type": "node", "id": 6596087784, "lat": 43.676851, "lon": 7.1996078, "tags": {"railway": "level_crossing"}}, {"type": "node", "id": 6596097585, "lat": 43.6768756, "lon": 7.199596, "tags": {"railway": "level_crossing"}}, {"type": "node", "id": 6596097586, "lat": 43.6765062, "lon": 7.1978829, "tags": {"railway": "level_crossing"}}, {"type": "node", "id": 6596097587, "lat": 43.6764778, "lon": 7.1979187, "tags": {"railway": "level_crossing"}}, {"type": "node", "id": 6617021800, "lat": 43.6690432, "lon": 7.2112819}, {"type": "node", "id": 6617021801, "lat": 43.6686811, "lon": 7.2113093}, {"type": "node", "id": 6617021802, "lat": 43.6698421, "lon": 7.2121656}, {"type": "node", "id": 6617021803, "lat": 43.6734218, "lon": 7.2085367, "tags": {"name": "Paul Montel - Les Moulins", "public_transport": "stop_position", "railway": "tram_stop", "start_date": "2018-06-30", "tram": "yes"}}, {"type": "node", "id": 6617021805, "lat": 43.6735902, "lon": 7.2084202}, {"type": "node", "id": 6617021806, "lat": 43.6732636, "lon": 7.2086834}, {"type": "node", "id": 6617021807, "lat": 43.670013, "lon": 7.2126244}, {"type": "node", "id": 6617021808, "lat": 43.6768089, "lon": 7.205825}, {"type": "node", "id": 6617021809, "lat": 43.6764864, "lon": 7.2060883}, {"type": "node", "id": 6617106498, "lat": 43.6805664, "lon": 7.2305092}, {"type": "node", "id": 6617106499, "lat": 43.6694238, "lon": 7.2193997}, {"type": "node", "id": 6617106500, "lat": 43.6765851, "lon": 7.1982743}, {"type": "node", "id": 6617106501, "lat": 43.6766537, "lon": 7.1985892}, {"type": "node", "id": 6617106502, "lat": 43.6805912, "lon": 7.2304422}, {"type": "node", "id": 6617106505, "lat": 43.6767203, "lon": 7.2282777}, {"type": "node", "id": 6617106506, "lat": 43.6866747, "lon": 7.2369457}, {"type": "node", "id": 6617106507, "lat": 43.6867023, "lon": 7.2368805}, {"type": "node", "id": 6617106508, "lat": 43.6724026, "lon": 7.2243166}, {"type": "node", "id": 6617106509, "lat": 43.6809111, "lon": 7.2307195}, {"type": "node", "id": 6617106512, "lat": 43.6766245, "lon": 7.1986024}, {"type": "node", "id": 6617106513, "lat": 43.6767371, "lon": 7.2282056}, {"type": "node", "id": 6617106515, "lat": 43.6694888, "lon": 7.2188803}, {"type": "node", "id": 6617106516, "lat": 43.6869851, "lon": 7.2372247}, {"type": "node", "id": 6617106517, "lat": 43.6694293, "lon": 7.2188719}, {"type": "node", "id": 6617106518, "lat": 43.6837662, "lon": 7.2337091}, {"type": "node", "id": 6617106520, "lat": 43.6767772, "lon": 7.1994273}, {"type": "node", "id": 6617106521, "lat": 43.676554, "lon": 7.1982819}, {"type": "node", "id": 6617106522, "lat": 43.6869492, "lon": 7.2372798}, {"type": "node", "id": 6617106523, "lat": 43.6834575, "lon": 7.2334131}, {"type": "node", "id": 6617106524, "lat": 43.6770912, "lon": 7.2284013}, {"type": "node", "id": 6617106525, "lat": 43.6808815, "lon": 7.2307893}, {"type": "node", "id": 6617106526, "lat": 43.6721763, "lon": 7.2239052}, {"type": "node", "id": 6617106527, "lat": 43.6724366, "lon": 7.224262}, {"type": "node", "id": 6617106528, "lat": 43.6770616, "lon": 7.2284968}, {"type": "node", "id": 6617106529, "lat": 43.6766111, "lon": 7.1984688}, {"type": "node", "id": 6617106530, "lat": 43.6834259, "lon": 7.2334681}, {"type": "node", "id": 6617106531, "lat": 43.6837306, "lon": 7.2337651}, {"type": "node", "id": 6617106532, "lat": 43.6721433, "lon": 7.223962}, {"type": "node", "id": 6617106533, "lat": 43.6693657, "lon": 7.2193834}, {"type": "node", "id": 6617106536, "lat": 43.6766708, "lon": 7.1989568}, {"type": "node", "id": 6627546669, "lat": 43.678575, "lon": 7.1960585}, {"type": "node", "id": 6627546670, "lat": 43.6783993, "lon": 7.1961314}, {"type": "node", "id": 6627546672, "lat": 43.6777315, "lon": 7.1964093, "tags": {"railway": "buffer_stop"}}, {"type": "node", "id": 6761812374, "lat": 43.6764481, "lon": 7.1960788}, {"type": "node", "id": 6761812375, "lat": 43.6762822, "lon": 7.1962982}, {"type": "node", "id": 6761812376, "lat": 43.6764639, "lon": 7.1986451, "tags": {"railway": "buffer_stop"}}, {"type": "node", "id": 6761812377, "lat": 43.6761144, "lon": 7.1968346}, {"type": "node", "id": 6761812378, "lat": 43.6764328, "lon": 7.1986544, "tags": {"railway": "buffer_stop"}}, {"type": "node", "id": 6761812379, "lat": 43.6760828, "lon": 7.1968398}, {"type": "node", "id": 6761812380, "lat": 43.6763955, "lon": 7.1986715, "tags": {"railway": "buffer_stop"}}, {"type": "node", "id": 6761812381, "lat": 43.6760467, "lon": 7.1968575}, {"type": "node", "id": 6761812382, "lat": 43.6763652, "lon": 7.1986809, "tags": {"railway": "buffer_stop"}}, {"type": "node", "id": 6761812383, "lat": 43.6760216, "lon": 7.1968935}, {"type": "node", "id": 6761812384, "lat": 43.6763237, "lon": 7.1986936, "tags": {"railway": "buffer_stop"}}, {"type": "node", "id": 6761982085, "lat": 43.6759934, "lon": 7.1969901}, {"type": "node", "id": 6761982086, "lat": 43.676293, "lon": 7.1987044, "tags": {"railway": "buffer_stop"}}, {"type": "node", "id": 6761982087, "lat": 43.6759664, "lon": 7.1970136}, {"type": "node", "id": 6761982088, "lat": 43.6762573, "lon": 7.1987163, "tags": {"railway": "buffer_stop"}}, {"type": "node", "id": 6761982089, "lat": 43.6759315, "lon": 7.1970338}, {"type": "node", "id": 6761982090, "lat": 43.6759242, "lon": 7.1969442}, {"type": "node", "id": 6761982091, "lat": 43.6759271, "lon": 7.1968984}, {"type": "node", "id": 6761982092, "lat": 43.6759468, "lon": 7.1968103}, {"type": "node", "id": 6761982093, "lat": 43.6759798, "lon": 7.1967352}, {"type": "node", "id": 6761982094, "lat": 43.6759561, "lon": 7.1969101}, {"type": "node", "id": 6761982095, "lat": 43.6759712, "lon": 7.1968021}, {"type": "node", "id": 6761982096, "lat": 43.6760137, "lon": 7.1966838}, {"type": "node", "id": 6761982097, "lat": 43.6759861, "lon": 7.1969426}, {"type": "node", "id": 6761982098, "lat": 43.6759895, "lon": 7.1968222}, {"type": "node", "id": 6761982099, "lat": 43.6760142, "lon": 7.1967185}, {"type": "node", "id": 6761982100, "lat": 43.6760436, "lon": 7.1966414}, {"type": "node", "id": 6761982101, "lat": 43.6760182, "lon": 7.1968591}, {"type": "node", "id": 6761982102, "lat": 43.676024, "lon": 7.196775}, {"type": "node", "id": 6761982103, "lat": 43.6760493, "lon": 7.1966669}, {"type": "node", "id": 6761982104, "lat": 43.6760774, "lon": 7.1965952}, {"type": "node", "id": 6761982106, "lat": 43.6760479, "lon": 7.1967827}, {"type": "node", "id": 6761982107, "lat": 43.676087, "lon": 7.1966064}, {"type": "node", "id": 6761982108, "lat": 43.6761135, "lon": 7.1965418}, {"type": "node", "id": 6761982109, "lat": 43.6760188, "lon": 7.1968203}, {"type": "node", "id": 6761982110, "lat": 43.6759829, "lon": 7.1969028}, {"type": "node", "id": 6761982112, "lat": 43.6760841, "lon": 7.1967138}, {"type": "node", "id": 6761982113, "lat": 43.6760915, "lon": 7.1966801}, {"type": "node", "id": 6761982114, "lat": 43.6761486, "lon": 7.1964916}, {"type": "node", "id": 6761982115, "lat": 43.6761093, "lon": 7.1967969}, {"type": "node", "id": 6761982116, "lat": 43.6761187, "lon": 7.1966608}, {"type": "node", "id": 6761982117, "lat": 43.6761473, "lon": 7.1965431}, {"type": "node", "id": 6761982118, "lat": 43.6761854, "lon": 7.1964371}, {"type": "node", "id": 6761982119, "lat": 43.6760805, "lon": 7.1968012}, {"type": "node", "id": 6761982120, "lat": 43.6760806, "lon": 7.1967518}, {"type": "node", "id": 6761982121, "lat": 43.6761118, "lon": 7.1967013}, {"type": "node", "id": 6761982122, "lat": 43.676108, "lon": 7.1967485}, {"type": "node", "id": 6761982148, "lat": 43.676257, "lon": 7.1979536}, {"type": "node", "id": 6761982149, "lat": 43.6763016, "lon": 7.197956}, {"type": "node", "id": 6761982150, "lat": 43.6763297, "lon": 7.1979481}, {"type": "node", "id": 6761982151, "lat": 43.6760612, "lon": 7.1967096}, {"type": "node", "id": 6761982152, "lat": 43.6760534, "lon": 7.1967449}, {"type": "node", "id": 6761982154, "lat": 43.6789228, "lon": 7.1953792}, {"type": "node", "id": 6761982155, "lat": 43.6784984, "lon": 7.1957169}, {"type": "node", "id": 6761982158, "lat": 43.678365, "lon": 7.1956735}, {"type": "node", "id": 6761982159, "lat": 43.6789218, "lon": 7.1955217}, {"type": "node", "id": 6761982160, "lat": 43.6789167, "lon": 7.1955503}, {"type": "node", "id": 6761982161, "lat": 43.6788924, "lon": 7.1956284}, {"type": "node", "id": 6761982162, "lat": 43.6789079, "lon": 7.1955856}, {"type": "node", "id": 6761982163, "lat": 43.6786882, "lon": 7.1957732}, {"type": "node", "id": 6761982164, "lat": 43.6788428, "lon": 7.1957021}, {"type": "node", "id": 6761982165, "lat": 43.6787817, "lon": 7.1957509}, {"type": "node", "id": 6761982166, "lat": 43.678721, "lon": 7.1957701}, {"type": "node", "id": 6761982167, "lat": 43.6783877, "lon": 7.1955899}, {"type": "node", "id": 6761982168, "lat": 43.6784797, "lon": 7.1956368}, {"type": "node", "id": 6761982169, "lat": 43.6786271, "lon": 7.195756}, {"type": "node", "id": 6761982170, "lat": 43.6786603, "lon": 7.1957672}, {"type": "node", "id": 6761982172, "lat": 43.6787273, "lon": 7.1949223}, {"type": "node", "id": 6761982183, "lat": 43.6788821, "lon": 7.1952486}, {"type": "node", "id": 6761982184, "lat": 43.6788792, "lon": 7.1952831}, {"type": "node", "id": 6761982185, "lat": 43.678866, "lon": 7.1953524}, {"type": "node", "id": 6761982186, "lat": 43.6788078, "lon": 7.1954685}, {"type": "node", "id": 6761982187, "lat": 43.678536, "lon": 7.1955092}, {"type": "node", "id": 6761982188, "lat": 43.6785723, "lon": 7.1955324}, {"type": "node", "id": 6761982189, "lat": 43.6786102, "lon": 7.1955446}, {"type": "node", "id": 6761982190, "lat": 43.6783495, "lon": 7.1953282}, {"type": "node", "id": 6761982191, "lat": 43.6783043, "lon": 7.1952916}, {"type": "node", "id": 6761982192, "lat": 43.678264, "lon": 7.1952704}, {"type": "node", "id": 6761982193, "lat": 43.6781883, "lon": 7.1952581}, {"type": "node", "id": 6761982194, "lat": 43.6781104, "lon": 7.1952701}, {"type": "node", "id": 6761982195, "lat": 43.6769973, "lon": 7.1957345}, {"type": "node", "id": 6761982197, "lat": 43.6767907, "lon": 7.1973546, "tags": {"railway": "buffer_stop"}}, {"type": "node", "id": 6761982198, "lat": 43.6765611, "lon": 7.196342}, {"type": "node", "id": 6761982199, "lat": 43.6765345, "lon": 7.1963999}, {"type": "node", "id": 6761982200, "lat": 43.6767575, "lon": 7.1973892, "tags": {"railway": "buffer_stop"}}, {"type": "node", "id": 6761982201, "lat": 43.6765092, "lon": 7.196447}, {"type": "node", "id": 6761982202, "lat": 43.6767296, "lon": 7.1974283, "tags": {"railway": "buffer_stop"}}, {"type": "node", "id": 6761982203, "lat": 43.6764666, "lon": 7.1964645}, {"type": "node", "id": 6761982204, "lat": 43.6766855, "lon": 7.197442, "tags": {"railway": "buffer_stop"}}, {"type": "node", "id": 6761982205, "lat": 43.6764376, "lon": 7.1964762}, {"type": "node", "id": 6761982206, "lat": 43.6766617, "lon": 7.1974747, "tags": {"railway": "buffer_stop"}}, {"type": "node", "id": 6761982207, "lat": 43.6763932, "lon": 7.1964762}, {"type": "node", "id": 6761982208, "lat": 43.6766259, "lon": 7.1975247, "tags": {"railway": "buffer_stop"}}, {"type": "node", "id": 6761982211, "lat": 43.6765545, "lon": 7.1962608}, {"type": "node", "id": 6761982212, "lat": 43.6765662, "lon": 7.1961757}, {"type": "node", "id": 6761982213, "lat": 43.6766121, "lon": 7.196043}, {"type": "node", "id": 6761982214, "lat": 43.6766308, "lon": 7.1960032}, {"type": "node", "id": 6761982215, "lat": 43.6765271, "lon": 7.1963654}, {"type": "node", "id": 6761982216, "lat": 43.6765226, "lon": 7.196328}, {"type": "node", "id": 6761982217, "lat": 43.6765225, "lon": 7.1962616}, {"type": "node", "id": 6761982218, "lat": 43.6765325, "lon": 7.1961978}, {"type": "node", "id": 6761982219, "lat": 43.6765444, "lon": 7.1961599}, {"type": "node", "id": 6761982220, "lat": 43.6765844, "lon": 7.196053}, {"type": "node", "id": 6761982221, "lat": 43.676621, "lon": 7.1959878}, {"type": "node", "id": 6761982223, "lat": 43.6764965, "lon": 7.19639}, {"type": "node", "id": 6761982224, "lat": 43.6764901, "lon": 7.1963069}, {"type": "node", "id": 6761982225, "lat": 43.6765099, "lon": 7.1961859}, {"type": "node", "id": 6761982226, "lat": 43.6765355, "lon": 7.1961157}, {"type": "node", "id": 6761982227, "lat": 43.6765843, "lon": 7.1960273}, {"type": "node", "id": 6761982228, "lat": 43.6764581, "lon": 7.1964212}, {"type": "node", "id": 6761982229, "lat": 43.6764528, "lon": 7.1963812}, {"type": "node", "id": 6761982230, "lat": 43.6764519, "lon": 7.1963397}, {"type": "node", "id": 6761982231, "lat": 43.676461, "lon": 7.1962598}, {"type": "node", "id": 6761982232, "lat": 43.6764724, "lon": 7.1962193}, {"type": "node", "id": 6761982233, "lat": 43.6764903, "lon": 7.196169}, {"type": "node", "id": 6761982234, "lat": 43.6765103, "lon": 7.1961241}, {"type": "node", "id": 6761982235, "lat": 43.676543, "lon": 7.1960678}, {"type": "node", "id": 6761982236, "lat": 43.6764284, "lon": 7.1964314}, {"type": "node", "id": 6761982237, "lat": 43.6764233, "lon": 7.1963879}, {"type": "node", "id": 6761982238, "lat": 43.6764246, "lon": 7.1963146}, {"type": "node", "id": 6761982239, "lat": 43.6764392, "lon": 7.1962428}, {"type": "node", "id": 6761982240, "lat": 43.6764663, "lon": 7.1961692}, {"type": "node", "id": 6761982241, "lat": 43.6765026, "lon": 7.1961071}, {"type": "node", "id": 6761982242, "lat": 43.6763868, "lon": 7.1964339}, {"type": "node", "id": 6761982243, "lat": 43.6763858, "lon": 7.1963912}, {"type": "node", "id": 6761982244, "lat": 43.6763945, "lon": 7.1963082}, {"type": "node", "id": 6761982245, "lat": 43.6764313, "lon": 7.1962019}, {"type": "node", "id": 6761982246, "lat": 43.6764451, "lon": 7.1961769}, {"type": "node", "id": 6761982247, "lat": 43.6764623, "lon": 7.1961493}, {"type": "node", "id": 6761982248, "lat": 43.6764224, "lon": 7.1963518}, {"type": "node", "id": 6761982249, "lat": 43.6764304, "lon": 7.1962794}, {"type": "node", "id": 6761982250, "lat": 43.6764542, "lon": 7.1962991}, {"type": "node", "id": 6761982251, "lat": 43.6764909, "lon": 7.1963484}, {"type": "node", "id": 6761982252, "lat": 43.6764997, "lon": 7.1962223}, {"type": "node", "id": 6761982253, "lat": 43.6764919, "lon": 7.1962619}, {"type": "node", "id": 6761982254, "lat": 43.6765209, "lon": 7.1962923}, {"type": "node", "id": 6761982255, "lat": 43.6765262, "lon": 7.1962318}, {"type": "node", "id": 6761982258, "lat": 43.6765787, "lon": 7.19613}, {"type": "node", "id": 6761982259, "lat": 43.6765583, "lon": 7.1962176}, {"type": "node", "id": 6761982260, "lat": 43.6765556, "lon": 7.1963007}, {"type": "node", "id": 6761982262, "lat": 43.6764714, "lon": 7.1968286}, {"type": "node", "id": 6761982263, "lat": 43.6765161, "lon": 7.1968246}, {"type": "node", "id": 6761982264, "lat": 43.6765479, "lon": 7.1968264}, {"type": "node", "id": 6761982266, "lat": 43.6789272, "lon": 7.1954271}, {"type": "node", "id": 6761982268, "lat": 43.6789279, "lon": 7.1954591}, {"type": "node", "id": 6761982269, "lat": 43.6789258, "lon": 7.1954923}, {"type": "node", "id": 6761982270, "lat": 43.6782881, "lon": 7.1955087}, {"type": "node", "id": 6761982271, "lat": 43.67832, "lon": 7.195504}, {"type": "node", "id": 6761982272, "lat": 43.6783485, "lon": 7.1955051}, {"type": "node", "id": 6761982273, "lat": 43.6784027, "lon": 7.1955197}, {"type": "node", "id": 6761982274, "lat": 43.6784326, "lon": 7.1955363}, {"type": "node", "id": 6761982275, "lat": 43.6784646, "lon": 7.1955612}, {"type": "node", "id": 6761982277, "lat": 43.6785439, "lon": 7.1956325}, {"type": "node", "id": 6761982278, "lat": 43.6787099, "lon": 7.1956981}, {"type": "node", "id": 6761982279, "lat": 43.6787691, "lon": 7.1956786}, {"type": "node", "id": 6761982280, "lat": 43.6788695, "lon": 7.1955746}, {"type": "node", "id": 6761982281, "lat": 43.678888, "lon": 7.1955299}, {"type": "node", "id": 6761982282, "lat": 43.678906, "lon": 7.1954669}, {"type": "node", "id": 6761982283, "lat": 43.6789117, "lon": 7.1954282}, {"type": "node", "id": 6761982284, "lat": 43.6789129, "lon": 7.1953521}, {"type": "node", "id": 6761982285, "lat": 43.6788979, "lon": 7.1954998}, {"type": "node", "id": 6761982286, "lat": 43.6788476, "lon": 7.1956071}, {"type": "node", "id": 6761982287, "lat": 43.6786739, "lon": 7.195698}, {"type": "node", "id": 6761982288, "lat": 43.6783769, "lon": 7.1955103}, {"type": "node", "id": 6780620488, "lat": 43.7055228, "lon": 7.2342681}, {"type": "node", "id": 6780620489, "lat": 43.7053621, "lon": 7.2344399}, {"type": "node", "id": 6780620490, "lat": 43.705089, "lon": 7.2347752}, {"type": "node", "id": 6780620491, "lat": 43.7049231, "lon": 7.2349789}, {"type": "node", "id": 6780620492, "lat": 43.7048415, "lon": 7.2350787}, {"type": "node", "id": 6780620493, "lat": 43.7046138, "lon": 7.2353895}, {"type": "node", "id": 6780620494, "lat": 43.704523, "lon": 7.2355323}, {"type": "node", "id": 6780620495, "lat": 43.7044593, "lon": 7.2356445}, {"type": "node", "id": 6780620496, "lat": 43.7042959, "lon": 7.2360101}, {"type": "node", "id": 6780620497, "lat": 43.7042079, "lon": 7.2362687}, {"type": "node", "id": 6780620498, "lat": 43.7040562, "lon": 7.2370211}, {"type": "node", "id": 6780620499, "lat": 43.7057279, "lon": 7.2340857}, {"type": "node", "id": 6796506979, "lat": 43.6768187, "lon": 7.2009931, "tags": {"railway": "level_crossing"}}, {"type": "node", "id": 6796506980, "lat": 43.6767909, "lon": 7.2009682, "tags": {"railway": "level_crossing"}}, {"type": "node", "id": 6806403136, "lat": 43.7095822, "lon": 7.1951597, "tags": {"railway": "level_crossing"}}, {"type": "node", "id": 6806403137, "lat": 43.7095713, "lon": 7.1951223, "tags": {"railway": "level_crossing"}}, {"type": "node", "id": 6806535103, "lat": 43.6914284, "lon": 7.2451033, "tags": {"railway": "level_crossing"}}, {"type": "node", "id": 6806535104, "lat": 43.6914042, "lon": 7.2451185, "tags": {"railway": "level_crossing"}}, {"type": "node", "id": 6806535105, "lat": 43.6913195, "lon": 7.2448433, "tags": {"railway": "level_crossing"}}, {"type": "node", "id": 6806535106, "lat": 43.6912941, "lon": 7.2448646, "tags": {"railway": "level_crossing"}}, {"type": "node", "id": 6806535107, "lat": 43.6912451, "lon": 7.2447394, "tags": {"railway": "crossing"}}, {"type": "node", "id": 6806535108, "lat": 43.6912729, "lon": 7.2447191, "tags": {"railway": "crossing"}},