{"version": 0.6, "generator": "Overpass API 0.7.62.8 e802775f", "osm3s": {"timestamp_osm_base": "2026-01-11T17:57:02Z", "copyright": "The data included in this document is from www.openstreetmap.org. The data is made available under ODbL."}, "elements": [{"type": "node", "id": 358807902, "lat": 33.951755, "lon": -118.3475295}, {"type": "node", "id": 1966222288, "lat": 33.9236701, "lon": -118.2461071}, {"type": "node", "id": 1966222289, "lat": 33.9237057, "lon": -118.2459032}, {"type": "node", "id": 1966222290, "lat": 33.9237858, "lon": -118.2455385}, {"type": "node", "id": 1966222291, "lat": 33.9244802, "lon": -118.2433927}, {"type": "node", "id": 1966222292, "lat": 33.9221477, "lon": -118.2392299}, {"type": "node", "id": 1966222293, "lat": 33.9244993, "lon": -118.2392068}, {"type": "node", "id": 1966222294, "lat": 33.9221846, "lon": -118.2461484}, {"type": "node", "id": 1966222295, "lat": 33.9242322, "lon": -118.2443352}, {"type": "node", "id": 1966222296, "lat": 33.9236077, "lon": -118.2461822}, {"type": "node", "id": 1966222297, "lat": 33.9243747, "lon": -118.2439383}, {"type": "node", "id": 5497779504, "lat": 33.9491696, "lon": -118.3475187}, {"type": "node", "id": 5497779505, "lat": 33.9491651, "lon": -118.3490878}, {"type": "node", "id": 5497779506, "lat": 33.9517527, "lon": -118.3490905}, {"type": "node", "id": 10866467674, "lat": 33.9117288, "lon": -118.3520439, "tags": {"addr:city": "Hawthorne", "addr:housenumber": "13300", "addr:postcode": "90250-5805", "addr:state": "CA", "addr:street": "Hawthorne Boulevard", "amenity": "hospital", "beds": "64", "healthcare": "hospital", "healthcare:speciality": "psychiatry", "name": "College Medical Center Hawthorne Campus", "phone": "+1 424 365 3000", "website": "https://www.collegemedicalcenter.com"}}, {"type": "node", "id": 11271363065, "lat": 33.9238352, "lon": -118.2454048}, {"type": "node", "id": 11271390240, "lat": 33.9244888, "lon": -118.2415095}, {"type": "node", "id": 11271390272, "lat": 33.9244893, "lon": -118.2414014}, {"type": "node", "id": 11271390340, "lat": 33.924497, "lon": -118.2397058}, {"type": "node", "id": 11271390364, "lat": 33.9230148, "lon": -118.2461678}, {"type": "node", "id": 11271390365, "lat": 33.9244551, "lon": -118.2435221}, {"type": "node", "id": 11271390366, "lat": 33.9244807, "lon": -118.2432868}, {"type": "node", "id": 11738874511, "lat": 33.9221839, "lon": -118.2460257}, {"type": "node", "id": 11738874512, "lat": 33.9221483, "lon": -118.2393349}, {"type": "way", "id": 185933411, "nodes": [1966222288, 1966222296, 11271390364, 1966222294, 11738874511, 11738874512, 1966222292, 1966222293, 11271390340, 11271390272, 11271390240, 11271390366, 1966222291, 11271390365, 1966222297, 1966222295, 11271363065, 1966222290, 1966222289, 1966222288], "tags": {"addr:city": "Los Angeles", "addr:housenumber": "1680", "addr:postcode": "90059", "addr:street": "East 120th Street", "amenity": "hospital", "beds": "131", "emergency": "yes", "healthcare": "hospital", "name": "Martin Luther King, Jr. Community Hospital", "name:etymology:wikidata": "Q8027", "opening_hours": "24/7", "phone": "+1 424 338 8000", "website": "https://www.mlkcommunityhospital.org/", "wikidata": "Q14956884", "wikipedia": "en:Martin Luther King Jr. Community Hospital"}}, {"type": "way", "id": 572213965, "nodes": [358807902, 5497779506, 5497779505, 5497779504, 358807902], "tags": {"addr:city": "Inglewood", "addr:housenumber": "555", "addr:postcode": "90301", "addr:street": "East Hardy Street", "amenity": "hospital", "beds": "369", "emergency": "yes", "gnis:feature_id": "1660457", "healthcare": "hospital", "name": "Centinela Hospital Medical Center", "opening_hours": "24/7", "operator": "Prime Healthcare Services", "operator:wikidata": "Q7243267", "phone": "+1 310 673 4660", "short_name": "CHMC", "website": "https://www.centinelamed.com/", "wikidata": "Q23926524", "wikipedia": "en:Centinela Hospital Medical Center"}}]}