{"version": 0.6, "generator": "Overpass API 0.7.62.8 e802775f", "osm3s": {"timestamp_osm_base": "2026-01-13T07:52:29Z", "copyright": "The data included in this document is from www.openstreetmap.org. The data is made available under ODbL."}, "elements": [{"type": "node", "id": 245660950, "lat": 19.0190616, "lon": 72.8575206, "tags": {"source": "AND"}}, {"type": "node", "id": 631493980, "lat": 19.0353273, "lon": 72.8597511}, {"type": "node", "id": 631493994, "lat": 19.0367462, "lon": 72.860318}, {"type": "node", "id": 1281204550, "lat": 19.0209503, "lon": 72.8589049}, {"type": "node", "id": 1281204569, "lat": 19.0204278, "lon": 72.8588338}, {"type": "node", "id": 1287695919, "lat": 19.0081883, "lon": 72.8539476}, {"type": "node", "id": 1287695926, "lat": 19.0086752, "lon": 72.8539798}, {"type": "node", "id": 1287695938, "lat": 19.0077014, "lon": 72.8532181}, {"type": "node", "id": 1311768755, "lat": 19.0211306, "lon": 72.8590511}, {"type": "node", "id": 1311768756, "lat": 19.021313, "lon": 72.8590688}, {"type": "node", "id": 1311768840, "lat": 19.0211168, "lon": 72.8592095}, {"type": "node", "id": 1311768874, "lat": 19.0212993, "lon": 72.8592272}, {"type": "node", "id": 1366795256, "lat": 19.0687005, "lon": 72.9223936}, {"type": "node", "id": 1398715651, "lat": 19.0558773, "lon": 72.8973945, "tags": {"amenity": "hospital", "name": "JOY Hospital"}}, {"type": "node", "id": 1398717565, "lat": 19.0466131, "lon": 72.8964218, "tags": {"amenity": "hospital", "healthcare": "hospital", "name": "Inlaks Hospital"}}, {"type": "node", "id": 1419256929, "lat": 19.0192046, "lon": 72.8602182}, {"type": "node", "id": 1419256940, "lat": 19.0196684, "lon": 72.8569997, "tags": {"source": "AND"}}, {"type": "node", "id": 1419256941, "lat": 19.0201928, "lon": 72.8605096}, {"type": "node", "id": 1633934084, "lat": 19.047019, "lon": 72.8743312}, {"type": "node", "id": 1633934086, "lat": 19.0463943, "lon": 72.8745689}, {"type": "node", "id": 1650708088, "lat": 19.0112105, "lon": 72.8618315}, {"type": "node", "id": 1650708091, "lat": 19.0116259, "lon": 72.860356}, {"type": "node", "id": 1650708126, "lat": 19.0133514, "lon": 72.8624784}, {"type": "node", "id": 1650708132, "lat": 19.0134179, "lon": 72.860657}, {"type": "node", "id": 1650753824, "lat": 19.0189989, "lon": 72.8588785}, {"type": "node", "id": 1650753844, "lat": 19.0192186, "lon": 72.8589021}, {"type": "node", "id": 1650753846, "lat": 19.0192633, "lon": 72.8595165}, {"type": "node", "id": 1650753849, "lat": 19.0193824, "lon": 72.8589927}, {"type": "node", "id": 1650753851, "lat": 19.0193913, "lon": 72.8569821}, {"type": "node", "id": 1650753852, "lat": 19.0194047, "lon": 72.8591857}, {"type": "node", "id": 1650753918, "lat": 19.0211771, "lon": 72.8574014}, {"type": "node", "id": 1673075405, "lat": 19.0771611, "lon": 72.8581228}, {"type": "node", "id": 1673075406, "lat": 19.077113, "lon": 72.858442}, {"type": "node", "id": 1673075407, "lat": 19.0771308, "lon": 72.8587343}, {"type": "node", "id": 1673075408, "lat": 19.0770217, "lon": 72.8583214}, {"type": "node", "id": 1673075409, "lat": 19.0768494, "lon": 72.8584421}, {"type": "node", "id": 1673075410, "lat": 19.0771028, "lon": 72.8582462}, {"type": "node", "id": 1673075411, "lat": 19.0769424, "lon": 72.8588056}, {"type": "node", "id": 1673075412, "lat": 19.0770571, "lon": 72.8582757}, {"type": "node", "id": 1673075413, "lat": 19.0769119, "lon": 72.8585669}, {"type": "node", "id": 1673075414, "lat": 19.077216, "lon": 72.8581511}, {"type": "node", "id": 1673075415, "lat": 19.0770394, "lon": 72.8582032}, {"type": "node", "id": 1673075416, "lat": 19.0771129, "lon": 72.8583132}, {"type": "node", "id": 2131962450, "lat": 19.0534388, "lon": 72.8752459}, {"type": "node", "id": 2131962451, "lat": 19.0532351, "lon": 72.8753815}, {"type": "node", "id": 2131962452, "lat": 19.0533035, "lon": 72.8750184}, {"type": "node", "id": 2131962453, "lat": 19.0530998, "lon": 72.8751539}, {"type": "node", "id": 2134856430, "lat": 19.0493781, "lon": 72.8698066, "tags": {"amenity": "hospital"}}, {"type": "node", "id": 2238635335, "lat": 19.0622247, "lon": 72.8997288, "tags": {"addr:city": "chembur east", "addr:housenumber": "near natraj cinema hall", "addr:postcode": "400071", "addr:street": "m ward marg", "amenity": "hospital", "emergency": "yes", "name": "Ameeta patil  Nursing Home", "operator": "patils"}}, {"type": "node", "id": 2290766956, "lat": 19.0049348, "lon": 72.8531362}, {"type": "node", "id": 2290766966, "lat": 19.0064565, "lon": 72.8507419}, {"type": "node", "id": 2319217775, "lat": 19.0557141, "lon": 72.8946408, "tags": {"amenity": "hospital", "emergency": "no", "name": "Mata Ramabai B Ambedkar Hospital", "name:etymology:wikidata": "Q19812241"}}, {"type": "node", "id": 2663447657, "lat": 19.0758981, "lon": 72.8856074}, {"type": "node", "id": 2663447659, "lat": 19.0764767, "lon": 72.8863946}, {"type": "node", "id": 2930722306, "lat": 19.0615785, "lon": 72.9282129, "tags": {"amenity": "hospital", "name": "Dr.zamil"}}, {"type": "node", "id": 3204211842, "lat": 19.0501477, "lon": 72.9193344, "tags": {"amenity": "hospital", "name": "jonsons diagnostics"}}, {"type": "node", "id": 3205767044, "lat": 19.0277452, "lon": 72.868275}, {"type": "node", "id": 3205777380, "lat": 19.0628029, "lon": 72.9187087}, {"type": "node", "id": 3205813953, "lat": 19.0602605, "lon": 72.9113338, "tags": {"amenity": "hospital", "name": "bba"}}, {"type": "node", "id": 3205935610, "lat": 19.0677525, "lon": 72.9275925, "tags": {"amenity": "hospital", "name": "mahaveer hospital"}}, {"type": "node", "id": 3206033563, "lat": 19.0585059, "lon": 72.8904048, "tags": {"amenity": "hospital", "name": "maa hospital"}}, {"type": "node", "id": 3213764477, "lat": 19.0608709, "lon": 72.9247689, "tags": {"addr:city": "mumbai", "addr:housenumber": "room no:10,line no:q,plot no:12", "addr:postcode": "400043", "addr:street": "Jeejabai Bhosle Marg", "amenity": "hospital", "emergency": "yes", "name": "sanjeevan hospital"}}, {"type": "node", "id": 3213767187, "lat": 19.0668912, "lon": 72.9134181, "tags": {"amenity": "hospital", "name": "Metalife"}}, {"type": "node", "id": 3215517363, "lat": 19.0524549, "lon": 72.9185421, "tags": {"amenity": "hospital", "name": "AMAN"}}, {"type": "node", "id": 3215654162, "lat": 19.0694984, "lon": 72.922163}, {"type": "node", "id": 3215654163, "lat": 19.069459, "lon": 72.922551}, {"type": "node", "id": 3215654165, "lat": 19.0689462, "lon": 72.9218717}, {"type": "node", "id": 3216229177, "lat": 19.0623004, "lon": 72.8967534}, {"type": "node", "id": 3216229180, "lat": 19.0615728, "lon": 72.8964946}, {"type": "node", "id": 3216229181, "lat": 19.0616527, "lon": 72.8962411}, {"type": "node", "id": 3226211962, "lat": 19.0688224, "lon": 72.9220954}, {"type": "node", "id": 3532119818, "lat": 19.0634778, "lon": 72.8817876, "tags": {"amenity": "hospital", "name": "v care hospital intensive& unit care"}}, {"type": "node", "id": 3532124714, "lat": 19.0693933, "lon": 72.8781202, "tags": {"amenity": "hospital", "name": "arpan nursing home"}}, {"type": "node", "id": 3532124717, "lat": 19.0627584, "lon": 72.8731765, "tags": {"amenity": "hospital", "name": "fauziya hospital"}}, {"type": "node", "id": 3532126359, "lat": 19.0636096, "lon": 72.8819271, "tags": {"amenity": "hospital", "name": "arayan hospital"}}, {"type": "node", "id": 3589399303, "lat": 19.0809415, "lon": 72.8820782}, {"type": "node", "id": 3589399323, "lat": 19.0809784, "lon": 72.8818558}, {"type": "node", "id": 3589399326, "lat": 19.0811378, "lon": 72.8818513}, {"type": "node", "id": 3589399327, "lat": 19.0811435, "lon": 72.8820724}, {"type": "node", "id": 3591607438, "lat": 19.0277334, "lon": 72.8683552}, {"type": "node", "id": 3591607444, "lat": 19.0277542, "lon": 72.8682144}, {"type": "node", "id": 3591607451, "lat": 19.0278374, "lon": 72.8683723}, {"type": "node", "id": 3591607452, "lat": 19.0278581, "lon": 72.8682315}, {"type": "node", "id": 3597683636, "lat": 19.0782728, "lon": 72.8547927}, {"type": "node", "id": 3597683640, "lat": 19.0783736, "lon": 72.8552629}, {"type": "node", "id": 3597683642, "lat": 19.0783899, "lon": 72.8548691}, {"type": "node", "id": 3597683646, "lat": 19.0784475, "lon": 72.8551514}, {"type": "node", "id": 3597683650, "lat": 19.0784578, "lon": 72.8547499}, {"type": "node", "id": 3597683653, "lat": 19.0785166, "lon": 72.8551171}, {"type": "node", "id": 3597683655, "lat": 19.0784864, "lon": 72.8548657}, {"type": "node", "id": 3597683659, "lat": 19.0785482, "lon": 72.8551813}, {"type": "node", "id": 3981413826, "lat": 19.0626455, "lon": 72.9190606}, {"type": "node", "id": 3981413827, "lat": 19.0626742, "lon": 72.9190735}, {"type": "node", "id": 3981413833, "lat": 19.0631962, "lon": 72.9193221}, {"type": "node", "id": 4132480380, "lat": 19.049969, "lon": 72.9106103}, {"type": "node", "id": 4132480381, "lat": 19.0498161, "lon": 72.9115816}, {"type": "node", "id": 4132480382, "lat": 19.0487215, "lon": 72.9114035}, {"type": "node", "id": 4132480383, "lat": 19.0489344, "lon": 72.9103625}, {"type": "node", "id": 4264834970, "lat": 19.0358885, "lon": 72.8583026}, {"type": "node", "id": 4292746785, "lat": 19.0123652, "lon": 72.8605715}, {"type": "node", "id": 4292746805, "lat": 19.0133494, "lon": 72.86209}, {"type": "node", "id": 4292746828, "lat": 19.0146208, "lon": 72.8625911}, {"type": "node", "id": 4292746829, "lat": 19.0147029, "lon": 72.8625156}, {"type": "node", "id": 4297000114, "lat": 19.0652101, "lon": 72.8602486}, {"type": "node", "id": 4297017108, "lat": 19.0648746, "lon": 72.8604461}, {"type": "node", "id": 4297017109, "lat": 19.0649062, "lon": 72.8602099}, {"type": "node", "id": 4297017110, "lat": 19.0650704, "lon": 72.8616134}, {"type": "node", "id": 4297017111, "lat": 19.0651941, "lon": 72.8603705}, {"type": "node", "id": 4297017112, "lat": 19.0655094, "lon": 72.8612444}, {"type": "node", "id": 4297017113, "lat": 19.0656848, "lon": 72.8612577}, {"type": "node", "id": 4297017114, "lat": 19.065784, "lon": 72.8604366}, {"type": "node", "id": 4423695890, "lat": 19.0323408, "lon": 72.8595512, "tags": {"addr:district": "Mumbai", "addr:full": "Sion-Matunga Estate, Plot No: 96, Road No.31, Near Gandhi Market, King Circle-Sion (East)", "addr:postcode": "400022", "addr:state": "Maharashtra", "amenity": "hospital", "contact:phone": "2224035459", "name": "Smt S.R.Mehta and Sir K.P.Cardiac Institute", "name:en": "Smt. S.R.Mehta and Sir K.P.Cardiac Institute", "operator:type": "private", "source": "OpenGovernmentData", "website": "https://srmkpcardiac.com/"}}, {"type": "node", "id": 4848773727, "lat": 19.0358379, "lon": 72.8609822, "tags": {"amenity": "hospital", "name": "Mata Lachmi Hospital"}}, {"type": "node", "id": 4996322798, "lat": 19.0815079, "lon": 72.8831157, "tags": {"addr:city": "Mumbai", "addr:postcode": "400070", "addr:street": "father peter periera road", "amenity": "hospital", "name": "Kurla Municipal Hospital", "operator": "MCGM", "website": "https://www.mcgm.gov.in"}}, {"type": "node", "id": 5506320962, "lat": 19.0647166, "lon": 72.860991}, {"type": "node", "id": 5510255905, "lat": 19.0649456, "lon": 72.8602135}, {"type": "node", "id": 5792364461, "lat": 19.0360806, "lon": 72.8581106}, {"type": "node", "id": 5792364462, "lat": 19.0373889, "lon": 72.8586434}, {"type": "node", "id": 6322310753, "lat": 19.0763785, "lon": 72.9054696, "tags": {"amenity": "hospital", "healthcare": "hospital", "name": "Ashirvaad Heart Hospital", "operator": "Dr Bhaskar Shah"}}, {"type": "node", "id": 7042871859, "lat": 19.0500033, "lon": 72.9044715, "tags": {"addr:district": "Mumbai", "addr:full": "B-28/1, Maitri Park, Sion Trombay Road, Next To Maitri Park Bus Stop,Chembur", "addr:postcode": "400071", "addr:state": "Maharashtra", "amenity": "hospital", "name": "Niramaya General Hospital", "source": "OpenGovernmentData", "website": "niramayahospitals.in"}}, {"type": "node", "id": 7042942734, "lat": 19.059025, "lon": 72.8973126, "tags": {"addr:district": "Mumbai", "addr:full": "Plot No.185, 15Th Road, Opp Nirmal And Ayush Beauty Clinic, Chembur", "addr:postcode": "400071", "addr:state": "Maharashtra", "amenity": "hospital", "name": "Dr.Sanjay Sonar Laparoscopy and Scopy Center", "source": "OpenGovernmentData", "website": "sanjaysonar.com"}}, {"type": "node", "id": 7042955283, "lat": 19.0563744, "lon": 72.8957395, "tags": {"addr:district": "Mumbai", "addr:full": "1, Casa Grande, Road No-10, Opp Jain Temple,Chembur", "addr:postcode": "400071", "addr:state": "Maharashtra", "amenity": "hospital", "name": "Shree Chembur Jain Medical Relief Centre", "source": "OpenGovernmentData"}}, {"type": "node", "id": 7042963296, "lat": 19.0607819, "lon": 72.8986967, "tags": {"addr:district": "Mumbai", "addr:full": "1st Floor, Hotel Pearl Building, Above Malhar Hotel, Chembur", "addr:postcode": "400071", "addr:state": "Maharashtra", "amenity": "hospital", "name": "Yash Eye Care and Polyclinic", "source": "OpenGovernmentData"}}, {"type": "node", "id": 7042999151, "lat": 19.0824458, "lon": 72.9092512, "tags": {"addr:district": "Mumbai", "addr:full": "Ghatkopar(E)", "addr:postcode": "400077", "addr:state": "Maharashtra", "amenity": "hospital", "name": "Vatsal Nicu and Childrens Hospital", "source": "OpenGovernmentData"}}, {"type": "node", "id": 7043001747, "lat": 19.0579944, "lon": 72.9087979, "tags": {"addr:district": "Mumbai", "addr:full": "NJ,1&2,Khardev Nagar,Ghatla,N.G Adhaya Marg,Chembur", "addr:postcode": "400071", "addr:state": "Maharashtra", "amenity": "hospital", "name": "Aditya Health Care Hospital", "source": "OpenGovernmentData"}}, {"type": "node", "id": 7043029973, "lat": 19.0456831, "lon": 72.9025014, "tags": {"addr:district": "Mumbai", "addr:full": "16, Maitri Vijay, Opposite Basant Cinema, Chembur", "addr:postcode": "400074", "addr:state": "Maharashtra", "amenity": "hospital", "name": "Nayak Medicare - Chembur", "source": "OpenGovernmentData", "website": "drudaynayak.com"}}, {"type": "node", "id": 7043035499, "lat": 19.0596994, "lon": 72.8997535, "tags": {"addr:district": "Mumbai", "addr:full": "2nd & 3rd Floor, Gagangiri, 18Th Road, Chembur", "addr:postcode": "400071", "addr:state": "Maharashtra", "amenity": "hospital", "name": "Dr. Das Hospital - Chembur (Mumbai)", "source": "OpenGovernmentData", "website": "https://dashospital.com/"}}, {"type": "node", "id": 7043055857, "lat": 19.0570862, "lon": 72.8988851, "tags": {"addr:district": "Mumbai", "addr:full": "Sampoorna, Plot 213,11Th Road, Chembur", "addr:postcode": "400071", "addr:state": "Maharashtra", "amenity": "hospital", "name": "Laxmi Maternity and Nursing Home, Mumbai", "source": "OpenGovernmentData"}}, {"type": "node", "id": 7043060180, "lat": 19.0606625, "lon": 72.8997141, "tags": {"addr:district": "Mumbai", "addr:full": "Saikripa Building ,Road No.1, Opposite Chembur Municipal Office,M' Ward,Chembur", "addr:postcode": "400071", "addr:state": "Maharashtra", "amenity": "hospital", "healthcare": "hospital", "name": "Hegde Hospital", "source": "OpenGovernmentData"}}, {"type": "node", "id": 7043077889, "lat": 19.0694366, "lon": 72.9038545, "tags": {"addr:city": "Mumbai", "addr:district": "Mumbai", "addr:full": "Rane Hospital, 2nd Floor, Pestom Sagar Road No. 2, Chembur, Mumbai 400089, India", "addr:housenumber": "Rane Hospital, 2nd Floor, Pestom Sagar Road No. 2, Chembur, Mumbai 400089, India", "addr:postcode": "400089", "addr:state": "Maharashtra", "addr:street": "Dr Nandita Rane's Eye Clinic", "amenity": "hospital", "healthcare:speciality": "ophthalmology;dermatology", "name": "Dr Nandita Rane's Eye Clinic", "opening_hours": "24/7", "operator": "Dr Nandita Rane", "operator:type": "private_individual", "source": "OpenGovernmentData", "website": "https://drnandita.com/"}}, {"type": "node", "id": 7043090395, "lat": 19.0190313, "lon": 72.8639666, "tags": {"addr:district": "Mumbai", "addr:full": "4, Margaret House, Opp Indian Oil, Wadala (E)", "addr:postcode": "400037", "addr:state": "Maharashtra", "amenity": "hospital", "name": "Genesis Speciality Center (Health-Check Up", "source": "OpenGovernmentData"}}, {"type": "node", "id": 7043106193, "lat": 19.0609549, "lon": 72.8987212, "tags": {"addr:district": "Mumbai", "addr:full": "204,Garodia Market, Plot No 8-A, D K Sandu Road, Next To Hotel Malhaar, Chembur", "addr:postcode": "400071", "addr:state": "Maharashtra", "amenity": "hospital", "name": "Patankar's Hand and Limb Reconstruction Clinic", "source": "OpenGovernmentData"}}, {"type": "node", "id": 7043125151, "lat": 19.0618187, "lon": 72.8980838, "tags": {"addr:district": "Mumbai", "addr:full": "1& 2 Savla Sadan, First Floor, R.C. Marg,Opposite Ration Office,Chembur", "addr:postcode": "400071", "addr:state": "Maharashtra", "amenity": "hospital", "name": "Icon Hospital and Research Centre", "source": "OpenGovernmentData"}}, {"type": "node", "id": 7043188926, "lat": 19.0467619, "lon": 72.8934167, "tags": {"addr:district": "Mumbai", "addr:full": "Inlaks Hospital Road, Chembur Colony, Chembur", "addr:postcode": "400074", "addr:state": "Maharashtra", "amenity": "hospital", "name": "Inlaks General Hospital", "source": "OpenGovernmentData"}}, {"type": "node", "id": 7043233247, "lat": 19.0552184, "lon": 72.8898903, "tags": {"addr:district": "Mumbai", "addr:full": "Plotno.-22, Swastik Park, Chembur", "addr:postcode": "400071", "addr:state": "Maharashtra", "amenity": "hospital", "name": "Swastik Hospital and Research Centre, Mumbai", "source": "OpenGovernmentData", "website": "swastikhospital.com"}}, {"type": "node", "id": 7043236781, "lat": 19.0526628, "lon": 72.8911664, "tags": {"addr:district": "Mumbai", "addr:full": "No. 19-B, Near Bhakti Bhavan,Siddhi Society,Chembur", "addr:postcode": "400071", "addr:state": "Maharashtra", "amenity": "hospital", "name": "Sitla Hospital", "source": "OpenGovernmentData"}}, {"type": "node", "id": 7043769618, "lat": 19.0824573, "lon": 72.9092287, "tags": {"addr:district": "Mumbai", "addr:full": "501, Vishal Building, Above Subhiksha, Junction Of Hingwala Lane & 60 Feet Road,Ghatkopar East", "addr:postcode": "400077", "addr:state": "Maharashtra", "amenity": "hospital", "name": "Excel Ent Hospital", "source": "OpenGovernmentData"}}, {"type": "node", "id": 7043843367, "lat": 19.0561628, "lon": 72.8894511}, {"type": "node", "id": 7044376947, "lat": 19.0628176, "lon": 72.9207404, "tags": {"addr:district": "Mumbai", "addr:full": "Plot No-18-U-1-1(A) & 2, Near Bhaji Market, Shivaji Nagar, Govandi", "addr:postcode": "400043", "addr:state": "Maharashtra", "amenity": "hospital", "name": "Vikas Nursing Home, Mumbai", "source": "OpenGovernmentData"}}, {"type": "node", "id": 7044669600, "lat": 19.0757589, "lon": 72.9030552, "tags": {"addr:district": "Mumbai", "addr:full": "C-5, Satyam Shopping Centre, 1st Flr, M.G. Road, Ghatkopar (E)", "addr:postcode": "400077", "addr:state": "Maharashtra", "amenity": "hospital", "name": "Tara Neo Surg Hospital", "source": "OpenGovernmentData"}}, {"type": "node", "id": 7044692216, "lat": 19.0793026, "lon": 72.902154, "tags": {"addr:district": "Mumbai", "addr:full": "201,Punit Plaza , Second Floor , Next To Rajawadi Post Office , Rajawadi , Ghatkopar ( East )", "addr:postcode": "400077", "addr:state": "Maharashtra", "amenity": "hospital", "name": "The Eye Super Specialities", "source": "OpenGovernmentData"}}, {"type": "node", "id": 7044745238, "lat": 19.0791531, "lon": 72.9039431, "tags": {"addr:district": "Mumbai", "addr:full": "Jayant Arcade, Ist Floor, 140-142, M.G. Road, Ghatkopar(E)", "addr:postcode": "400077", "addr:state": "Maharashtra", "amenity": "hospital", "name": "Advanced Orthopaedic and Super Speciality Center", "source": "OpenGovernmentData"}}, {"type": "node", "id": 7044829632, "lat": 19.0829325, "lon": 72.8819436, "tags": {"addr:district": "Mumbai", "addr:full": "Pratap Nagar, Housing Society, A-Wing, 1st Floor, L.B.S. Marg, Kurla West", "addr:postcode": "400070", "addr:state": "Maharashtra", "amenity": "hospital", "healthcare": "hospital", "name": "Sushila Hospital-Icu and Maternity", "source": "OpenGovernmentData"}}, {"type": "node", "id": 7045020590, "lat": 19.062706, "lon": 72.8815868, "tags": {"addr:district": "Mumbai", "addr:full": "Opposite Bldg No.101, Nehru Nagar, Kurla (E)", "addr:postcode": "400070", "addr:state": "Maharashtra", "amenity": "hospital", "name": "V Care Hospital and Icu", "source": "OpenGovernmentData"}}, {"type": "node", "id": 7045155680, "lat": 19.0431439, "lon": 72.8936943, "tags": {"addr:district": "Mumbai", "addr:full": "5, Safal Ganga, Opposite Collector's Colony, Chembur Camp", "addr:postcode": "400074", "addr:state": "Maharashtra", "amenity": "hospital", "name": "Universal Eye Clinic and Surgical Centre", "source": "OpenGovernmentData"}}, {"type": "node", "id": 7045324038, "lat": 19.0630077, "lon": 72.8823915, "tags": {"addr:district": "Mumbai", "addr:full": "D-28 & 29, Nehru Nagar, Station Road, Kurla (East)", "addr:postcode": "400024", "addr:state": "Maharashtra", "amenity": "hospital", "name": "Aryan Hospital and Iccu - Kurla-Mumbai", "source": "OpenGovernmentData"}}, {"type": "node", "id": 7046488275, "lat": 19.0598819, "lon": 72.9011294, "tags": {"addr:district": "Mumbai", "addr:full": "Omprakash Arcade, 2nd Floor, Unit No.209, Ambedkar Garden, Chembur", "addr:postcode": "400071", "addr:state": "Maharashtra", "amenity": "hospital", "email": "kolekaraditya@gmail.com", "name": "Kolekar Hospital & ICCU", "source": "OpenGovernmentData"}}, {"type": "node", "id": 7046777602, "lat": 19.0535553, "lon": 72.8870063, "tags": {"addr:district": "Mumbai", "addr:full": "Sion-Trombay Road, Suman Nagar, Chembur East", "addr:postcode": "400071", "addr:state": "Maharashtra", "amenity": "hospital", "email": "info@suranasethiahospital.in", "healthcare": "hospital", "name": "Surana Sethia Hospital And Research Centre", "source": "OpenGovernmentData", "website": "https://suranahospital.in/"}}, {"type": "node", "id": 7047430578, "lat": 19.0758488, "lon": 72.8608239, "tags": {"addr:district": "Mumbai", "addr:full": "C.S.T. Road, Next To Sundar Nagar,M Kalina, Santacruz(E)", "addr:postcode": "400098", "addr:state": "Maharashtra", "amenity": "hospital", "name": "Durga Maternity and Surgical Nursing Home", "source": "OpenGovernmentData"}}, {"type": "node", "id": 7047553990, "lat": 19.0844927, "lon": 72.9048134, "tags": {"addr:district": "Mumbai", "addr:full": "Nilkanth Shopping Centre Corner Cama Lane , Ghatkopar, West Mumbai", "addr:postcode": "400001", "addr:state": "Maharashtra", "amenity": "hospital", "name": "Shreeji Hospital, Ghatkopar", "source": "OpenGovernmentData"}}, {"type": "node", "id": 7048172474, "lat": 19.0338607, "lon": 72.8590146, "tags": {"addr:district": "Mumbai", "addr:full": "No. 1/ 7, Sindhi Society, opp. Gurukrupa Hotel, Sion", "addr:postcode": "400022", "addr:state": "Maharashtra", "amenity": "hospital", "name": "Vaishnav Seva Samaj", "operator:type": "government", "source": "OpenGovernmentData"}}, {"type": "node", "id": 7048863374, "lat": 19.060984, "lon": 72.8986369, "tags": {"addr:district": "Mumbai", "addr:full": "Garodia Market, Plot No 8/A, 1st Floor D K Sandu Marg, Chembur", "addr:postcode": "400071", "addr:state": "Maharashtra", "amenity": "hospital", "name": "Varsha Gandre Parekh Maternity and Surgical Hospital", "source": "OpenGovernmentData"}}, {"type": "node", "id": 7048966028, "lat": 19.0799959, "lon": 72.9043213, "tags": {"addr:district": "Mumbai", "addr:full": "C-23, 2nd Floor, Satyam Shopping Centre, M.G. Road", "addr:postcode": "400077", "addr:state": "Maharashtra", "amenity": "hospital", "name": "Saraswati Eye Hospital, Mumbai", "source": "OpenGovernmentData"}}, {"type": "node", "id": 7049041346, "lat": 19.076179, "lon": 72.9056409, "tags": {"addr:city": "Mumbai", "addr:district": "Mumbai", "addr:full": "# 1, Vivek - 67, Tilak Road, Ghatkopar (E)", "addr:postcode": "400077", "addr:state": "Maharashtra", "addr:street": "Tilak Road", "amenity": "hospital", "healthcare": "hospital", "name": "Ashirwad Heart Hospital", "source": "OpenGovernmentData"}}, {"type": "node", "id": 7049683148, "lat": 19.031047, "lon": 72.860038, "tags": {"addr:district": "Mumbai", "addr:full": "Mumbai", "addr:postcode": "400022", "addr:state": "Maharashtra", "amenity": "hospital", "name": "Shanmukhananda Jasubhai R k shah Medical Centre", "source": "OpenGovernmentData"}}, {"type": "node", "id": 7050932259, "lat": 19.0798083, "lon": 72.9058863, "tags": {"addr:city": "Mumbai", "addr:district": "Mumbai", "addr:full": "18-A Happy Home 1st Floor Opp Achija & Guru Kurupa Hotel Ghatkopar (E)", "addr:postcode": "400077", "addr:state": "Maharashtra", "amenity": "hospital", "healthcare": "hospital", "name": "Hiren Mehta Eye Care Centre", "source": "OpenGovernmentData"}}, {"type": "node", "id": 7051595414, "lat": 19.0565988, "lon": 72.8905401, "tags": {"addr:district": "Mumbai", "addr:full": "48 Swastik Park, Umarshi Bappa Chowk, Sion Trombay Road, Chembur", "addr:postcode": "400071", "addr:state": "Maharashtra", "amenity": "hospital", "name": "Mangal Anand Hospital", "source": "OpenGovernmentData"}}, {"type": "node", "id": 7052027524, "lat": 19.0279281, "lon": 72.8538381, "tags": {"addr:district": "Mumbai", "addr:full": "Sanjay, Ground Floor, Plot 376, Telang Cross Road No.2, Near Matunga Circle", "addr:postcode": "400019", "addr:state": "Maharashtra", "amenity": "hospital", "name": "Jashem Eye Institute", "source": "OpenGovernmentData"}}, {"type": "node", "id": 7052058100, "lat": 19.0342874, "lon": 72.8591891, "tags": {"addr:district": "Mumbai", "addr:full": "2/254, Alka Mansion, Dr Ambedkar Road, Sion West", "addr:postcode": "400022", "addr:state": "Maharashtra", "amenity": "hospital", "name": "Vyas' Surgery", "source": "OpenGovernmentData"}}, {"type": "node", "id": 7052181497, "lat": 19.0399657, "lon": 72.8546199, "tags": {"addr:district": "Mumbai", "addr:full": "90 Feet Road, Ground, 1st, 2nd & 3rd Road, At Masiha Islampura Co-operative Housing Society Ltd., Behind Sion Hospital, Near Dharavi Police Station", "addr:postcode": "400017", "addr:state": "Maharashtra", "amenity": "hospital", "healthcare": "hospital", "name": "Sai Hospital", "source": "OpenGovernmentData"}}, {"type": "node", "id": 7052294540, "lat": 19.0521469, "lon": 72.9091445, "tags": {"addr:district": "Mumbai", "addr:full": "101, 102, 103, Ashirwad Hospital, Anurag Bussiness Center, Waman- Tukaram Patil Marg, Chembur", "addr:postcode": "400071", "addr:state": "Maharashtra", "amenity": "hospital", "name": "Ashirwad Hospital and Polyclinic", "source": "OpenGovernmentData"}}, {"type": "node", "id": 7052303296, "lat": 19.0799452, "lon": 72.8545234, "tags": {"addr:district": "Mumbai", "addr:full": "Rizvi Park, S.V.Road, Santacruz(W)", "addr:postcode": "400054", "addr:state": "Maharashtra", "amenity": "hospital", "emergency": "yes", "healthcare": "hospital", "healthcare:speciality": "orthodontics", "name": "Aseem Orthopaedic Hospital"}}, {"type": "node", "id": 7053266063, "lat": 19.0418977, "lon": 72.8640935, "tags": {"addr:district": "Mumbai", "addr:full": "6/206, Shiv Mahal Chs, Sion Main Road", "addr:postcode": "400022", "addr:state": "Maharashtra", "amenity": "hospital", "name": "Dr. Deosthaci's Eye Care Centre", "source": "OpenGovernmentData"}}, {"type": "node", "id": 7054746894, "lat": 19.0804497, "lon": 72.8562031, "tags": {"addr:district": "Mumbai", "addr:full": "Karlton Apts, Vakola Village Road, Vakola Santacruz (E)", "addr:postcode": "400055", "addr:state": "Maharashtra", "amenity": "hospital", "healthcare": "hospital", "name": "Dr. Raut's Maternity and Surgical Nursing Home", "source": "OpenGovernmentData"}}, {"type": "node", "id": 7054759108, "lat": 19.0512684, "lon": 72.9018161, "tags": {"addr:district": "Mumbai", "addr:full": "Near Diamond Garden, Sion-Trombay Road, Near Fairlawn So., Chembur", "addr:postcode": "400071", "addr:state": "Maharashtra", "amenity": "hospital", "name": "Oma Hospital", "source": "OpenGovernmentData"}}, {"type": "node", "id": 7054852418, "lat": 19.0444281, "lon": 72.8651664, "tags": {"addr:district": "Mumbai", "addr:full": "# 102, Maryland Corner, Plot No.39, Next To Hp Petrol Pump,Sion(E)", "addr:postcode": "400022", "addr:state": "Maharashtra", "amenity": "hospital", "name": "Krishna Eye Centre", "source": "OpenGovernmentData"}}, {"type": "node", "id": 7055036574, "lat": 19.0594446, "lon": 72.9000807, "tags": {"addr:district": "Mumbai", "addr:full": "18th Road, Near Ambedkar Garden, Chembur", "addr:postcode": "400071", "addr:state": "Maharashtra", "amenity": "hospital", "email": "info@rushabheyehospital.com", "name": "Rushabh Eye Hospital and Laser Centre", "operator:type": "private", "source": "OpenGovernmentData", "website": "https://rushabheyehospital.com/"}}, {"type": "node", "id": 7055279023, "lat": 19.0308961, "lon": 72.8600594, "tags": {"addr:district": "Mumbai", "addr:full": "4Th Floor, (Tower Block), Jasubhai R K Shah Medical Centre 292,Comrade Harbansial Marg, Sion East", "addr:postcode": "400022", "addr:state": "Maharashtra", "amenity": "hospital", "name": "Shanmukhananda Aditya Jyot Eye Institute", "source": "OpenGovernmentData"}}, {"type": "node", "id": 7055419121, "lat": 19.0800884, "lon": 72.9043441, "tags": {"addr:district": "Mumbai", "addr:full": "Ambika Darshan, M. G. Road, Ghatkopar (E), Ghatkopar (E)", "addr:postcode": "400077", "addr:state": "Maharashtra", "amenity": "hospital", "name": "Ashwini Maternity and Surgical Hospital,Ghatkopar(E)", "source": "OpenGovernmentData"}}, {"type": "node", "id": 7059172378, "lat": 19.0796436, "lon": 72.9043186, "tags": {"addr:district": "Mumbai", "addr:full": "301, Sapphire Arcade, Above Sejal Jewellery, M.G. Road, Near Rajawadi Signal, Ghatkopar(E)", "addr:postcode": "400077", "addr:state": "Maharashtra", "amenity": "hospital", "name": "Jain Eye Clinic", "source": "OpenGovernmentData"}}, {"type": "node", "id": 7059192085, "lat": 19.0741124, "lon": 72.90572, "tags": {"addr:district": "Mumbai", "addr:full": "48 Swastic Park Chembur", "addr:postcode": "400071", "addr:state": "Maharashtra", "amenity": "hospital", "name": "Mandakini Nuclear Imaging Centre", "source": "OpenGovernmentData"}}, {"type": "node", "id": 7063077077, "lat": 19.0831721, "lon": 72.9047189, "tags": {"addr:district": "Mumbai", "addr:full": "Amrut Kunj Anjaria Wadi , Near Rly Stn M G Road Ghatkopar East", "addr:postcode": "400001", "addr:state": "Maharashtra", "amenity": "hospital", "name": "Doshi Nursing Home", "opening_hours": "Mo-Su 09:00-21:00", "source": "OpenGovernmentData"}}, {"type": "node", "id": 7063808889, "lat": 19.0254153, "lon": 72.8535792, "tags": {"addr:district": "Mumbai", "addr:full": "Matunga", "addr:postcode": "400019", "addr:state": "Maharashtra", "amenity": "hospital", "name": "Lions Club Of East Bombay", "source": "OpenGovernmentData"}}, {"type": "node", "id": 7064402717, "lat": 19.0600492, "lon": 72.85234}, {"type": "node", "id": 7065561525, "lat": 19.0699633, "lon": 72.9047685, "tags": {"addr:city": "chembur", "addr:district": "Mumbai", "addr:full": "No:4, Pestom Sugar Road Opp: Pestom Pollice Station", "addr:housenumber": "pestam sagar", "addr:postcode": "400089", "addr:state": "Maharashtra", "addr:street": "Road No. 4 near shopper stop", "amenity": "hospital", "contact:facebook": "dcshospiyal", "description": "At Sanjeevani Hospital we are proud to offer world class service in:\nBullet  Maternity Care and Delive\nBullet  Gynecology\nBullet  Advanced Surgery\nBullet  Advanced Orthopedics\nBullet  Endoscopy\nBullet  Trauma Care\nBullet  X-Ra\nBullet  Sonography", "email": "dcshospital@gmail.com", "emergency": "yes", "healthcare": "hospital", "healthcare:speciality": "ayurveda", "image": "https://images.app.goo.gl/V73R7yn4mNvnax9b7", "name": "Dr Chauhans Sanjeevani Hospital", "operator": "dr. vikram chauhan", "operator:type": "public", "source": "OpenGovernmentData"}}, {"type": "node", "id": 7065817369, "lat": 19.0806727, "lon": 72.9039069, "tags": {"addr:district": "Mumbai", "addr:full": "27-D, Navnit Nagar, Gandhi Mkt. Bldg, M.G.Road, Ghatkopar (E)", "addr:postcode": "400077", "addr:state": "Maharashtra", "amenity": "hospital", "name": "Ami Drashti Eye Care Centre", "source": "OpenGovernmentData"}}, {"type": "node", "id": 7066374601, "lat": 19.0494367, "lon": 72.9063436, "tags": {"addr:district": "Mumbai", "addr:full": "Shop No.7, Waman Appartments, Behind Maitri Park St.Bus Stand, Ghatla Road, Chembur", "addr:postcode": "400071", "addr:state": "Maharashtra", "amenity": "hospital", "name": "Narurkar Ent Hospital", "source": "OpenGovernmentData"}}, {"type": "node", "id": 7066505685, "lat": 19.0782709, "lon": 72.9058555, "tags": {"addr:district": "Mumbai", "addr:full": "1 , 2 , 3 Gautam Building , Opposite Balaji Temple , Tilak Road , Ghatkopar ( East )", "addr:postcode": "400077", "addr:state": "Maharashtra", "amenity": "hospital", "name": "Dr. Trivedi's Maternity Nursing Home & Aakar IVF Test Tube Baby Centre", "source": "OpenGovernmentData"}}, {"type": "node", "id": 7067231946, "lat": 19.0754851, "lon": 72.9085484, "tags": {"addr:district": "Mumbai", "addr:full": "3, Milan, Ground Floor, 169-Garodia Nagar,90Ft Road, Opposite Lavender Baugh", "addr:postcode": "400077", "addr:state": "Maharashtra", "amenity": "hospital", "name": "Eye Essential Hospital", "source": "OpenGovernmentData"}}, {"type": "node", "id": 7067373861, "lat": 19.0704407, "lon": 72.8751061, "tags": {"addr:full": "Town Hall", "amenity": "hospital", "healthcare": "hospital", "name": "Despande Nursing Home", "source": "OpenGovernmentData", "wheelchair": "no"}}, {"type": "node", "id": 7068096871, "lat": 19.0606684, "lon": 72.8996381, "tags": {"addr:district": "Mumbai", "addr:full": "Road No 1, Opp M Ward Muncipal Office,Chembur", "addr:postcode": "400071", "addr:state": "Maharashtra", "amenity": "hospital", "name": "Sai Kripa Childrens Hospital", "source": "OpenGovernmentData"}}, {"type": "node", "id": 7070054648, "lat": 19.0353486, "lon": 72.8960936, "tags": {"addr:district": "Mumbai", "addr:full": "Sita Estate, Near Ashish Cinema, Aziz Baug, Mahul Road, Chembur", "addr:postcode": "400074", "addr:state": "Maharashtra", "amenity": "hospital", "name": "Sai Baba Hospital, Mumbai", "source": "OpenGovernmentData"}}, {"type": "node", "id": 7070354910, "lat": 19.0791429, "lon": 72.9038519, "tags": {"addr:district": "Mumbai", "addr:full": "Jayant Arcade,4Th Floor, Rajawadi,M.G.Road,Ghatkopar(E)", "addr:postcode": "400077", "addr:state": "Maharashtra", "amenity": "hospital", "name": "Bakul Parekh Children Hospital", "source": "OpenGovernmentData"}}, {"type": "node", "id": 7070857468, "lat": 19.0565342, "lon": 72.8895275, "tags": {"addr:district": "Mumbai", "addr:full": "Sushrut Hospital. 365, Swastik Park Chembur", "addr:postcode": "400071", "addr:state": "Maharashtra", "amenity": "hospital", "name": "Daycare Angels", "source": "OpenGovernmentData"}}, {"type": "node", "id": 7073537782, "lat": 19.0528644, "lon": 72.8978303, "tags": {"addr:district": "Mumbai", "addr:full": "201-202, Sunny Estate, Sion Trombay Road", "addr:postcode": "400071", "addr:state": "Maharashtra", "amenity": "hospital", "name": "Sunny Childrens Hospital", "source": "OpenGovernmentData"}}, {"type": "node", "id": 7079665691, "lat": 19.0120922, "lon": 72.8549686, "tags": {"addr:district": "Mumbai", "addr:full": "17/1, Vijay Niwas, R.A.K Road Wadala (W)", "addr:postcode": "400031", "addr:state": "Maharashtra", "amenity": "hospital", "name": "Shobha Maternity and Surgical Home", "source": "OpenGovernmentData"}}, {"type": "node", "id": 7080205211, "lat": 19.0814154, "lon": 72.9057965, "tags": {"addr:district": "Mumbai", "addr:full": "Samaj Bhavan, 5Th Floor, Joshi Lane, M G Road, Ghatkopar", "addr:postcode": "400077", "addr:state": "Maharashtra", "amenity": "hospital", "name": "Cg Eye Foundaton and Shree Ghatkopar Brahman Samaj", "source": "OpenGovernmentData"}}, {"type": "node", "id": 7080413752, "lat": 19.0597001, "lon": 72.8996768, "tags": {"addr:district": "Mumbai", "addr:full": "Gagangiri Complex, 1st And 4Th Floor, 18Th Road, Near Dr. Ambedkar Garden Chembur", "addr:postcode": "400071", "addr:state": "Maharashtra", "amenity": "hospital", "healthcare": "hospital", "name": "Tandon Hospital", "source": "OpenGovernmentData"}}, {"type": "node", "id": 7085422809, "lat": 19.0611444, "lon": 72.8948718, "tags": {"addr:district": "Mumbai", "addr:full": "C/0. Sushrut Hosptial, 2nd Floor, Swastik Park, Near Kach Gujar Hall, Chembur (E)", "addr:postcode": "400001", "addr:state": "Maharashtra", "amenity": "hospital", "name": "Apex Kidney Care Pvt. Ltd.", "source": "OpenGovernmentData"}}, {"type": "node", "id": 7086758044, "lat": 19.0466757, "lon": 72.8574979, "tags": {"addr:district": "Mumbai", "addr:full": "Priyadarshini Co-Op. Hsg.Soc.,Room No.102,G-Wing, 1st Floor,OppositeNew Ongc Tower, Sion-Bandra Link Road, Dharavi", "addr:postcode": "400017", "addr:state": "Maharashtra", "amenity": "hospital", "name": "Lifecare Hospital", "source": "OpenGovernmentData"}}, {"type": "node", "id": 7087131445, "lat": 19.0824839, "lon": 72.9049838, "tags": {"addr:district": "Mumbai", "addr:full": "206, Gayatri Dham, Jn. Of M.G Road , & Derasar Lane , Ghatkopar (East)", "addr:postcode": "400077", "addr:state": "Maharashtra", "amenity": "hospital", "name": "Dr. Dipak Desai's Ear Nose and Throat Hospital", "source": "OpenGovernmentData"}}, {"type": "node", "id": 7087131468, "lat": 19.0626503, "lon": 72.881615, "tags": {"addr:district": "Mumbai", "addr:full": "Opp-Building No-101 Nehru Nagar, Kurla (E)", "addr:postcode": "400024", "addr:state": "Maharashtra", "amenity": "hospital", "name": "Prarushi Healthcare Pvt Ltd / Kusumesh Chandra Maternity Hospital", "source": "OpenGovernmentData"}}, {"type": "node", "id": 7225067112, "lat": 19.078004, "lon": 72.86302, "tags": {"addr:district": "Mumbai", "addr:full": "Kalina Health Post, Near Geeta Vihar Market, Santacruz East", "addr:postcode": "400029", "addr:state": "Maharashtra", "amenity": "hospital", "name": "Kalina Hospital", "source": "OpenGovernmentData"}}, {"type": "node", "id": 7225067148, "lat": 19.0786832, "lon": 72.9013145, "tags": {"addr:district": "Mumbai", "addr:full": "RN Gandhi Road, Near Somaiya College, Ghatkopar East, Mumbai", "addr:postcode": "400077", "addr:state": "Maharashtra", "amenity": "hospital", "description": "Sub District Hospital", "source": "OpenGovernmentData"}}, {"type": "node", "id": 7225067179, "lat": 19.056203, "lon": 72.894763, "tags": {"addr:district": "Mumbai", "addr:full": "Ramakrishna Chemburkar Marg, Near BMC Office, Chembur", "addr:postcode": "400071", "addr:state": "Maharashtra", "amenity": "hospital", "name": "Matoshri Ramabai Ambedkar Maternity Hospital", "name:etymology:wikidata": "Q19812241", "source": "OpenGovernmentData"}}, {"type": "node", "id": 7225067214, "lat": 19.06335, "lon": 72.9189903}, {"type": "node", "id": 7225067271, "lat": 19.0369195, "lon": 72.8582046, "tags": {"addr:district": "Mumbai", "addr:full": "Dr Babasaheb Ambedkar Road, Sion West, Sion", "addr:postcode": "400022", "addr:state": "Maharashtra", "amenity": "hospital", "description": "Medical Colleges Hospital", "healthcare": "hospital", "name": "L.T.Muncipal Medical College and Sion Hospital", "source": "OpenGovernmentData"}}, {"type": "node", "id": 7607631740, "lat": 19.0536272, "lon": 72.9232104, "tags": {"addr:district": "Mumbai", "addr:full": "Deonar", "addr:postcode": "400043", "addr:state": "Maharashtra", "amenity": "hospital", "name": "Deonar Maternity Home", "source": "Local Knowledge"}}, {"type": "node", "id": 7663961398, "lat": 19.0605847, "lon": 72.9169906, "tags": {"addr:district": "Mumbai Suburban", "addr:full": "Sonapur Road, New Gautam Nagar, Govandi East, Mumbai", "addr:postcode": "400043", "addr:state": "Maharastra", "amenity": "hospital", "name": "Dr. Ashfaque Shah's City Hospital", "source": "Local Knowledge"}}, {"type": "node", "id": 7663961401, "lat": 19.076394, "lon": 72.91527, "tags": {"addr:district": "Mumbai Suburban", "addr:full": "Eastern Express Highway, Ramabai Ambedkar Nagar, Mumbai", "addr:postcode": "400075", "addr:state": "Maharastra", "amenity": "hospital", "name": "Dadasaheb Gaikwad BMC Hospital", "source": "Local Knowledge"}}, {"type": "node", "id": 7663961403, "lat": 19.042245, "lon": 72.894166, "tags": {"addr:district": "Mumbai Suburban", "addr:full": "Door No. 10, 1, Mahul Road, Laxmi Colony, Tolaram Colony, Chembur, Mumbai", "addr:postcode": "400071", "addr:state": "Maharastra", "amenity": "hospital", "name": "Chandra Maternity Hospital", "source": "Local Knowledge"}}, {"type": "node", "id": 7663961413, "lat": 19.07815, "lon": 72.916753, "tags": {"addr:district": "Mumbai Suburban", "addr:full": "Kirol Gaon, Ramabai Ambedkar Nagar, Mankur, Mumbai", "addr:postcode": "400075", "addr:state": "Maharastra", "amenity": "hospital", "name": "Sona Maternity and Surgical Nursing Home", "source": "Local Knowledge"}}, {"type": "node", "id": 7663961415, "lat": 19.0826988, "lon": 72.8816976, "tags": {"addr:district": "Mumbai Suburban", "addr:full": "LBS Road, Bail Bajar, Saki Naka, Mumbai", "addr:postcode": "400070", "addr:state": "Maharastra", "amenity": "hospital", "name": "Subhash Hospital", "source": "Local Knowledge"}}, {"type": "node", "id": 7663961416, "lat": 19.0615419, "lon": 72.8725536, "tags": {"addr:district": "Mumbai Suburban", "addr:full": "LBS Road, Kurla West, Kurla, Mumbai", "addr:postcode": "400070", "addr:state": "Maharastra", "amenity": "hospital", "healthcare": "hospital", "name": "Lions Club Medical Centre General Hospital", "source": "Local Knowledge"}}, {"type": "node", "id": 7663961417, "lat": 19.0797861, "lon": 72.8827185, "tags": {"addr:district": "Mumbai Suburban", "addr:full": "88, New Hall Road, Jai Ambika Nagar, Christian Gaon, Kurla West, Mumbai", "addr:postcode": "400070", "addr:state": "Maharastra", "amenity": "hospital", "name": "Buddh Colony BMC Hospital", "source": "Local Knowledge"}}, {"type": "node", "id": 7663961428, "lat": 19.068348, "lon": 72.901948, "tags": {"addr:district": "Mumbai Suburban", "addr:full": "Pestom Sagar Road, Number 2, Chembur West, Asha Nagar, Mumbai", "addr:postcode": "400089", "addr:state": "Maharastra", "amenity": "hospital", "healthcare": "hospital", "name": "Kankal Hospital Child Specialist", "source": "Local Knowledge"}}, {"type": "node", "id": 7663961434, "lat": 19.054452, "lon": 72.891364, "tags": {"addr:district": "Mumbai Suburban", "addr:full": "Vikas Building Shree Chambers, Ganesh Co-operative Housing LTD, Sion - Trombay Road, Sindhi Society, Chembur, Mumbai", "addr:postcode": "400071", "addr:state": "Maharastra", "amenity": "hospital", "name": "Sai Hospital", "source": "Local Knowledge"}}, {"type": "node", "id": 7663961436, "lat": 19.078367, "lon": 72.880408, "tags": {"addr:district": "Mumbai Suburban", "addr:full": "Opposite Quality Bakery, Near Shalimar Hotel, Swadeshi Mills Road, Kurla West, Kurla, Mumbai", "addr:postcode": "400070", "addr:state": "Maharastra", "amenity": "hospital", "healthcare": "hospital", "name": "Muskaan Hospital", "source": "Local Knowledge"}}, {"type": "node", "id": 7663961441, "lat": 19.0492423, "lon": 72.9060511, "tags": {"addr:district": "Mumbai Suburban", "addr:full": "Baman Apartment, Sion - Trombay Road, Chembur, Mumbai", "addr:postcode": "400071", "addr:state": "Maharastra", "amenity": "hospital", "name": "Amarnath Multidisciplinary Children's Hospital", "source": "Local Knowledge"}}, {"type": "node", "id": 7663961443, "lat": 19.078247, "lon": 72.880101, "tags": {"addr:district": "Mumbai Suburban", "addr:full": "AH Wadia Marg, Old Agra Road, Off, LBS Road, Opp. Shalimar Hotel, Kurla West, Mumbai", "addr:postcode": "400070", "addr:state": "Maharastra", "amenity": "hospital", "healthcare": "hospital", "name": "Habib Hospital", "source": "Local Knowledge"}}, {"type": "node", "id": 7663961444, "lat": 19.0411897, "lon": 72.8940869, "tags": {"addr:district": "Mumbai Suburban", "addr:full": "Plot No.16, Prem Nivas, Mahul Road, Laxmi Colony, Chembur, Near Ashish Theatre, Mumbai", "addr:postcode": "400074", "addr:state": "Maharastra", "amenity": "hospital", "name": "Shiv Hospital", "source": "Local Knowledge"}}, {"type": "node", "id": 7663961446, "lat": 19.040567, "lon": 72.897252, "tags": {"addr:district": "Mumbai Suburban", "addr:full": "Behind Ashish Theater, Tolaram Colony, RCF Colony, Chembur, Mumbai", "addr:postcode": "400074", "addr:state": "Maharastra", "amenity": "hospital", "name": "RCF Hospital", "source": "Local Knowledge"}}, {"type": "node", "id": 7663961454, "lat": 19.072612, "lon": 72.871065, "tags": {"addr:district": "Mumbai Suburban", "addr:full": "Office No. 701, Trade Center, Bandra Kurla Complex, Opp. MTNL, Bandra (East), Mumbai", "addr:postcode": "400051", "addr:state": "Maharastra", "amenity": "hospital", "name": "Alphine Life Solutions General Hospital", "source": "Local Knowledge"}}, {"type": "node", "id": 7663961457, "lat": 19.0632122, "lon": 72.9197954, "tags": {"addr:district": "Mumbai Suburban", "addr:full": "Baji Prabhu Deshpande Road, Govandi West, Phase 1, Shivaji Nagar, Mumbai", "addr:postcode": "400043", "addr:state": "Maharastra", "amenity": "hospital", "name": "Mahavir Hospital", "source": "Local Knowledge"}}, {"type": "node", "id": 7663961463, "lat": 19.053227, "lon": 72.876813, "tags": {"addr:district": "Mumbai Suburban", "addr:full": "Flat No.5/6 Sheetal Building, Narayan Nagar, Chunabhatti East, Mumbai", "addr:postcode": "400022", "addr:state": "Maharastra", "amenity": "hospital", "name": "Santrupti Hospital", "source": "Local Knowledge"}}, {"type": "node", "id": 7663961467, "lat": 19.0818439, "lon": 72.8821058, "tags": {"addr:district": "Mumbai Suburban", "addr:full": "New Dwarkapuri Building, LBS Road, Next To Subiksha, Christian Gaon, Kurla, Mumbai", "addr:postcode": "400070", "addr:state": "Maharastra", "amenity": "hospital", "name": "Masoom Child Hospital", "source": "Local Knowledge"}}, {"type": "node", "id": 7663961471, "lat": 19.0559349, "lon": 72.8969651, "tags": {"addr:district": "Mumbai Suburban", "addr:full": "Plot No 425, 10th Road, Near Sandu Garden, Chembur Gaothan, Chembur, Mumbai", "addr:postcode": "400071", "addr:state": "Maharastra", "amenity": "hospital", "name": "Zen Multi Speciality Hospital", "source": "Local Knowledge"}}, {"type": "node", "id": 7663961472, "lat": 19.0619918, "lon": 72.8967193, "tags": {"addr:district": "Mumbai Suburban", "addr:full": "Postal Colony Road, Chembur East, Postal Colony, Mumbai", "addr:postcode": "400071", "addr:state": "Maharastra", "amenity": "hospital", "name": "Shrimati Diwaliben Mohanlal Mehta Maa Sarvasadharan Rugnalay Hospital", "source": "Local Knowledge"}}, {"type": "node", "id": 7663961476, "lat": 19.0413817, "lon": 72.8947434, "tags": {"addr:district": "Mumbai Suburban", "addr:full": "9-1, Laxmi Colony, Tolaram Colony, RCF Colony, Chembur, Mumbai", "addr:postcode": "400074", "addr:state": "Maharastra", "amenity": "hospital", "name": "Chandra Hospital", "source": "Local Knowledge"}}, {"type": "node", "id": 7663961478, "lat": 19.0605329, "lon": 72.9000956, "tags": {"addr:district": "Mumbai Suburban", "addr:full": "Near Station, Ambedkar Garden, 19th Road, D Marg, Chembur, Mumbai", "addr:postcode": "400071", "addr:state": "Maharastra", "amenity": "hospital", "healthcare": "hospital", "name": "Shree Hospital", "source": "Local Knowledge"}}, {"type": "node", "id": 7663961479, "lat": 19.052772, "lon": 72.87496, "tags": {"addr:district": "Mumbai Suburban", "addr:full": "Akansha Building, VN Purav Marg, Opp. Muncipal Hospital, Chunabhatti, Mumbai", "addr:postcode": "400022", "addr:state": "Maharastra", "amenity": "hospital", "name": "Prathamesh Hospital", "source": "Local Knowledge"}}, {"type": "node", "id": 7663961493, "lat": 19.061966, "lon": 72.901475, "tags": {"addr:district": "Mumbai Suburban", "addr:full": "B, 82, 72, Govandi Station Road, Deonar, Chembur, Mumbai", "addr:postcode": "400088", "addr:state": "Maharastra", "amenity": "hospital", "name": "Shashikant Hospital", "source": "Local Knowledge"}}, {"type": "node", "id": 7663961495, "lat": 19.0636814, "lon": 72.9199586, "tags": {"addr:district": "Mumbai Suburban", "addr:full": "Shivaji Nagar, Govandi West, Phase 1, Shivaji Nagar, Mumbai", "addr:postcode": "400043", "addr:state": "Maharastra", "amenity": "hospital", "name": "Jeevan Jyot Hospital and Nursing Home", "source": "Local Knowledge"}}, {"type": "node", "id": 7664032209, "lat": 19.040411, "lon": 72.854633, "tags": {"addr:district": "Mumbai City", "addr:full": "Dharavi Vivekananda Cooperative Housing Society Limited, RP Nagar, Dharavi, Mumbai", "addr:postcode": "400017", "addr:state": "Maharastra", "amenity": "hospital", "healthcare": "hospital", "name": "Janani Hospital", "source": "Local Knowledge"}}, {"type": "node", "id": 7664032212, "lat": 19.0456326, "lon": 72.8596339, "tags": {"addr:district": "Mumbai City", "addr:full": "90 Feet Road, Dharavi Slums, Laxmi Baug, Dharavi, Mumbai", "addr:postcode": "400017", "addr:state": "Maharastra", "amenity": "hospital", "healthcare": "hospital", "name": "Resham Hospital", "source": "Local Knowledge"}}, {"type": "node", "id": 7664032232, "lat": 19.0363806, "lon": 72.8598664, "tags": {"addr:district": "Mumbai City", "addr:full": "RB2 Central Railway Quarters, Jain Society, Sion, Mumbai", "addr:postcode": "400022", "addr:state": "Maharastra", "amenity": "hospital", "healthcare": "hospital", "name": "Sion Hospital", "source": "Local Knowledge"}}, {"type": "node", "id": 7664032240, "lat": 19.04033, "lon": 72.8553219, "tags": {"addr:district": "Mumbai City", "addr:full": "Bandra Reclamation Road, Muslim Nagar, Kumbhar Wada, Bandra West, Mumbai", "addr:postcode": "400017", "addr:state": "Maharastra", "amenity": "hospital", "healthcare": "hospital", "name": "Lelavati Hospital", "source": "Local Knowledge"}}, {"type": "node", "id": 7664032241, "lat": 19.040315, "lon": 72.854812, "tags": {"addr:district": "Mumbai City", "addr:full": "Dharavi Vivekananda Cooperative Housing Society Limited, 90 Feet Road, Muslim Nagar, RP Nagar, Dharavi, Mumbai", "addr:postcode": "400017", "addr:state": "Maharastra", "amenity": "hospital", "healthcare": "hospital", "name": "Aayush Hospital", "source": "Local Knowledge"}}, {"type": "node", "id": 7664032243, "lat": 19.0479325, "lon": 72.857919, "tags": {"addr:district": "Mumbai City", "addr:full": "Dharavi, Mumbai", "addr:postcode": "400017", "addr:state": "Maharastra", "amenity": "hospital", "name": "Lifecare Hospital", "source": "Local Knowledge"}}, {"type": "node", "id": 8797139771, "lat": 19.0846423, "lon": 72.8836535, "tags": {"addr:district": "Mumbai", "addr:full": "A Wing, Ghatkopar, Mumbai", "addr:postcode": "400086", "addr:state": "Maharashtra", "amenity": "hospital", "name": "Sapna Health Care Centre Pvt Ltd", "source": "Local Knowledge"}}, {"type": "node", "id": 8797197801, "lat": 19.0526857, "lon": 72.8732117, "tags": {"addr:district": "Mumbai", "addr:full": "VN Purav Marg, Chunabhatti, Mumbai", "addr:postcode": "400022", "addr:state": "Maharashtra", "amenity": "hospital", "name": "Dalvi Nursing Home", "source": "Local Knowledge"}}, {"type": "node", "id": 8817571670, "lat": 19.062128, "lon": 72.921592, "tags": {"addr:district": "Thane", "addr:full": "Plot No. 46/K/1,2 3, Govandi West, Shivaji Nagar, Mumbai", "addr:postcode": "400043", "addr:state": "Maharashtra", "amenity": "hospital", "name": "S.N. Hospital", "source": "Local Knowledge"}}, {"type": "node", "id": 9215480148, "lat": 19.0708455, "lon": 72.878112, "tags": {"addr:district": "Mumbai", "addr:full": "Ambedkar Nagar, Kurla West", "addr:postcode": "400070", "addr:state": "Maharashtra", "amenity": "hospital", "description": "Private Hospital", "name": "Bhabha Hospital", "source": "Local Knowledge"}}, {"type": "node", "id": 9311772359, "lat": 19.0474721, "lon": 72.9114655}, {"type": "node", "id": 9311772360, "lat": 19.0475682, "lon": 72.9109875}, {"type": "node", "id": 9311772361, "lat": 19.0468456, "lon": 72.9113245}, {"type": "node", "id": 9311772362, "lat": 19.0469417, "lon": 72.9108465}, {"type": "node", "id": 9311772366, "lat": 19.0497578, "lon": 72.9118686}, {"type": "node", "id": 9311772367, "lat": 19.0500215, "lon": 72.9119061}, {"type": "node", "id": 9327764516, "lat": 19.0490175, "lon": 72.9103506}, {"type": "node", "id": 9327764517, "lat": 19.0488856, "lon": 72.9104287}, {"type": "node", "id": 9327764518, "lat": 19.050417, "lon": 72.9107072}, {"type": "node", "id": 9340776353, "lat": 19.048745, "lon": 72.9112636}, {"type": "node", "id": 9340776354, "lat": 19.0499184, "lon": 72.9105965}, {"type": "node", "id": 9470829702, "lat": 19.0519425, "lon": 72.894684, "tags": {"addr:city": "mumbai", "addr:housenumber": "Shubham Flora", "addr:postcode": "400071", "addr:street": "Ramakrishna Chemburkar Marg", "amenity": "hospital", "healthcare": "hospital", "name": "Satvic Hospital"}}, {"type": "node", "id": 9668096312, "lat": 19.0467651, "lon": 72.8756596}, {"type": "node", "id": 9668096314, "lat": 19.047379, "lon": 72.8741942}, {"type": "node", "id": 10172914421, "lat": 19.0627787, "lon": 72.8731767, "tags": {"amenity": "hospital", "healthcare": "hospital", "name": "Fauziya hospital"}}, {"type": "node", "id": 10172914423, "lat": 19.0708724, "lon": 72.8781127, "tags": {"amenity": "hospital", "healthcare": "hospital", "name": "bhabha hospital"}}, {"type": "node", "id": 10172914425, "lat": 19.072649, "lon": 72.8710522, "tags": {"amenity": "hospital", "healthcare": "hospital", "name": "Alphine life solutions general hospital"}}, {"type": "node", "id": 10172914426, "lat": 19.0527267, "lon": 72.8732182, "tags": {"amenity": "hospital", "healthcare": "hospital", "name": "Dalvi nursing home"}}, {"type": "node", "id": 10172914427, "lat": 19.0528, "lon": 72.8749595, "tags": {"amenity": "hospital", "healthcare": "hospital", "name": "Prathamesh hospital"}}, {"type": "node", "id": 10172914428, "lat": 19.0532885, "lon": 72.8751862, "tags": {"amenity": "hospital", "healthcare": "hospital", "name": "Brihanmumbai mucipality Hospital"}}, {"type": "node", "id": 10172914429, "lat": 19.0532245, "lon": 72.876812, "tags": {"amenity": "hospital", "healthcare": "hospital", "name": "Santrupti hospital"}}, {"type": "node", "id": 10172914430, "lat": 19.0477498, "lon": 72.8752849}, {"type": "node", "id": 10172914431, "lat": 19.0623929, "lon": 72.89652}, {"type": "node", "id": 10172914433, "lat": 19.0590301, "lon": 72.8973108, "tags": {"amenity": "hospital", "healthcare": "hospital", "name": "Dr.Sanjay sonar laparoscopy and scopy centre"}}, {"type": "node", "id": 10172914443, "lat": 19.0622534, "lon": 72.8997239, "tags": {"amenity": "hospital", "healthcare": "hospital", "name": "Amita Patil Nursing Home"}}, {"type": "node", "id": 10172914444, "lat": 19.0422679, "lon": 72.8941536, "tags": {"amenity": "hospital", "healthcare": "hospital", "name": "Chandra maternity Hospital"}}, {"type": "node", "id": 10172914445, "lat": 19.0414049, "lon": 72.8947448, "tags": {"amenity": "hospital", "healthcare": "hospital", "name": "Chandra Hospital"}}, {"type": "node", "id": 10172914446, "lat": 19.0412186, "lon": 72.8940795, "tags": {"amenity": "hospital", "healthcare": "hospital", "name": "Shiv Hospital"}}, {"type": "node", "id": 10172914447, "lat": 19.0406126, "lon": 72.8972639, "tags": {"amenity": "hospital", "healthcare": "hospital", "name": "RCF Hospital"}}, {"type": "node", "id": 10172914448, "lat": 19.0456806, "lon": 72.9024989, "tags": {"amenity": "hospital", "healthcare": "hospital", "name": "Nayak medicare -chembur"}}, {"type": "node", "id": 10172914449, "lat": 19.0466542, "lon": 72.8964139, "tags": {"amenity": "hospital", "healthcare": "hospital", "name": "Inlaska Hospital"}}, {"type": "node", "id": 10244151108, "lat": 19.0054328, "lon": 72.8512323}, {"type": "node", "id": 10244200809, "lat": 19.0053973, "lon": 72.8520101}, {"type": "node", "id": 10244200810, "lat": 19.0050295, "lon": 72.8520635}, {"type": "node", "id": 10305216868, "lat": 19.0569792, "lon": 72.8894417}, {"type": "node", "id": 10305216869, "lat": 19.0567296, "lon": 72.8890484}, {"type": "node", "id": 10305216870, "lat": 19.0564124, "lon": 72.8898444}, {"type": "node", "id": 10607816273, "lat": 19.0814514, "lon": 72.8569934, "tags": {"amenity": "hospital", "healthcare": "hospital"}}, {"type": "node", "id": 10696472359, "lat": 19.0595718, "lon": 72.8532235}, {"type": "node", "id": 10696472360, "lat": 19.0592338, "lon": 72.8532187}, {"type": "node", "id": 10696472364, "lat": 19.0592405, "lon": 72.8524366}, {"type": "node", "id": 10696472365, "lat": 19.0590909, "lon": 72.8522193}, {"type": "node", "id": 10696472366, "lat": 19.059314, "lon": 72.8518921}, {"type": "node", "id": 10696472367, "lat": 19.0600086, "lon": 72.8522676}, {"type": "node", "id": 10696472368, "lat": 19.0594433, "lon": 72.8534612}, {"type": "node", "id": 10696472369, "lat": 19.0589312, "lon": 72.8528684}, {"type": "node", "id": 10779234879, "lat": 19.0647644, "lon": 72.8605034}, {"type": "node", "id": 10779234880, "lat": 19.0649532, "lon": 72.8608443}, {"type": "node", "id": 11021399248, "lat": 19.0489684, "lon": 72.9114128}, {"type": "node", "id": 11045755917, "lat": 19.07613, "lon": 72.8866663}, {"type": "node", "id": 11430465717, "lat": 19.0771201, "lon": 72.9022577, "tags": {"amenity": "hospital", "healthcare": "hospital", "healthcare:speciality": "homeopathy", "name": "Noble chemist", "operator": "Noble pharmaceuticals", "operator:type": "private"}}, {"type": "node", "id": 11601087254, "lat": 19.0824624, "lon": 72.9205877}, {"type": "node", "id": 11601087255, "lat": 19.0797654, "lon": 72.9250938}, {"type": "node", "id": 11601087256, "lat": 19.0766221, "lon": 72.9206091}, {"type": "node", "id": 11601087257, "lat": 19.0798059, "lon": 72.9180771}, {"type": "node", "id": 12311758511, "lat": 19.0845459, "lon": 72.907615, "tags": {"addr:district": "Mumbai", "addr:full": "Khokhani Lane, Opposite Ghatkopar Rly. Station, Ghatkopar", "addr:postcode": "400077", "addr:state": "Maharashtra", "amenity": "hospital", "name": "Parakh Hospital and Research Centre - Ghatkopar", "source": "OpenGovernmentData"}}, {"type": "node", "id": 12625091014, "lat": 19.0755458, "lon": 72.8858573}, {"type": "node", "id": 12632644743, "lat": 19.0809813, "lon": 72.8819702}, {"type": "node", "id": 12632644744, "lat": 19.0809387, "lon": 72.8819715}, {"type": "node", "id": 12632644753, "lat": 19.0810341, "lon": 72.8818542}, {"type": "node", "id": 12637821285, "lat": 19.075722, "lon": 72.8857324}, {"type": "node", "id": 12989590769, "lat": 19.0347495, "lon": 72.8572857}, {"type": "node", "id": 12989590770, "lat": 19.0341457, "lon": 72.8588447}, {"type": "node", "id": 12989590771, "lat": 19.0349359, "lon": 72.8591754}, {"type": "node", "id": 12989590772, "lat": 19.0355437, "lon": 72.8576164}, {"type": "way", "id": 49681498, "nodes": [5792364461, 4264834970, 631493980, 631493994, 5792364462, 5792364461], "tags": {"addr:postcode": "400022", "addr:street": "Laxmibai Kelkar Marg", "amenity": "hospital", "emergency": "yes", "healthcare": "hospital", "helipad": "no", "name": "Lokmanya Tilak Hospital", "name:etymology:wikidata": "Q312555", "wikidata": "Q6668710", "wikipedia": "en:Lokmanya Tilak Municipal General Hospital"}}, {"type": "way", "id": 112781797, "nodes": [1650753918, 1281204550, 1281204569, 1419256941, 1419256929, 1650753846, 1650753852, 1650753849, 1650753844, 1650753824, 245660950, 1650753851, 1419256940, 1650753918], "tags": {"amenity": "hospital", "healthcare": "hospital", "historic": "public", "name": "Acworth Leper Asylum"}}, {"type": "way", "id": 116342799, "nodes": [1311768756, 1311768755, 1311768840, 1311768874, 1311768756], "tags": {"addr:city": "Wadala, Mumbai", "addr:full": "Registered Office, Plot No 153, Major Parmeshwaran Road Road No 9, Opp Siws College Gate No 3, Wadala (West)", "addr:housenumber": "Plot 153", "addr:postcode": "400031", "addr:state": "Maharashtra", "addr:street": "Major R Parameswaran Road", "amenity": "hospital", "building": "yes", "healthcare:speciality": "ophthalmology", "name": "Aditya Jyot Eye Hospital", "source": "OpenGovernmentData"}}, {"type": "way", "id": 152244251, "nodes": [1650708091, 1650708088, 1650708126, 4292746805, 4292746828, 4292746829, 1650708132, 4292746785, 1650708091], "tags": {"amenity": "hospital", "name": "BPT Hospital"}}, {"type": "way", "id": 154837118, "nodes": [1673075405, 1673075410, 1673075415, 1673075409, 1673075413, 1673075411, 1673075407, 1673075406, 1673075408, 1673075412, 1673075416, 1673075414, 1673075405], "tags": {"addr:district": "Mumbai", "addr:full": "Kadamwadi, Off.St Anthony, St.Santacruz(East), Near Vishwakarma Samiti Hall", "addr:postcode": "400098", "addr:state": "Maharashtra", "amenity": "hospital", "name": "Niron Hospital and Research Center", "source": "OpenGovernmentData"}}, {"type": "way", "id": 203215801, "nodes": [2131962452, 2131962453, 2131962451, 2131962450, 2131962452], "tags": {"amenity": "hospital", "name": "Brihanmumbai Municipalty Hospital"}}, {"type": "way", "id": 260786332, "nodes": [2663447659, 11045755917, 12625091014, 12637821285, 2663447657, 2663447659], "tags": {"addr:city": "Mumbai", "addr:district": "Mumbai", "addr:full": "Kirol Road, Off LBS Road, Kurla (West)", "addr:housename": "Kohinoor Hospital", "addr:postcode": "400070", "addr:state": "Maharashtra", "addr:street": "Kirol Road, Off LBS Marg, Patelwadi", "amenity": "hospital", "contact:phone": "2267556766", "email": "info@kohinoorhospitals.in", "healthcare": "hospital", "name": "Crtiti Care Asia Hospital", "operator:type": "private", "source": "OpenGovernmentData", "website": "https://www.kohinoorhospitals.in/"}}, {"type": "way", "id": 315448033, "nodes": [3215654162, 3215654163, 1366795256, 3226211962, 3215654165, 3215654162], "tags": {"addr:district": "Mumbai", "addr:full": "Govandi Slums, Nirankar Nagar, Shivaji Nagar, Mumbai", "addr:postcode": "400043", "addr:state": "Maharashtra", "amenity": "hospital", "check_date": "2025-03-26", "name": "Rajeev Gandhi Medical Centre", "name:etymology:wikidata": "Q4593", "operator": "GOVT Dr", "source": "Local Knowledge"}}, {"type": "way", "id": 315510913, "nodes": [10172914431, 3216229177, 3216229180, 3216229181, 10172914431], "tags": {"addr:city": "Mumbai", "addr:housenumber": "Postal Colony", "addr:postcode": "400071", "addr:street": "Postal Colony Road", "amenity": "hospital", "healthcare": "hospital", "name": "Maa General Hospital", "phone": "+91 22 25220333"}}, {"type": "way", "id": 353174274, "nodes": [3589399326, 3589399327, 3589399303, 12632644744, 12632644743, 3589399323, 12632644753, 3589399326], "tags": {"addr:city": "mumbai", "addr:district": "Mumbai", "addr:full": "Sagar Palace B Wing, Sonapur Lane, F.P.P. Marg, Off L B S Marg, Kurla (W)", "addr:postcode": "400070", "addr:state": "Maharashtra", "addr:street": "father peter periera road", "amenity": "hospital", "building": "yes", "building:levels": "4", "healthcare": "hospital", "name": "City Hospital and Reserch Centre", "source": "OpenGovernmentData"}}, {"type": "way", "id": 353378830, "nodes": [3591607452, 3591607451, 3591607438, 3205767044, 3591607444, 3591607452], "tags": {"addr:city": "Mumbai", "addr:housenumber": "Sector - 7, CGS Colony", "addr:postcode": "400037", "addr:street": "Sheikh Misari Road", "amenity": "hospital", "healthcare": "hospital", "name": "Sanjeevni hospital"}}, {"type": "way", "id": 353981991, "nodes": [3597683650, 3597683655, 3597683642, 3597683646, 3597683653, 3597683659, 3597683640, 3597683636, 3597683650], "tags": {"amenity": "hospital", "healthcare": "hospital", "healthcare:speciality": "general", "name": "Kaizen Quro"}}, {"type": "way", "id": 411617420, "nodes": [4132480380, 9327764518, 9311772367, 9311772366, 4132480381, 11021399248, 4132480382, 9340776353, 9327764517, 4132480383, 9327764516, 9340776354, 4132480380], "tags": {"addr:city": "Mumbai", "addr:postcode": "400088", "addr:street": "Waman Tukaram Patil Marg (Ghatkopar Sewri Wadala Road)", "amenity": "hospital", "emergency": "yes", "healthcare": "hospital", "name": "Shatabdi Hospital", "operator": "Municipal Corporation of Greater Mumbai", "phone": "+912225564069, +912225564070"}}, {"type": "way", "id": 430418378, "nodes": [10779234879, 4297017108, 4297017109, 5510255905, 4297000114, 4297017111, 4297017114, 4297017113, 4297017112, 4297017110, 5506320962, 10779234880, 10779234879], "tags": {"addr:district": "Mumbai", "addr:full": "G / N Block, Bandra Kurla Complex, Bandra (E)", "addr:postcode": "400051", "addr:state": "Maharashtra", "amenity": "hospital", "email": "info@ahirc.com", "healthcare": "hospital", "healthcare:speciality": "cardiology", "name": "Asian Heart Institute", "operator:type": "private", "source": "OpenGovernmentData", "website": "https://www.asianheartinstitute.org/"}}, {"type": "way", "id": 1009229724, "nodes": [9311772361, 9311772362, 9311772360, 9311772359, 9311772361], "tags": {"amenity": "hospital", "name": "Apollo Spectra Hospital"}}, {"type": "way", "id": 1052052198, "nodes": [9668096314, 10172914430, 9668096312, 1633934086, 1633934084, 9668096314], "tags": {"amenity": "hospital", "emergency": "yes", "healthcare": "hospital", "name": "K.J. Somaiya Hospital and Research Centre"}}, {"type": "way", "id": 1120060026, "nodes": [2290766966, 1287695926, 1287695919, 1287695938, 2290766956, 10244200810, 10244200809, 10244151108, 2290766966], "tags": {"addr:district": "Mumbai", "addr:full": "Jerbai Wadia Road, Sewree East, Mumbai", "addr:postcode": "400015", "addr:state": "Maharashtra", "amenity": "hospital", "name": "Municipal TB Hospital", "source": "OpenGovernmentData"}}, {"type": "way", "id": 1126997792, "nodes": [7043843367, 10305216869, 10305216868, 10305216870, 7043843367], "tags": {"addr:district": "Mumbai", "addr:full": "365, Swastik Park, Chembur East", "addr:postcode": "400071", "addr:state": "Maharashtra", "amenity": "hospital", "contact:phone": "2225265555", "email": "health@sushruthospital.org", "name": "Sushrut Hospital and Research Centre", "operator:type": "private", "source": "OpenGovernmentData", "website": "https://www.sushruthospital.org/"}}, {"type": "way", "id": 1127318871, "nodes": [3205777380, 7225067214, 3981413833, 3981413827, 3981413826, 3205777380], "tags": {"addr:district": "Nanded", "addr:full": "Shivaji Nagar Nanded", "addr:postcode": "431602", "addr:state": "Maharashtra", "amenity": "hospital", "name": "Shivaji Nagar Muncipal Hospital", "source": "OpenGovernmentData"}}, {"type": "way", "id": 1149824759, "nodes": [10696472369, 10696472360, 10696472368, 10696472359, 7064402717, 10696472367, 10696472366, 10696472365, 10696472364, 10696472369], "tags": {"addr:district": "Mumbai", "addr:full": "S-341, Gandhinagar, Bandra(E)", "addr:postcode": "400051", "addr:state": "Maharashtra", "amenity": "hospital", "email": "gnhosp@vsnl.com", "healthcare": "hospital", "name": "Guru Nanak Hospital", "name:etymology:wikidata": "Q83322", "operator:type": "private", "source": "OpenGovernmentData", "website": "https://www.gurunanakhospital.com/"}}, {"type": "way", "id": 1247980197, "nodes": [11601087254, 11601087255, 11601087256, 11601087257, 11601087254], "tags": {"amenity": "hospital", "emergency": "yes", "healthcare": "hospital", "healthcare:speciality": "emergency", "name": "jansava hospital"}}, {"type": "way", "id": 1410330978, "nodes": [4297017109, 4297000114, 4297017111, 4297017114, 4297017113, 4297017112, 4297017110, 5506320962, 10779234880, 10779234879, 4297017108, 4297017109], "tags": {"amenity": "hospital", "healthcare": "hospital", "name": "Asian"}}, {"type": "way", "id": 1413471846, "nodes": [12989590769, 12989590770, 12989590771, 12989590772, 12989590769], "tags": {"amenity": "hospital", "healthcare": "hospital", "name": "Sion Hospital"}}]}