{"version": 0.6, "generator": "Overpass API 0.7.62.8 e802775f", "osm3s": {"timestamp_osm_base": "2026-01-12T15:27:45Z", "copyright": "The data included in this document is from www.openstreetmap.org. The data is made available under ODbL."}, "elements": [{"type": "node", "id": 267214379, "lat": 12.9134182, "lon": 77.6774852, "tags": {"amenity": "hospital", "healthcare": "hospital", "name": "Clinic"}}, {"type": "node", "id": 307401529, "lat": 12.9263714, "lon": 77.6765455, "tags": {"addr:city": "Belandur, Bangalore", "addr:full": "74/1, Bellandur, Ring Road, Varthur", "addr:housenumber": "74/1", "addr:postcode": "560037", "addr:state": "Karnataka", "addr:street": "Outer Ring Road", "amenity": "hospital", "email": "whitefield@theapolloclinic.com", "healthcare": "hospital", "name": "Apollo Hospital", "name:kn": "\u0c85\u0caa\u0cca\u0cb2\u0ccb \u0c86\u0cb8\u0ccd\u0caa\u0ca4\u0ccd\u0cb0\u0cc6", "phone": "+91-80-40222555", "website": "http://www.apolloclinicbangalore.com/", "wheelchair": "yes"}}, {"type": "node", "id": 456013713, "lat": 12.920362, "lon": 77.665088}, {"type": "node", "id": 671185206, "lat": 12.960765, "lon": 77.7137961, "tags": {"amenity": "hospital", "name": "Hema Poly Clinic"}}, {"type": "node", "id": 975680681, "lat": 12.9559302, "lon": 77.7112689, "tags": {"addr:city": "Bangalore", "addr:street": "Varthur Road", "amenity": "hospital", "emergency": "yes", "healthcare": "hospital", "name": "Yashomathi Hospitals"}}, {"type": "node", "id": 1150839598, "lat": 12.9568527, "lon": 77.6990468, "tags": {"addr:district": "Bengaluru Urban", "addr:full": "93/1, 565, Srinivasa Complex Ring Road Attached To Main Road", "addr:postcode": "560037", "addr:state": "Karnataka", "addr:street": "Varthur Road", "amenity": "hospital", "level": "0", "name": "New Akshay Mallya Hospital", "source": "OpenGovernmentData"}}, {"type": "node", "id": 1365797741, "lat": 12.9586563, "lon": 77.7134009}, {"type": "node", "id": 1365797746, "lat": 12.9562964, "lon": 77.7141388}, {"type": "node", "id": 1365797761, "lat": 12.9585004, "lon": 77.7128362}, {"type": "node", "id": 1365797762, "lat": 12.9561646, "lon": 77.713565}, {"type": "node", "id": 1381347333, "lat": 12.9561727, "lon": 77.7128895}, {"type": "node", "id": 1381347338, "lat": 12.9574888, "lon": 77.7122282}, {"type": "node", "id": 1381347348, "lat": 12.9579489, "lon": 77.712078}, {"type": "node", "id": 1381347351, "lat": 12.9576543, "lon": 77.7121582}, {"type": "node", "id": 1381347386, "lat": 12.9577816, "lon": 77.7121102}, {"type": "node", "id": 1381347388, "lat": 12.9573197, "lon": 77.7123299}, {"type": "node", "id": 1381347390, "lat": 12.9581227, "lon": 77.7129523}, {"type": "node", "id": 1381347423, "lat": 12.9571229, "lon": 77.7124374}, {"type": "node", "id": 1381347431, "lat": 12.9566471, "lon": 77.7127325}, {"type": "node", "id": 1428600902, "lat": 12.9573067, "lon": 77.7087044, "tags": {"addr:city": "Marathahalli, Bangalore", "addr:housenumber": "S1,S2", "addr:street": "Spice Garden Compound Road", "amenity": "hospital", "check_date": "2024-08-25", "emergency": "no", "name": "Tenet diagnostics"}}, {"type": "node", "id": 1437213383, "lat": 12.9111263, "lon": 77.7073377, "tags": {"amenity": "hospital", "name": "Karunalayam Hospital"}}, {"type": "node", "id": 1693120843, "lat": 12.9267954, "lon": 77.6699091, "tags": {"amenity": "hospital", "designation": "Hospital", "emergency": "yes", "healthcare": "hospital", "level": "2", "name": "Sunny Medicals Hospital Clinic", "source": "Survey", "wheelchair": "limited", "wheelchair:description": "Steps at entrace to building, lift to hospital"}}, {"type": "node", "id": 2413039443, "lat": 12.9196968, "lon": 77.6649185}, {"type": "node", "id": 2413417389, "lat": 12.9325891, "lon": 77.6859257}, {"type": "node", "id": 2413417397, "lat": 12.9326863, "lon": 77.6847259}, {"type": "node", "id": 2623332318, "lat": 12.9231571, "lon": 77.6728066, "tags": {"amenity": "hospital", "healthcare": "hospital", "name": "Narayana Hrudayalaya Dental Clinic", "name:kn": "\u0ca8\u0cbe\u0cb0\u0cbe\u0caf\u0ca3 \u0cb9\u0cc3\u0ca6\u0caf\u0cbe\u0cb2\u0caf \u0ca6\u0c82\u0ca4 \u0c86\u0cb8\u0ccd\u0caa\u0ca4\u0ccd\u0cb0\u0cc6"}}, {"type": "node", "id": 2678582670, "lat": 12.9555896, "lon": 77.7053584}, {"type": "node", "id": 2678582671, "lat": 12.9555889, "lon": 77.705257}, {"type": "node", "id": 2678582672, "lat": 12.955419, "lon": 77.7052582}, {"type": "node", "id": 2678582673, "lat": 12.9554197, "lon": 77.7053597}, {"type": "node", "id": 2937449060, "lat": 12.9607845, "lon": 77.6669509}, {"type": "node", "id": 2937449064, "lat": 12.9617786, "lon": 77.6651962}, {"type": "node", "id": 2937449065, "lat": 12.9608786, "lon": 77.6676965}, {"type": "node", "id": 2937449066, "lat": 12.9608637, "lon": 77.6662637}, {"type": "node", "id": 2937449069, "lat": 12.9608219, "lon": 77.6673634}, {"type": "node", "id": 2937449070, "lat": 12.9625209, "lon": 77.6672454}, {"type": "node", "id": 2937449071, "lat": 12.9615851, "lon": 77.665341}, {"type": "node", "id": 2937449072, "lat": 12.9610773, "lon": 77.6657975}, {"type": "node", "id": 2937449076, "lat": 12.9619103, "lon": 77.6652831}, {"type": "node", "id": 2937449077, "lat": 12.9639525, "lon": 77.6653415}, {"type": "node", "id": 2937449078, "lat": 12.96378, "lon": 77.6655829}, {"type": "node", "id": 2937449080, "lat": 12.9630324, "lon": 77.664553}, {"type": "node", "id": 2937449081, "lat": 12.9610153, "lon": 77.6681225}, {"type": "node", "id": 2937449084, "lat": 12.9620988, "lon": 77.665157}, {"type": "node", "id": 2937449085, "lat": 12.9617263, "lon": 77.6682539}, {"type": "node", "id": 2937449088, "lat": 12.960801, "lon": 77.6665641}, {"type": "node", "id": 3298366366, "lat": 12.9632004, "lon": 77.6647822}, {"type": "node", "id": 3477797688, "lat": 12.9241818, "lon": 77.6737518, "tags": {"addr:district": "Bengaluru Urban", "addr:full": "446/21 Above Vijaya Bank, Opposite To Amba Bajaja Showroom", "addr:postcode": "560103", "addr:state": "Karnataka", "amenity": "hospital", "healthcare": "hospital", "name": "Nelivigi Eye Hospital", "operator:type": "private", "source": "OpenGovernmentData", "website": "https://www.nelivigieyehospital.com/"}}, {"type": "node", "id": 3532358821, "lat": 12.9599032, "lon": 77.7125839}, {"type": "node", "id": 3532358831, "lat": 12.9599161, "lon": 77.7126902}, {"type": "node", "id": 3532358875, "lat": 12.9600078, "lon": 77.7125706}, {"type": "node", "id": 3532358887, "lat": 12.9600206, "lon": 77.7126768}, {"type": "node", "id": 3541798347, "lat": 12.9517397, "lon": 77.6994832, "tags": {"amenity": "hospital", "healthcare": "hospital", "level": "1", "name": "Sanghi Medical Centre (P) Ltd"}}, {"type": "node", "id": 3649025368, "lat": 12.9580124, "lon": 77.7448289}, {"type": "node", "id": 3649025372, "lat": 12.9587404, "lon": 77.7451587}, {"type": "node", "id": 3649025380, "lat": 12.9585113, "lon": 77.7448829}, {"type": "node", "id": 3649025384, "lat": 12.9579249, "lon": 77.7457783}, {"type": "node", "id": 3649025387, "lat": 12.9585061, "lon": 77.7460376}, {"type": "node", "id": 3649025392, "lat": 12.9587744, "lon": 77.7455208}, {"type": "node", "id": 4325331196, "lat": 12.9599306, "lon": 77.7160447, "tags": {"amenity": "hospital", "healthcare": "hospital", "name": "SRL Diagnostics"}}, {"type": "node", "id": 4440829279, "lat": 12.911533, "lon": 77.6764094, "tags": {"addr:city": "Bangalore", "addr:postcode": "560035", "addr:street": "Kasvanahalli Road, Behind State Bank of Mysore, Sarjapur Road, Kaikondrahalli", "amenity": "hospital", "emergency": "yes", "healthcare": "hospital", "name": "Stanford Speciality Hospital", "phone": "080 6566 6689"}}, {"type": "node", "id": 4440931106, "lat": 12.9124371, "lon": 77.6813917, "tags": {"addr:city": "Bangalore", "addr:housenumber": "No.7/1", "addr:postcode": "560035", "addr:street": "Sarjapur Road", "amenity": "hospital", "emergency": "yes", "name": "Dr Mohan Nursing Home", "phone": "+91-80-42119084"}}, {"type": "node", "id": 4440939217, "lat": 12.9072384, "lon": 77.6755805, "tags": {"addr:city": "Bengaluru", "addr:housenumber": "4/21", "addr:postcode": "560035", "addr:street": "Kasavanahalli Road", "amenity": "hospital", "healthcare": "hospital", "name": "Sparsh Clinic", "phone": "+91-99000 19567"}}, {"type": "node", "id": 4440946384, "lat": 12.9041502, "lon": 77.6741043, "tags": {"addr:city": "Bangalore", "addr:housenumber": "9 IAS layout", "addr:postcode": "560035", "addr:street": "Lake Shore HomesRoad, Amrita college road, off sarjapur road, Kasavanahalli", "amenity": "hospital", "healthcare": "hospital", "name": "Raksha Orthopaedic And Multi Speciality Centre", "phone": "+91-74115 27777"}}, {"type": "node", "id": 4441670838, "lat": 12.9121008, "lon": 77.6820003, "tags": {"addr:city": "Bangalore", "addr:housenumber": "No. 65/1, 1st Floor", "addr:postcode": "560035", "addr:street": "Doddakannelli,\u00a0Sarjapur Road", "amenity": "hospital", "healthcare:speciality": "general;dermatology;clinic", "name": "Naadi Ayurveda Center", "operator": "Kotakkal Arya Vaidyashala", "phone": "+91-9980016089"}}, {"type": "node", "id": 4441681632, "lat": 12.9217604, "lon": 77.6618321, "tags": {"addr:city": "Bengaluru", "addr:postcode": "560103", "addr:street": "Service Rd, Agara, Iblur Village, Bellandur", "amenity": "hospital", "healthcare": "hospital", "name": "Kottakkal Arya Vaidya Sala", "phone": "+91-80 6450 4434", "website": "https://aryavaidyasala.com/"}}, {"type": "node", "id": 4441938603, "lat": 12.9122002, "lon": 77.6818637, "tags": {"addr:city": "bangaluru", "addr:housenumber": "65", "addr:postcode": "560035", "addr:street": "Sarjapur Main Rd, Kaikondrahalli", "amenity": "hospital", "name": "The Family Doctor & The Family Pharma", "phone": "+91-80 2574 6204", "website": "https://www.thefamilydoctor.co.in/"}}, {"type": "node", "id": 4445167354, "lat": 12.9179831, "lon": 77.6691258, "tags": {"addr:city": "Bangalore", "addr:postcode": "560034", "addr:street": "Sarjapur Main Rd, Bellandur", "amenity": "hospital", "healthcare": "hospital", "name": "Dr Rachna - Homeopathy", "phone": "+9195909 10963"}}, {"type": "node", "id": 4445213681, "lat": 12.9240063, "lon": 77.6545058, "tags": {"addr:city": "Bangalore", "addr:housenumber": "65/8", "addr:postcode": "560102", "addr:street": "Third Floor, H.S.R Agara Circle, Sarjapura, Outer Ring Rd, Agara Village, HSR Layout,", "amenity": "hospital", "healthcare": "hospital", "name": "Welnext", "phone": "+9196960 00222", "website": "https://welnext.com/"}}, {"type": "node", "id": 4446919794, "lat": 12.9566858, "lon": 77.7419283, "tags": {"addr:city": "Bengaluru", "addr:housenumber": "32", "addr:postcode": "560066", "addr:street": "MCC Tower, Opposite Sigma Tech Park, Varthur Kodi, Varthur Main Rd, Ramagondanahalli, Whitefield", "amenity": "hospital", "emergency": "yes", "healthcare": "hospital", "name": "Hair Loss Treatment in Bangalore - Hairline International", "phone": "091488 74972", "source": "http://www.bangalorean.co.in/", "website": "hairline.in"}}, {"type": "node", "id": 4474487215, "lat": 12.9157501, "lon": 77.6756114}, {"type": "node", "id": 4474487222, "lat": 12.9156378, "lon": 77.6754751}, {"type": "node", "id": 5106809421, "lat": 12.9597752, "lon": 77.6569127, "tags": {"addr:district": "Bengaluru Urban", "addr:full": "#115,Kodihalli,Old Airport Road", "addr:postcode": "560001", "addr:state": "Karnataka", "amenity": "hospital", "healthcare": "hospital", "name": "Cloudnine Hospital Pvt. Ltd.", "name:en": "cloud nine", "source": "OpenGovernmentData"}}, {"type": "node", "id": 5774292416, "lat": 12.9202127, "lon": 77.6655913}, {"type": "node", "id": 5780885021, "lat": 12.919575, "lon": 77.6654218}, {"type": "node", "id": 5781340796, "lat": 12.9181937, "lon": 77.6722846}, {"type": "node", "id": 5781340797, "lat": 12.9181002, "lon": 77.6724716}, {"type": "node", "id": 5781340798, "lat": 12.9176332, "lon": 77.6722259}, {"type": "node", "id": 5781340799, "lat": 12.9177267, "lon": 77.6720389}, {"type": "node", "id": 5804557878, "lat": 12.9138425, "lon": 77.6794486}, {"type": "node", "id": 5804557879, "lat": 12.9137262, "lon": 77.6798147}, {"type": "node", "id": 5804557880, "lat": 12.9133171, "lon": 77.6797302}, {"type": "node", "id": 5804557881, "lat": 12.9132765, "lon": 77.6797141}, {"type": "node", "id": 5804557882, "lat": 12.9133733, "lon": 77.6792957}, {"type": "node", "id": 5964111211, "lat": 12.9317501, "lon": 77.6858251}, {"type": "node", "id": 5964111212, "lat": 12.9318559, "lon": 77.6851639}, {"type": "node", "id": 5964111213, "lat": 12.9318533, "lon": 77.684731}, {"type": "node", "id": 6018675583, "lat": 12.956216, "lon": 77.713336, "tags": {"access": "private", "barrier": "gate"}}, {"type": "node", "id": 6137643281, "lat": 12.8967728, "lon": 77.6947943}, {"type": "node", "id": 6137643282, "lat": 12.8963179, "lon": 77.6954783}, {"type": "node", "id": 6137643283, "lat": 12.8960538, "lon": 77.6953013}, {"type": "node", "id": 6137643284, "lat": 12.8965009, "lon": 77.6946495}, {"type": "node", "id": 6938889541, "lat": 12.9551501, "lon": 77.7051643, "tags": {"addr:district": "Bengaluru Urban", "addr:full": "#103, Munnekolal, Verthur Road, Marthahalli Post", "addr:postcode": "560037", "addr:state": "Karnataka", "amenity": "hospital", "name": "Lions Airport City Hospital", "source": "OpenGovernmentData"}}, {"type": "node", "id": 6944290475, "lat": 12.9568547, "lon": 77.7002262, "tags": {"addr:district": "Bengaluru Urban", "addr:full": "96,Varthur Main Road, Marathahalli", "addr:postcode": "560037", "addr:state": "Karnataka", "amenity": "hospital", "check_date": "2024-12-29", "healthcare": "hospital", "name": "MGA Hospital", "source": "OpenGovernmentData"}}, {"type": "node", "id": 7202724055, "lat": 12.922327, "lon": 77.736038, "tags": {"addr:district": "Bangalore", "addr:full": "Gunjur", "addr:postcode": "560087", "addr:state": "Karnataka", "addr:subdistrict": "Bangalore East", "amenity": "hospital", "name": "Government Hospital, Gunjur", "source": "OpenGovernmentData"}}, {"type": "node", "id": 7572526690, "lat": 12.957269, "lon": 77.653945, "tags": {"addr:district": "Bengaluru Urban", "addr:full": "Kaveri Nagar, Murgesh Pallya, Bengaluru", "addr:postcode": "560017", "addr:state": "Karnataka", "amenity": "hospital", "name": "OJUS Multi Speciality Hospital", "source": "Local Knowledge", "wheelchair": "limited"}}, {"type": "node", "id": 7572526699, "lat": 12.9635299, "lon": 77.6662889, "tags": {"addr:district": "Bengaluru Urban", "addr:full": "Jyothi Nagar, Bengaluru", "addr:postcode": "560017", "addr:state": "Karnataka", "amenity": "hospital", "name": "Jhon's Medical Hospital", "source": "Local Knowledge"}}, {"type": "node", "id": 7572526747, "lat": 12.9589495, "lon": 77.6603768, "tags": {"addr:district": "Bengaluru Urban", "addr:floor": "G", "addr:full": "Near Rajeshwari Theatre, Murgesh Pallya, Bengaluru", "addr:postcode": "560017", "addr:state": "Karnataka", "amenity": "hospital", "check_date": "2025-10-19", "healthcare": "hospital", "level": "0", "name": "Magdum Hospital", "source": "Local Knowledge"}}, {"type": "node", "id": 7572526798, "lat": 12.9583212, "lon": 77.659636, "tags": {"addr:district": "Bengaluru Urban", "addr:full": "Konena Agrahara, Murgesh Pallya, Bengaluru", "addr:postcode": "560017", "addr:state": "Karnataka", "amenity": "hospital", "healthcare": "hospital", "name": "Dr. Hemant Agrawal", "source": "Local Knowledge"}}, {"type": "node", "id": 7572526802, "lat": 12.958861, "lon": 77.654322, "tags": {"addr:district": "Bengaluru Urban", "addr:full": "Kaveri Nagar, Murgesh Pallya, Bengaluru", "addr:postcode": "560017", "addr:state": "Karnataka", "amenity": "hospital", "name": "Miracle Hopital", "source": "Local Knowledge", "wheelchair": "limited"}}, {"type": "node", "id": 9828540924, "lat": 12.9246383, "lon": 77.6723232}, {"type": "node", "id": 9828540925, "lat": 12.9242012, "lon": 77.6722551}, {"type": "node", "id": 9828540926, "lat": 12.924427, "lon": 77.672739}, {"type": "node", "id": 9828540927, "lat": 12.9245522, "lon": 77.6726953}, {"type": "node", "id": 9830781726, "lat": 12.9365283, "lon": 77.7046741, "tags": {"amenity": "hospital", "name": "Maya Hospital"}}, {"type": "node", "id": 9830902289, "lat": 12.9125713, "lon": 77.6764777}, {"type": "node", "id": 9830902290, "lat": 12.9124101, "lon": 77.6764687}, {"type": "node", "id": 9830902291, "lat": 12.9124013, "lon": 77.6766369}, {"type": "node", "id": 9830902292, "lat": 12.9125624, "lon": 77.6766458}, {"type": "node", "id": 9841433907, "lat": 12.9556074, "lon": 77.7216631, "tags": {"amenity": "hospital", "check_date": "2025-06-28", "healthcare": "hospital", "healthcare:speciality": "ophthalmology", "name": "Devi Eye Hospital"}}, {"type": "node", "id": 9874033652, "lat": 12.9337751, "lon": 77.7433234, "tags": {"amenity": "hospital", "check_date": "2025-06-28", "healthcare": "hospital", "name": "Sahasra Hospital", "name:kn": "\u0cb8\u0cb9\u0cb8\u0ccd\u0cb0 \u0c86\u0cb8\u0ccd\u0caa\u0ca4\u0ccd\u0cb0\u0cc6"}}, {"type": "node", "id": 9970369520, "lat": 12.9107968, "lon": 77.7077392}, {"type": "node", "id": 9970369521, "lat": 12.9111027, "lon": 77.7077928}, {"type": "node", "id": 9970369522, "lat": 12.9110034, "lon": 77.708281}, {"type": "node", "id": 9970369523, "lat": 12.9112596, "lon": 77.7083749}, {"type": "node", "id": 9970369524, "lat": 12.9117354, "lon": 77.7073476}, {"type": "node", "id": 9970369525, "lat": 12.9108125, "lon": 77.7075863}, {"type": "node", "id": 9970369526, "lat": 12.9109615, "lon": 77.7067924}, {"type": "node", "id": 10051271572, "lat": 12.9563317, "lon": 77.7305782, "tags": {"amenity": "hospital", "check_date": "2025-06-29", "healthcare": "hospital", "healthcare:speciality": "ent", "name": "Siddanth Hospital"}}, {"type": "node", "id": 10137293053, "lat": 12.9263862, "lon": 77.6766068, "tags": {"amenity": "hospital", "healthcare": "hospital", "name": "Apollo Pharmacy"}}, {"type": "node", "id": 10948384364, "lat": 12.9019638, "lon": 77.7164575}, {"type": "node", "id": 10948384379, "lat": 12.9021273, "lon": 77.714729}, {"type": "node", "id": 10948384383, "lat": 12.9020907, "lon": 77.7160674}, {"type": "node", "id": 10948384384, "lat": 12.9021038, "lon": 77.7164912}, {"type": "node", "id": 10948384385, "lat": 12.901058, "lon": 77.7162391}, {"type": "node", "id": 10948384386, "lat": 12.9015182, "lon": 77.714552}, {"type": "node", "id": 10963251389, "lat": 12.9094156, "lon": 77.663997, "tags": {"addr:city": "Bengaluru", "addr:postcode": "560102", "addr:street": "HARLUR MAIN ROAD ,OPP.OZONE EVERGREEN SOCIETY GATE 1", "amenity": "hospital", "emergency": "yes", "healthcare": "hospital", "healthcare:speciality": "dentist", "name": "The Local Dentist", "operator": "DENTAL CLINIC", "operator:type": "business"}}, {"type": "node", "id": 11051170248, "lat": 12.956203, "lon": 77.7136546}, {"type": "node", "id": 11075395440, "lat": 12.9153904, "lon": 77.675278}, {"type": "node", "id": 11075395441, "lat": 12.91564, "lon": 77.6747945}, {"type": "node", "id": 11075395442, "lat": 12.9159951, "lon": 77.6749527}, {"type": "node", "id": 11700164026, "lat": 12.8804891, "lon": 77.6552588, "tags": {"addr:city": "Electronic city post", "addr:housenumber": "13-14/1", "addr:postcode": "560100", "addr:street": "Haralur Road", "amenity": "hospital", "healthcare": "dentist", "healthcare:speciality": "dentist", "name": "Smile Smart Dental & Implant Centre", "operator": "Smile Smart Dental", "operator:type": "private"}}, {"type": "node", "id": 11753319908, "lat": 12.9154066, "lon": 77.6752466}, {"type": "node", "id": 11962404414, "lat": 12.9198055, "lon": 77.6672841}, {"type": "node", "id": 11962404415, "lat": 12.9207377, "lon": 77.6675136}, {"type": "node", "id": 11962404416, "lat": 12.9207097, "lon": 77.6676637}, {"type": "node", "id": 11962404417, "lat": 12.9199349, "lon": 77.6674794}, {"type": "node", "id": 11962404418, "lat": 12.9197342, "lon": 77.6674205}, {"type": "node", "id": 12183790887, "lat": 12.9202322, "lon": 77.665534}, {"type": "node", "id": 12183790888, "lat": 12.9203478, "lon": 77.6651395}, {"type": "node", "id": 12466456674, "lat": 12.9570192, "lon": 77.7118744}, {"type": "node", "id": 12466456675, "lat": 12.9571946, "lon": 77.7123982}, {"type": "node", "id": 12466456676, "lat": 12.9562203, "lon": 77.7120465}, {"type": "node", "id": 12615547386, "lat": 12.9090814, "lon": 77.6638713}, {"type": "node", "id": 12615547387, "lat": 12.9090108, "lon": 77.6638578}, {"type": "node", "id": 12615547388, "lat": 12.9090004, "lon": 77.6639115}, {"type": "node", "id": 12615547389, "lat": 12.9090788, "lon": 77.6639222}, {"type": "node", "id": 12651832969, "lat": 12.9566829, "lon": 77.7414284, "tags": {"amenity": "hospital", "check_date": "2025-03-11", "healthcare": "hospital", "name": "Cloud Nine"}}, {"type": "node", "id": 13065353808, "lat": 12.9023198, "lon": 77.715214}, {"type": "node", "id": 13065353809, "lat": 12.9023985, "lon": 77.7150923}, {"type": "node", "id": 13173681435, "lat": 12.9007868, "lon": 77.6756594}, {"type": "node", "id": 13173681436, "lat": 12.9007563, "lon": 77.6759596}, {"type": "node", "id": 13173681437, "lat": 12.9003444, "lon": 77.6759112}, {"type": "node", "id": 13173681438, "lat": 12.9003764, "lon": 77.6756139}, {"type": "way", "id": 122157597, "nodes": [1365797762, 11051170248, 1365797746, 1365797741, 1365797761, 1381347390, 1365797762], "tags": {"amenity": "hospital", "healthcare": "hospital", "name": "Karunashraya", "name:kn": "\u0c95\u0cb0\u0cc1\u0ca3\u0cbe\u0cb6\u0ccd\u0cb0\u0caf", "website": "https://www.karunashraya.org/"}}, {"type": "way", "id": 124013168, "nodes": [6018675583, 1365797762, 1381347390, 1381347348, 1381347386, 1381347351, 1381347338, 1381347388, 12466456675, 1381347423, 1381347431, 1381347333, 6018675583], "tags": {"addr:city": "Bengaluru", "addr:district": "Bengaluru Urban", "addr:full": "Varthur Main Road, Kundalahalli Gate, Marahahalli-White Field Road", "addr:postcode": "560037", "addr:state": "Karnataka", "addr:street": "Varthur Road", "amenity": "hospital", "boundary": "wall", "check_date": "2025-09-03", "email": "bangalore@sankaraeye.com", "healthcare": "hospital", "healthcare:speciality": "ophthalmology", "name": "Sankara Eye Hospital", "name:kn": "\u0cb6\u0c82\u0c95\u0cb0 \u0ca8\u0cc7\u0ca4\u0ccd\u0cb0\u0cbe\u0cb2\u0caf", "website": "https://www.sankaraeye.com"}}, {"type": "way", "id": 262198741, "nodes": [2678582670, 2678582671, 2678582672, 2678582673, 2678582670], "tags": {"amenity": "hospital", "building": "yes", "healthcare": "hospital", "name": "Lions Seva Hospital"}}, {"type": "way", "id": 290187542, "nodes": [2937449072, 2937449066, 2937449088, 2937449060, 2937449069, 2937449065, 2937449081, 2937449085, 2937449070, 2937449078, 2937449077, 3298366366, 2937449080, 2937449084, 2937449076, 2937449064, 2937449071, 2937449072], "tags": {"alt_name": "Hindustan Aeronautics Limited Hospital", "amenity": "hospital", "emergency": "yes", "name": "HAL Hospital", "name:kn": "\u0c8e\u0c9a\u0ccd\u0c8e\u0c8e\u0cb2\u0ccd \u0c86\u0cb8\u0ccd\u0caa\u0ca4\u0ccd\u0cb0\u0cc6", "wheelchair": "yes"}}, {"type": "way", "id": 346714039, "nodes": [3532358875, 3532358887, 3532358831, 3532358821, 3532358875], "tags": {"addr:city": "Bangalore", "addr:district": "Bengaluru Urban", "addr:housenumber": "15", "addr:postcode": "560037", "addr:street": "3rd Cross Road, Vaikuntam Layout", "amenity": "hospital", "building:levels": "1", "description": "Speech Therapy Center", "healthcare": "hospital", "name": "Ways2Guide Speech Therapy Center"}}, {"type": "way", "id": 360342803, "nodes": [3649025392, 3649025387, 3649025384, 3649025368, 3649025380, 3649025372, 3649025392], "tags": {"amenity": "hospital", "check_date": "2025-06-03", "emergency": "yes", "healthcare": "hospital", "healthcare:speciality": "general;paediatrics;emergency;gynaecology", "name": "Manipal Hospitals", "name:kn": "\u0cae\u0ca3\u0cbf\u0caa\u0cbe\u0cb2 \u0c86\u0cb8\u0ccd\u0caa\u0ca4\u0ccd\u0cb0\u0cc6", "old_name": "Columbia Asia Whitefield"}}, {"type": "way", "id": 610471335, "nodes": [5781340796, 5781340797, 5781340798, 5781340799, 5781340796], "tags": {"amenity": "hospital", "healthcare": "hospital", "healthcare:speciality": "gynaecology", "name": "Motherhood"}}, {"type": "way", "id": 611385979, "nodes": [456013713, 2413039443, 5780885021, 5774292416, 12183790887, 12183790888, 456013713], "tags": {"amenity": "hospital", "check_date": "2025-02-12", "emergency": "yes", "healthcare": "hospital", "name": "Manipal Hospitals", "name:kn": "\u0cae\u0ca3\u0cbf\u0caa\u0cbe\u0cb2 \u0c86\u0cb8\u0ccd\u0caa\u0ca4\u0ccd\u0cb0\u0cc6", "payment:cash": "yes", "payment:mastercard": "yes", "payment:visa": "yes", "source": "survey", "wheelchair": "yes"}}, {"type": "way", "id": 613474107, "nodes": [5804557878, 5804557879, 5804557880, 5804557881, 5804557882, 5804557878], "tags": {"addr:city": "Bengaluru", "addr:housenumber": "66", "addr:postcode": "560034", "addr:street": "Kaikondrahalli, Sarjapur Road", "amenity": "hospital", "emergency": "yes", "healthcare": "hospital", "name": "Suvarnamukhi", "name:kn": "\u0cb8\u0cc1\u0cb5\u0cb0\u0ccd\u0ca3\u0cae\u0cc1\u0c96\u0cbf \u0c86\u0cb8\u0ccd\u0caa\u0ca4\u0ccd\u0cb0\u0cc6", "phone": "+91 98451 26869"}}, {"type": "way", "id": 631580848, "nodes": [2413417397, 2413417389, 5964111211, 5964111212, 5964111213, 2413417397], "tags": {"addr:housenumber": "52/2, 52/3", "addr:street": "Kariammana Agrahara Road", "amenity": "hospital", "check_date": "2025-09-03", "contact:phone": "080 4962 4962", "contact:website": "https://www.sakraworldhospital.com/", "emergency": "yes", "healthcare": "hospital", "healthcare:speciality": "dermatology;otolaryngology;urology;blood_check;cardiology;intensive;diabetology;orthopaedics;cardiothoracic_surgery;gynaecology;paediatrics;emergency;general;dentistry;dental_oral_maxillo_facial_surgery;rheumatology;anaesthetics;plastic_surgery;dialysis", "name": "Sakra World", "opening_hours": "24/7", "operator:type": "private", "payment:cash": "yes", "payment:credit_cards": "yes", "payment:debit_cards": "yes", "payment:qr_code": "yes", "payment:upi": "yes", "wheelchair": "yes", "wikidata": "Q134999916"}}, {"type": "way", "id": 655045245, "nodes": [6137643281, 6137643282, 6137643283, 6137643284, 6137643281], "tags": {"addr:district": "Bengaluru Urban", "addr:full": "14/2,Chikkanayakanahalli Village, Off Sarjapur Road", "addr:postcode": "560035", "addr:state": "Karnataka", "amenity": "hospital", "healthcare": "hospital", "healthcare:speciality": "ayurveda", "name": "Punarjani Ayurvedic Multispeciality Hospital", "source": "OpenGovernmentData"}}, {"type": "way", "id": 1071044455, "nodes": [9828540924, 9828540925, 9828540926, 9828540927, 9828540924], "tags": {"amenity": "hospital", "check_date": "2025-02-12", "healthcare": "hospital", "healthcare:speciality": "maternity", "name": "Cloudnine", "payment:cash": "yes", "payment:mastercard": "yes", "payment:visa": "yes", "source": "survey"}}, {"type": "way", "id": 1071257248, "nodes": [9830902289, 9830902290, 9830902291, 9830902292, 9830902289], "tags": {"amenity": "hospital", "healthcare": "hospital", "name": "BN Specialty Hospital"}}, {"type": "way", "id": 1088209015, "nodes": [9970369526, 9970369524, 9970369523, 9970369522, 9970369521, 9970369520, 9970369525, 9970369526], "tags": {"amenity": "hospital", "name": "Karunalayam Hospital", "name:kn": "\u0c95\u0cb0\u0cc1\u0ca3\u0cbe\u0cb2\u0caf\u0c82 \u0c86\u0cb8\u0ccd\u0caa\u0ca4\u0ccd\u0cb0\u0cc6"}}, {"type": "way", "id": 1178505994, "nodes": [10948384383, 13065353808, 13065353809, 10948384379, 10948384386, 10948384385, 10948384364, 10948384384, 10948384383], "tags": {"amenity": "hospital", "healthcare": "clinic", "name": "Snehadaan Hospital"}}, {"type": "way", "id": 1193177992, "nodes": [4474487215, 4474487222, 11075395440, 11753319908, 11075395441, 11075395442, 4474487215], "tags": {"amenity": "hospital", "emergency": "yes", "healthcare": "hospital", "name": "Cloud Nine", "note": "Emergency ward and lab open 24x7", "opening_hours": "Mo-Sa 08:00-20:00, Su 10:00-12:00, 16:00-18:00", "operator": "Cloud Nine Care", "operator:type": "private", "phone": "+91 99728 99728", "website": "https://www.cloudninecare.com/centre/sarjapur-road"}}, {"type": "way", "id": 1290198690, "nodes": [11962404414, 11962404415, 11962404416, 11962404417, 11962404418, 11962404414], "tags": {"addr:city": "Bengaluru", "addr:housenumber": "3/4", "addr:postcode": "560103", "addr:street": "Sarjapura Road", "amenity": "hospital", "email": "queries@rainbowhospitals.in", "emergency": "yes", "healthcare": "hospital", "healthcare:speciality": "gynaecology;child_psychiatry;paediatrics;otolaryngology;fertility;neonatology;vascular_surgery;physiatry", "name": "Rainbow Childrens Hospital", "phone": "+91 08062261218", "website": "https://www.rainbowhospitals.in/"}}, {"type": "way", "id": 1347724899, "nodes": [12466456674, 12466456675, 1381347423, 1381347431, 1381347333, 12466456676, 12466456674], "tags": {"amenity": "hospital", "emergency": "yes", "healthcare": "hospital", "name": "Sri Vishveshathirtha Memorial Hospital", "short_name": "SVM Hospital"}}, {"type": "way", "id": 1362578786, "nodes": [12615547386, 12615547387, 12615547388, 12615547389, 12615547386], "tags": {"addr:city": "Bengaluru", "addr:district": "Karnataka", "addr:housenumber": "Plumeria 2nd Floor", "addr:postcode": "560102", "addr:street": "Haralur Main Road", "amenity": "hospital", "email": "urwelcome@klinikgluhen.com", "emergency": "yes", "healthcare": "hospital", "healthcare:speciality": "dentist;dental_oral_maxillo_facial_surgery;dentistry;implantology;orthodontics;pedodontics;maxillofacial_surgery;craniofacial;plastic_surgery;psychiatry", "image": "https://lh3.googleusercontent.com/p/AF1QipN-H9esnouOf6f9LhnY3IkGoS4dyHJiYGpHHac5=s680-w680-h510", "mobile": "+916366800859", "name": "Klinik Guhen - Dental Clinic", "opening_hours": "All Days 10:00-19:30 (Tue Holiday)", "operator": "Dental Clinic", "operator:type": "business", "payment:cash": "yes", "payment:credit_cards": "yes", "payment:debit_cards": "yes", "payment:google_pay": "yes", "phone": "+916366800859", "source": "streetlevel imagery;local knowledge;survey;gps", "start_date": "2021-10-01", "website": "https://klinikgluhen.com/", "wheelchair": "yes"}}, {"type": "way", "id": 1433363981, "nodes": [13173681435, 13173681436, 13173681437, 13173681438, 13173681435], "tags": {"amenity": "hospital", "healthcare": "hospital", "name": "Aarogya Hastha Hospital"}}]}