{"version": 0.6, "generator": "Overpass API 0.7.62.8 e802775f", "osm3s": {"timestamp_osm_base": "2026-01-12T15:47:16Z", "copyright": "The data included in this document is from www.openstreetmap.org. The data is made available under ODbL."}, "elements": [{"type": "node", "id": 7202935841, "lat": 13.1376521, "lon": 77.744809, "tags": {"addr:district": "Bangalore Rural", "addr:full": "Budigere", "addr:postcode": "562129", "addr:state": "Karnataka", "addr:subdistrict": "Devanahalli", "amenity": "hospital", "name": "Government Hospital, Budigere", "name:kn": "\u0cac\u0cc2\u0ca6\u0cbf\u0c97\u0cc6\u0cb0\u0cc6 \u0cb8\u0cb0\u0ccd\u0c95\u0cbe\u0cb0\u0cbf \u0c86\u0cb8\u0ccd\u0caa\u0ca4\u0ccd\u0cb0\u0cc6", "source": "OpenGovernmentData"}}, {"type": "node", "id": 7579683253, "lat": 13.142831, "lon": 77.6727356, "tags": {"addr:district": "Bengaluru Urban", "addr:full": "North Bagalur, Bengaluru", "addr:postcode": "562149", "addr:state": "Karnataka", "amenity": "hospital", "check_date": "2024-09-30", "name": "Vikrant Hospital", "source": "Local Knowledge"}}, {"type": "node", "id": 13361809653, "lat": 13.056669, "lon": 77.7156758}, {"type": "node", "id": 13361809654, "lat": 13.0567474, "lon": 77.7151608}, {"type": "node", "id": 13361809655, "lat": 13.0562065, "lon": 77.7154371}, {"type": "node", "id": 13361809656, "lat": 13.0561673, "lon": 77.7161425}, {"type": "node", "id": 13361809657, "lat": 13.0564548, "lon": 77.7162015}, {"type": "way", "id": 1456924436, "nodes": [13361809657, 13361809656, 13361809655, 13361809654, 13361809653, 13361809657], "tags": {"amenity": "hospital"}}]}