{"version": 0.6, "generator": "Overpass API 0.7.62.8 e802775f", "osm3s": {"timestamp_osm_base": "2026-01-15T22:43:56Z", "copyright": "The data included in this document is from www.openstreetmap.org. The data is made available under ODbL."}, "elements": [{"type": "node", "id": 1114554322, "lat": 50.4621966, "lon": 5.8105035, "tags": {"bus": "yes", "public_transport": "stop_position"}}, {"type": "node", "id": 2964528754, "lat": 50.4621456, "lon": 5.8105203, "tags": {"bench": "no", "bus": "yes", "highway": "bus_stop", "name": "Basse-Desnie Carrefour", "network": "TECL", "network:wikidata": "Q3512078", "operator": "TEC", "operator:wikidata": "Q366922", "public_transport": "platform", "ref:TECL": "LBdcarr1", "route_ref:TECL": "388", "shelter": "no", "zone:TEC": "5356"}}, {"type": "node", "id": 2964528755, "lat": 50.4622798, "lon": 5.8099865, "tags": {"bench": "no", "bus": "yes", "highway": "bus_stop", "name": "Basse-Desnie Carrefour", "network": "TECL", "network:wikidata": "Q3512078", "operator": "TEC", "operator:wikidata": "Q366922", "public_transport": "platform", "ref:TECL": "LBdcarr2", "route_ref:TECL": "388", "shelter": "no", "zone:TEC": "5356"}}, {"type": "node", "id": 2964528756, "lat": 50.4707211, "lon": 5.8152604, "tags": {"bench": "no", "bus": "yes", "highway": "bus_stop", "name": "Basse-Desnie Chemin de Fagne Marron", "network": "TECL", "network:wikidata": "Q3512078", "operator": "TEC", "operator:wikidata": "Q366922", "public_transport": "platform", "ref:TECL": "LBdmarr1", "route_ref:TECL": "388", "shelter": "no", "zone:TEC": "5356"}}, {"type": "node", "id": 2964528757, "lat": 50.4707458, "lon": 5.8151668, "tags": {"bench": "no", "bus": "yes", "highway": "bus_stop", "name": "Basse-Desnie Chemin de Fagne Marron", "network": "TECL", "network:wikidata": "Q3512078", "operator": "TEC", "operator:wikidata": "Q366922", "public_transport": "platform", "ref:TECL": "LBdmarr2", "route_ref:TECL": "388", "shelter": "no", "zone:TEC": "5356"}}, {"type": "node", "id": 2964528758, "lat": 50.4655506, "lon": 5.8135677, "tags": {"bench": "no", "bus": "yes", "highway": "bus_stop", "name": "Basse-Desnie Cimeti\u00e8re", "network": "TECL", "network:wikidata": "Q3512078", "operator": "TEC", "operator:wikidata": "Q366922", "public_transport": "platform", "ref:TECL": "LBdcime1", "route_ref:TECL": "388", "shelter": "no", "zone:TEC": "5356"}}, {"type": "node", "id": 2964528759, "lat": 50.4652435, "lon": 5.813085, "tags": {"bench": "no", "bus": "yes", "highway": "bus_stop", "name": "Basse-Desnie Cimeti\u00e8re", "network": "TECL", "network:wikidata": "Q3512078", "operator": "TEC", "operator:wikidata": "Q366922", "public_transport": "platform", "ref:TECL": "LBdcime2", "route_ref:TECL": "388", "shelter": "no", "zone:TEC": "5356"}}, {"type": "node", "id": 2964528772, "lat": 50.474811, "lon": 5.7954776, "tags": {"bus": "yes", "highway": "bus_stop", "name": "La Reid Croix Papet carrefour", "network": "TECL", "network:wikidata": "Q3512078", "operator": "TEC", "operator:wikidata": "Q366922", "public_transport": "platform", "ref:TECL": "LLrpape2", "route_ref:TECL": "388", "zone:TEC": "5356"}}, {"type": "node", "id": 2964528773, "lat": 50.4746483, "lon": 5.7953571, "tags": {"bus": "yes", "highway": "bus_stop", "name": "La Reid Croix Papet carrefour", "network": "TECL", "network:wikidata": "Q3512078", "operator": "TEC", "operator:wikidata": "Q366922", "public_transport": "platform", "ref:TECL": "LLrpape3", "route_ref:TECL": "388", "zone:TEC": "5356"}}, {"type": "node", "id": 2964528774, "lat": 50.4749561, "lon": 5.7941003, "tags": {"bus": "yes", "highway": "bus_stop", "name": "La Reid Croix Papet carrefour", "network": "TECL", "network:wikidata": "Q3512078", "operator": "TEC", "operator:wikidata": "Q366922", "public_transport": "platform", "ref:TECL": "LLrpape1", "route_ref:TECL": "388", "zone:TEC": "5356"}}, {"type": "node", "id": 2964528776, "lat": 50.4652878, "lon": 5.799716, "tags": {"bus": "yes", "highway": "bus_stop", "name": "La Reid Fagne Marron", "network": "TECL", "network:wikidata": "Q3512078", "operator": "TEC", "operator:wikidata": "Q366922", "public_transport": "platform", "ref:TECL": "LLrfagn1", "route_ref:TECL": "388", "zone:TEC": "5356"}}, {"type": "node", "id": 2964528777, "lat": 50.4653394, "lon": 5.7997529, "tags": {"bus": "yes", "highway": "bus_stop", "name": "La Reid Fagne Marron", "network": "TECL", "network:wikidata": "Q3512078", "operator": "TEC", "operator:wikidata": "Q366922", "public_transport": "platform", "ref:TECL": "LLrfagn2", "route_ref:TECL": "388", "zone:TEC": "5356"}}, {"type": "node", "id": 2964528808, "lat": 50.4664203, "lon": 5.7973964, "tags": {"bus": "yes", "highway": "bus_stop", "name": "La Reid Route du Vert-Buisson", "network": "TECL", "network:wikidata": "Q3512078", "operator": "TEC", "operator:wikidata": "Q366922", "public_transport": "platform", "ref:TECL": "LLrbuis2", "route_ref:TECL": "388", "zone:TEC": "5356"}}, {"type": "node", "id": 2964528809, "lat": 50.4665182, "lon": 5.7969913, "tags": {"bus": "yes", "highway": "bus_stop", "name": "La Reid Route du Vert-Buisson", "network": "TECL", "network:wikidata": "Q3512078", "operator": "TEC", "operator:wikidata": "Q366922", "public_transport": "platform", "ref:TECL": "LLrbuis1", "route_ref:TECL": "388", "zone:TEC": "5356"}}, {"type": "node", "id": 2964528821, "lat": 50.4710127, "lon": 5.7940379, "tags": {"bench": "no", "bin": "no", "bus": "yes", "highway": "bus_stop", "lit": "yes", "name": "La Reid Chemin de Banoyard", "network": "TECL", "network:wikidata": "Q3512078", "operator": "TEC", "operator:wikidata": "Q366922", "public_transport": "platform", "ref:TECL": "LLrbano1", "route_ref:TECL": "388", "shelter": "no", "tactile_paving": "no", "zone:TEC": "5356"}}, {"type": "node", "id": 2964528822, "lat": 50.471059, "lon": 5.7941454, "tags": {"bench": "no", "bin": "no", "bus": "yes", "highway": "bus_stop", "lit": "no", "name": "La Reid Chemin de Banoyard", "network": "TECL", "network:wikidata": "Q3512078", "operator": "TEC", "operator:wikidata": "Q366922", "public_transport": "platform", "ref:TECL": "LLrbano2", "route_ref:TECL": "388", "shelter": "no", "tactile_paving": "no", "zone:TEC": "5356"}}, {"type": "node", "id": 3067080888, "lat": 50.4733574, "lon": 5.8457436, "tags": {"bench": "no", "bin": "no", "bus": "yes", "highway": "bus_stop", "lit": "yes", "name": "Creppe Village", "network": "TECL", "operator": "TEC", "public_transport": "platform", "ref:TECL": "LCpvill2", "route_ref:TECL": "399", "shelter": "no", "tactile_paving": "no", "zone:TEC": "5338"}}, {"type": "node", "id": 3067080889, "lat": 50.4734369, "lon": 5.8459439, "tags": {"bench": "yes", "bin": "no", "bus": "yes", "check_date:shelter": "2023-08-19", "highway": "bus_stop", "lit": "yes", "name": "Creppe Village", "network": "TECL", "operator": "TEC", "public_transport": "platform", "ref:TECL": "LCpvill1", "route_ref:TECL": "399", "shelter": "yes", "tactile_paving": "no", "zone:TEC": "5338"}}, {"type": "node", "id": 9845954168, "lat": 50.4711605, "lon": 5.8432271, "tags": {"bus": "yes", "highway": "bus_stop", "name": "Creppe \u00c9glise", "name:operator:TEC": "Creppe, Eglise", "network": "TECL", "operator": "TEC", "public_transport": "platform", "ref:TECL": "LCpeg-*", "route_ref:TECL": "399", "shelter": "yes", "zone:TEC": "5338"}}]}