{"version": 0.6, "generator": "Overpass API 0.7.62.8 e802775f", "osm3s": {"timestamp_osm_base": "2026-01-12T16:25:11Z", "copyright": "The data included in this document is from www.openstreetmap.org. The data is made available under ODbL."}, "elements": [{"type": "node", "id": 308073342, "lat": 13.0646541, "lon": 77.5232221}, {"type": "node", "id": 308073343, "lat": 13.0663198, "lon": 77.5189461}, {"type": "node", "id": 308073344, "lat": 13.0675862, "lon": 77.5156742}, {"type": "node", "id": 308073345, "lat": 13.0682534, "lon": 77.5139326}, {"type": "node", "id": 308073346, "lat": 13.0688643, "lon": 77.5124096}, {"type": "node", "id": 308073347, "lat": 13.0693351, "lon": 77.5115111}, {"type": "node", "id": 308073348, "lat": 13.0699459, "lon": 77.5106447}, {"type": "node", "id": 308073349, "lat": 13.0707834, "lon": 77.509723}, {"type": "node", "id": 308073350, "lat": 13.0718747, "lon": 77.5087004}, {"type": "node", "id": 308073351, "lat": 13.0746787, "lon": 77.5056373, "tags": {"internet_access": "no", "name": "Chikka Banavara", "name:kn": "\u0c9a\u0cbf\u0c95\u0ccd\u0c95 \u0cac\u0cbe\u0ca3\u0cb5\u0cbe\u0cb0", "network": "IR", "operator": "SWR", "public_transport": "station", "railway": "station", "ref": "BAW", "wikidata": "Q63355771"}}, {"type": "node", "id": 308073360, "lat": 13.0847368, "lon": 77.4965246}, {"type": "node", "id": 308073362, "lat": 13.0858507, "lon": 77.4954618}, {"type": "node", "id": 308073363, "lat": 13.0881452, "lon": 77.4932751}, {"type": "node", "id": 308073364, "lat": 13.0905043, "lon": 77.4910194}, {"type": "node", "id": 308073365, "lat": 13.092824, "lon": 77.4888099}, {"type": "node", "id": 308073366, "lat": 13.0940921, "lon": 77.4875788}, {"type": "node", "id": 308073368, "lat": 13.0955875, "lon": 77.4860264}, {"type": "node", "id": 308073369, "lat": 13.0972762, "lon": 77.4841617}, {"type": "node", "id": 308073370, "lat": 13.099055, "lon": 77.4821982}, {"type": "node", "id": 308073374, "lat": 13.1048835, "lon": 77.4760496}, {"type": "node", "id": 308073375, "lat": 13.1096233, "lon": 77.4713632}, {"type": "node", "id": 308073376, "lat": 13.1145218, "lon": 77.4664709}, {"type": "node", "id": 308073378, "lat": 13.1157877, "lon": 77.4652017}, {"type": "node", "id": 308073379, "lat": 13.1162522, "lon": 77.4646084}, {"type": "node", "id": 308073380, "lat": 13.1168321, "lon": 77.4636841}, {"type": "node", "id": 308073381, "lat": 13.1174141, "lon": 77.4625055}, {"type": "node", "id": 308073383, "lat": 13.1205723, "lon": 77.4562238}, {"type": "node", "id": 308073384, "lat": 13.125656, "lon": 77.4460588}, {"type": "node", "id": 308073385, "lat": 13.1320118, "lon": 77.4333961}, {"type": "node", "id": 308073388, "lat": 13.1336046, "lon": 77.430252}, {"type": "node", "id": 308073390, "lat": 13.1341673, "lon": 77.4293873}, {"type": "node", "id": 308073392, "lat": 13.1352235, "lon": 77.4281937}, {"type": "node", "id": 308073395, "lat": 13.1375007, "lon": 77.4258173}, {"type": "node", "id": 308073397, "lat": 13.1382791, "lon": 77.4250233}, {"type": "node", "id": 308073620, "lat": 13.1422451, "lon": 77.4209003}, {"type": "node", "id": 308073621, "lat": 13.1435453, "lon": 77.419527}, {"type": "node", "id": 308073622, "lat": 13.1470166, "lon": 77.4158882}, {"type": "node", "id": 308073623, "lat": 13.1527, "lon": 77.4099563}, {"type": "node", "id": 308073624, "lat": 13.1535573, "lon": 77.4091463}, {"type": "node", "id": 308073625, "lat": 13.1544108, "lon": 77.4084671}, {"type": "node", "id": 308073626, "lat": 13.1558713, "lon": 77.4073294}, {"type": "node", "id": 308073627, "lat": 13.1580866, "lon": 77.4055697}, {"type": "node", "id": 308073628, "lat": 13.1633431, "lon": 77.4014349}, {"type": "node", "id": 308073629, "lat": 13.1653316, "lon": 77.3998937}, {"type": "node", "id": 308073630, "lat": 13.1664646, "lon": 77.3991491}, {"type": "node", "id": 308073631, "lat": 13.1679303, "lon": 77.3985515}, {"type": "node", "id": 308073632, "lat": 13.1683532, "lon": 77.3984143}, {"type": "node", "id": 308073633, "lat": 13.1734062, "lon": 77.3968548}, {"type": "node", "id": 308074054, "lat": 13.0401291, "lon": 77.542309}, {"type": "node", "id": 308074058, "lat": 13.0479234, "lon": 77.5371525}, {"type": "node", "id": 308074059, "lat": 13.0499436, "lon": 77.5358205}, {"type": "node", "id": 308074060, "lat": 13.0527199, "lon": 77.5340148}, {"type": "node", "id": 308074061, "lat": 13.0538913, "lon": 77.5333289}, {"type": "node", "id": 308074062, "lat": 13.0544735, "lon": 77.5330851}, {"type": "node", "id": 308074063, "lat": 13.0560409, "lon": 77.5326043}, {"type": "node", "id": 308074064, "lat": 13.0571945, "lon": 77.5323048}, {"type": "node", "id": 308074066, "lat": 13.0583917, "lon": 77.531934}, {"type": "node", "id": 308074067, "lat": 13.0595358, "lon": 77.5313669}, {"type": "node", "id": 308074068, "lat": 13.0603749, "lon": 77.5308067}, {"type": "node", "id": 308074069, "lat": 13.0612299, "lon": 77.5300658}, {"type": "node", "id": 308074070, "lat": 13.0618215, "lon": 77.5294064}, {"type": "node", "id": 308074071, "lat": 13.0624905, "lon": 77.5284404}, {"type": "node", "id": 308074072, "lat": 13.0630044, "lon": 77.5274038}, {"type": "node", "id": 308074074, "lat": 13.0638849, "lon": 77.5251877}, {"type": "node", "id": 308185555, "lat": 13.133825, "lon": 77.5147156, "tags": {"highway": "bus_stop", "name": "Shivakote", "name:kn": "\u0cb6\u0cbf\u0cb5\u0c95\u0ccb\u0c9f\u0cbf"}}, {"type": "node", "id": 389475390, "lat": 13.1802494, "lon": 77.3944113}, {"type": "node", "id": 389475391, "lat": 13.183138, "lon": 77.3920732}, {"type": "node", "id": 389475392, "lat": 13.2112495, "lon": 77.3686416}, {"type": "node", "id": 389475393, "lat": 13.2135563, "lon": 77.3647254}, {"type": "node", "id": 389475394, "lat": 13.2141386, "lon": 77.3621616}, {"type": "node", "id": 389475395, "lat": 13.2210011, "lon": 77.3341727}, {"type": "node", "id": 389475396, "lat": 13.2225638, "lon": 77.3316709}, {"type": "node", "id": 389475397, "lat": 13.2268471, "lon": 77.3247004}, {"type": "node", "id": 389475398, "lat": 13.2322582, "lon": 77.3193661}, {"type": "node", "id": 389475399, "lat": 13.2339813, "lon": 77.316804}, {"type": "node", "id": 389475400, "lat": 13.2413143, "lon": 77.3005813}, {"type": "node", "id": 389475401, "lat": 13.2427737, "lon": 77.2954243}, {"type": "node", "id": 389475402, "lat": 13.2457019, "lon": 77.2825478}, {"type": "node", "id": 389475403, "lat": 13.2462292, "lon": 77.2789865}, {"type": "node", "id": 389475404, "lat": 13.2431312, "lon": 77.2678727, "tags": {"railway": "level_crossing"}}, {"type": "node", "id": 389475405, "lat": 13.2410963, "lon": 77.265491}, {"type": "node", "id": 389475406, "lat": 13.2377036, "lon": 77.26055}, {"type": "node", "id": 389475407, "lat": 13.2335025, "lon": 77.2507778}, {"type": "node", "id": 389475408, "lat": 13.2330144, "lon": 77.245049}, {"type": "node", "id": 389475409, "lat": 13.2354452, "lon": 77.240626}, {"type": "node", "id": 389475410, "lat": 13.2570691, "lon": 77.2103503}, {"type": "node", "id": 389475411, "lat": 13.2605144, "lon": 77.2071112}, {"type": "node", "id": 389475412, "lat": 13.2724333, "lon": 77.1971786}, {"type": "node", "id": 433843548, "lat": 13.1386597, "lon": 77.4746221, "tags": {"bench": "yes", "bin": "no", "bus": "yes", "highway": "bus_stop", "lit": "yes", "loc_name": "Hesaraghatta", "name": "Vinayaka Nagara", "name:kn": "\u0cb5\u0cbf\u0ca8\u0cbe\u0caf\u0c95 \u0ca8\u0c97\u0cb0", "public_transport": "platform", "shelter": "yes"}}, {"type": "node", "id": 433843567, "lat": 13.137901, "lon": 77.4784342, "tags": {"bench": "yes", "bin": "no", "bus": "yes", "highway": "bus_stop", "loc_name": "HASARAGHATTA", "name": "Hesaraghatta Village", "name:kn": "\u0cb9\u0cc6\u0cb8\u0cb0\u0c98\u0c9f\u0ccd\u0c9f \u0c97\u0ccd\u0cb0\u0cbe\u0cae", "public_transport": "platform", "shelter": "yes"}}, {"type": "node", "id": 433843747, "lat": 13.1055331, "lon": 77.4794248, "tags": {"highway": "bus_stop", "loc_name": "THARABANAHALLI", "name": "Tharabana Halli Choultry", "name:kn": "\u0ca4\u0cb0\u0cac\u0ca8\u0cb9\u0cb3\u0ccd\u0cb3\u0cbf \u0c9a\u0cbe\u0cb5\u0ca1\u0cbf"}}, {"type": "node", "id": 433843800, "lat": 13.0880852, "lon": 77.4949031, "tags": {"highway": "bus_stop", "loc_name": "Chikkabanavara", "name": "Dwarka Nagar", "name:kn": "\u0ca6\u0ccd\u0cb5\u0cbe\u0cb0\u0c95\u0ca8\u0c97\u0cb0"}}, {"type": "node", "id": 433843828, "lat": 13.0762424, "lon": 77.5050696, "tags": {"highway": "bus_stop", "loc_name": "CHIKKA BANAVARA", "name": "Medarahalli Railway Gate"}}, {"type": "node", "id": 443722548, "lat": 13.0397202, "lon": 77.5426132}, {"type": "node", "id": 483405488, "lat": 13.1374628, "lon": 77.4944743, "tags": {"bus": "yes", "highway": "bus_stop", "loc_name": "NARKANDA PURA", "name": "Ivara Kondapura", "name:kn": "\u0c87\u0cb5\u0cb0 \u0c95\u0cca\u0c82\u0ca1\u0cbe\u0caa\u0cc1\u0cb0", "public_transport": "platform"}}, {"type": "node", "id": 503002483, "lat": 13.0686238, "lon": 77.4765245, "tags": {"bus": "yes", "highway": "bus_stop", "loc_name": "Madhanayakanahalli KUDREGERE", "name": "Kudhurgere colony", "public_transport": "platform"}}, {"type": "node", "id": 503002519, "lat": 13.0571489, "lon": 77.4603031, "tags": {"bus": "yes", "highway": "bus_stop", "loc_name": "SIDDANNAHOSAHALLI", "name": "Siddana Hosahalli", "name:en": "Siddana Hosahalli", "name:kn": "\u0cb8\u0cbf\u0ca6\u0ccd\u0ca6\u0ca3\u0ccd\u0ca3 \u0cb9\u0cca\u0cb8\u0cb9\u0cb3\u0ccd\u0cb3\u0cbf", "network": "BMTC", "operator": "BMTC", "public_transport": "platform"}}, {"type": "node", "id": 571439222, "lat": 13.0737412, "lon": 77.4521283, "tags": {"bus": "yes", "highway": "bus_stop", "loc_name": "MAKALI", "name": "Nisarga Layout", "public_transport": "platform"}}, {"type": "node", "id": 571439228, "lat": 13.0812447, "lon": 77.4504331, "tags": {"bus": "yes", "highway": "bus_stop", "loc_name": "MAKALI", "name": "Biscuit Factory", "public_transport": "platform"}}, {"type": "node", "id": 571439231, "lat": 13.0847038, "lon": 77.4476436, "tags": {"bus": "yes", "highway": "bus_stop", "loc_name": "NAGARARU", "name": "Manthri Layout", "public_transport": "platform"}}, {"type": "node", "id": 571439235, "lat": 13.0964119, "lon": 77.4452117, "tags": {"bus": "yes", "highway": "bus_stop", "name": "Kodipalya", "name:kn": "\u0c95\u0ccb\u0ca1\u0cbf\u0caa\u0cbe\u0cb3\u0ccd\u0caf", "public_transport": "platform"}}, {"type": "node", "id": 571439240, "lat": 13.1042378, "lon": 77.4439151, "tags": {"bus": "yes", "highway": "bus_stop", "loc_name": "KANVA GARDEN CITY LAYOUT", "name": "Kanva Gate", "public_transport": "platform"}}, {"type": "node", "id": 571439250, "lat": 13.1104415, "lon": 77.443513, "tags": {"bus": "yes", "highway": "bus_stop", "loc_name": "MATTHAHALLI", "name": "Mathahalli Cross", "public_transport": "platform"}}, {"type": "node", "id": 571441915, "lat": 13.1507869, "lon": 77.411978, "tags": {"railway": "level_crossing"}}, {"type": "node", "id": 574398494, "lat": 13.0787974, "lon": 77.5164773, "tags": {"highway": "bus_stop", "loc_name": "KEREGUDDADAHALLI", "name": "Kere Guddadahalli", "name:kn": "\u0c95\u0cc6\u0cb0\u0cc6\u0c97\u0cc1\u0ca1\u0ccd\u0ca1\u0ca6\u0cb9\u0cb3\u0ccd\u0cb3\u0cbf"}}, {"type": "node", "id": 574500358, "lat": 13.0999575, "lon": 77.4806396}, {"type": "node", "id": 574500373, "lat": 13.1005009, "lon": 77.4793309}, {"type": "node", "id": 574500380, "lat": 13.1050715, "lon": 77.4541284}, {"type": "node", "id": 574500395, "lat": 13.1086018, "lon": 77.4347355}, {"type": "node", "id": 574500400, "lat": 13.1096319, "lon": 77.4311235}, {"type": "node", "id": 574500409, "lat": 13.111125, "lon": 77.4265936}, {"type": "node", "id": 574500422, "lat": 13.1115011, "lon": 77.4245601}, {"type": "node", "id": 574500457, "lat": 13.1142407, "lon": 77.4008761}, {"type": "node", "id": 574500471, "lat": 13.1143703, "lon": 77.3987307, "tags": {"railway": "switch"}}, {"type": "node", "id": 574500477, "lat": 13.113855, "lon": 77.3964007}, {"type": "node", "id": 675503009, "lat": 13.1445292, "lon": 77.4513806, "tags": {"bus": "yes", "highway": "bus_stop", "loc_name": "THOTAGERE", "name": "BGS college", "public_transport": "platform"}}, {"type": "node", "id": 732425205, "lat": 13.1114679, "lon": 77.3906072}, {"type": "node", "id": 732425345, "lat": 13.1102769, "lon": 77.389154, "tags": {"railway": "switch"}}, {"type": "node", "id": 863291814, "lat": 13.0554769, "lon": 77.4791781, "tags": {"highway": "bus_stop", "loc_name": "Tumkur Road", "name": "Anchepalya", "name:kn": "\u0c85\u0c82\u0c9a\u0cc7\u0caa\u0cbe\u0cb3\u0ccd\u0caf"}}, {"type": "node", "id": 1110407559, "lat": 13.2339165, "lon": 77.2428546}, {"type": "node", "id": 1110408123, "lat": 13.2327506, "lon": 77.2465514}, {"type": "node", "id": 1110408245, "lat": 13.2327954, "lon": 77.2483353}, {"type": "node", "id": 1110408426, "lat": 13.2330255, "lon": 77.2494491}, {"type": "node", "id": 1137192461, "lat": 13.245817, "lon": 77.2761652}, {"type": "node", "id": 1137192462, "lat": 13.2442095, "lon": 77.2701074}, {"type": "node", "id": 1137192463, "lat": 13.2420147, "lon": 77.2986682}, {"type": "node", "id": 1137192464, "lat": 13.2390275, "lon": 77.2631039}, {"type": "node", "id": 1137192465, "lat": 13.2585772, "lon": 77.208698}, {"type": "node", "id": 1137192466, "lat": 13.2443654, "lon": 77.2886736}, {"type": "node", "id": 1137192467, "lat": 13.2398322, "lon": 77.2640942}, {"type": "node", "id": 1137192469, "lat": 13.2750755, "lon": 77.1949397}, {"type": "node", "id": 1137192470, "lat": 13.2462032, "lon": 77.2798798, "tags": {"railway": "switch"}}, {"type": "node", "id": 1137192471, "lat": 13.2464251, "lon": 77.2253883}, {"type": "node", "id": 1147826271, "lat": 13.0437123, "lon": 77.5399741, "tags": {"railway": "switch"}}, {"type": "node", "id": 1318807705, "lat": 13.0763334, "lon": 77.4883159, "tags": {"highway": "bus_stop", "loc_name": "THAMENAHALLLI", "name": "Thammenahalli Palya", "name:kn": "\u0ca4\u0cae\u0ccd\u0cae\u0cc7\u0ca8\u0cb9\u0cb3\u0ccd\u0cb3\u0cbf \u0caa\u0cbe\u0cb3\u0ccd\u0caf"}}, {"type": "node", "id": 1318807736, "lat": 13.0835119, "lon": 77.4841613, "tags": {"alt_name": "Acharya Institute of Technology Chikkabanavara", "highway": "bus_stop", "name": "Acharya Institute of Technology", "name:en": "Acharya Institute of Technology", "network": "BMTC", "operator": "BMTC", "public_transport": "platform"}}, {"type": "node", "id": 1318807746, "lat": 13.0841656, "lon": 77.4865932, "tags": {"alt_name": "Achyutha Nagara Gate Chikkabanavara", "highway": "bus_stop", "loc_name": "Soladevanahalli", "name": "Achyuthanagara Gate", "name:en": "Achyuthanagara Gate", "name:kn": "\u0c85\u0c9a\u0ccd\u0caf\u0cc1\u0ca4\u0ca8\u0c97\u0cb0", "network": "BMTC", "operator": "BMTC", "public_transport": "platform"}}, {"type": "node", "id": 1385655662, "lat": 13.2744056, "lon": 77.1955458}, {"type": "node", "id": 1385655664, "lat": 13.27716, "lon": 77.1927628, "tags": {"railway": "switch"}}, {"type": "node", "id": 1385655666, "lat": 13.2826431, "lon": 77.1871694}, {"type": "node", "id": 1385655667, "lat": 13.2834822, "lon": 77.1864217}, {"type": "node", "id": 1386267950, "lat": 13.2191437, "lon": 77.3405358}, {"type": "node", "id": 1386267993, "lat": 13.2277033, "lon": 77.3237537}, {"type": "node", "id": 1386268548, "lat": 13.2126903, "lon": 77.3667666}, {"type": "node", "id": 1386268983, "lat": 13.220126, "lon": 77.3363403}, {"type": "node", "id": 1386269028, "lat": 13.2332183, "lon": 77.3181893}, {"type": "node", "id": 1386269222, "lat": 13.1784841, "lon": 77.3952617}, {"type": "node", "id": 1386269230, "lat": 13.2425623, "lon": 77.2963067, "tags": {"railway": "level_crossing"}}, {"type": "node", "id": 1485692894, "lat": 13.0647697, "lon": 77.5173296, "tags": {"bus": "yes", "highway": "bus_stop", "loc_name": "SHETTIHALLI", "name": "Shettty Halli", "name:kn": "\u0cb6\u0cc6\u0c9f\u0ccd\u0c9f\u0cbf\u0cb9\u0cb3\u0ccd\u0cb3\u0cbf", "public_transport": "platform"}}, {"type": "node", "id": 1485692927, "lat": 13.0672443, "lon": 77.5159428, "tags": {"bus": "yes", "highway": "bus_stop", "loc_name": "SHETTIHALLI", "name": "Medarahalli Railway Cross", "public_transport": "platform"}}, {"type": "node", "id": 1485692933, "lat": 13.0675008, "lon": 77.5158994, "tags": {"railway": "level_crossing"}}, {"type": "node", "id": 1485693042, "lat": 13.0753344, "lon": 77.5045233, "tags": {"highway": "bus_stop", "loc_name": "CHIKKA BANAVARA", "name": "Chikka Banawara Railway Gate", "name:en": "Chikka Banawara Railway Gate", "network": "BMTC", "operator": "BMTC", "public_transport": "platform"}}, {"type": "node", "id": 1576973952, "lat": 13.0505308, "lon": 77.4932587}, {"type": "node", "id": 1576973953, "lat": 13.0574214, "lon": 77.4728055, "tags": {"alt_name": "BIEC", "code": "BIET", "name": "Madavara", "name:kn": "\u0cae\u0ca6\u0cb5\u0cb0", "network": "Namma Metro", "network:wikidata": "Q279343", "note": "Contributors are requested to not edit the \"network\" and the \"operator\" tags. (2023/11/08)", "operator": "Bangalore Metro Rail Corporation Limited", "public_transport": "station", "public_transport:version": "2", "railway": "station", "shelter": "yes", "start_date": "2024-11-07", "station": "subway", "subway": "yes", "website": "https://english.brmc.co.in", "wheelchair": "yes", "wikidata": "Q122143705", "wikipedia": "en:Madavara metro station"}}, {"type": "node", "id": 1576973971, "lat": 13.0534566, "lon": 77.484948}, {"type": "node", "id": 1576973975, "lat": 13.0502271, "lon": 77.4941493}, {"type": "node", "id": 1576973977, "lat": 13.0517007, "lon": 77.489768}, {"type": "node", "id": 1576973978, "lat": 13.0555796, "lon": 77.47931}, {"type": "node", "id": 1576973979, "lat": 13.0582688, "lon": 77.4695696}, {"type": "node", "id": 1594902864, "lat": 13.1067359, "lon": 77.4901759, "tags": {"bus": "yes", "highway": "bus_stop", "loc_name": "KUMBARA HALLI CROSS", "name": "Kumbarahalli Cross", "public_transport": "platform"}}, {"type": "node", "id": 1681763287, "lat": 13.0731839, "lon": 77.5072051, "tags": {"railway": "buffer_stop"}}, {"type": "node", "id": 1681763312, "lat": 13.0775184, "lon": 77.503171}, {"type": "node", "id": 1681763324, "lat": 13.0770024, "lon": 77.5035734}, {"type": "node", "id": 1681763325, "lat": 13.0571339, "lon": 77.501909, "tags": {"highway": "bus_stop", "name": "Bagalagunte Village", "name:kn": "\u0cac\u0cbe\u0c97\u0cb2\u0c97\u0cc1\u0c82\u0c9f\u0cc6"}}, {"type": "node", "id": 1681763352, "lat": 13.0762838, "lon": 77.5042573}, {"type": "node", "id": 1681763420, "lat": 13.0683203, "lon": 77.4893818, "tags": {"bus": "yes", "highway": "bus_stop", "loc_name": "THOTADAGURADAHALLI", "name": "Thotada Guddadahalli", "name:kn": "\u0ca4\u0ccb\u0c9f\u0ca6 \u0c97\u0cc1\u0ca1\u0ccd\u0ca1\u0ca6\u0cb9\u0cb3\u0ccd\u0cb3\u0cbf", "public_transport": "platform"}}, {"type": "node", "id": 1681763441, "lat": 13.0804996, "lon": 77.5022973, "tags": {"alt_name": "Sante Beedi", "highway": "bus_stop", "loc_name": "Chikka Banawara", "name": "Chikka Banavara", "name:en": "Chikka Banavara", "name:kn": "\u0c9a\u0cbf\u0c95\u0ccd\u0c95 \u0cac\u0cbe\u0ca3\u0cb5\u0cbe\u0cb0", "network": "BMTC", "operator": "BMTC", "public_transport": "platform"}}, {"type": "node", "id": 1681763451, "lat": 13.0743961, "lon": 77.5060624}, {"type": "node", "id": 1681763509, "lat": 13.0607746, "lon": 77.5009314, "tags": {"highway": "bus_stop", "loc_name": "Bagalagunte", "name": "MEI Layout"}}, {"type": "node", "id": 1681763531, "lat": 13.0625424, "lon": 77.4953754, "tags": {"bus": "yes", "highway": "bus_stop", "loc_name": "SIDEDAHALLI", "name": "Sidedahalli", "name:kn": "\u0cb8\u0cbf\u0ca1\u0cc7\u0ca6\u0cb9\u0cb3\u0ccd\u0cb3\u0cbf", "public_transport": "platform", "wheelchair": "limited"}}, {"type": "node", "id": 1681763533, "lat": 13.0757835, "lon": 77.5047361}, {"type": "node", "id": 1681763604, "lat": 13.065434, "lon": 77.4927168, "tags": {"bus": "yes", "highway": "bus_stop", "loc_name": "MEENAKSHI LAYOUT", "name": "Meenakshi Layout", "name:kn": "\u0cae\u0cc0\u0ca8\u0cbe\u0c95\u0ccd\u0cb7\u0cbf \u0cac\u0ca1\u0cbe\u0cb5\u0ca3\u0cc6", "public_transport": "platform"}}, {"type": "node", "id": 1681763647, "lat": 13.077797, "lon": 77.5029265}, {"type": "node", "id": 1681780198, "lat": 13.11193, "lon": 77.4819095, "tags": {"highway": "bus_stop", "name": "Thore Nagasandra cross"}}, {"type": "node", "id": 1681780221, "lat": 13.0934254, "lon": 77.4888939, "tags": {"bus": "yes", "highway": "bus_stop", "loc_name": "SOLADEVANA HALLI", "name": "Soladevana Halli Police Station", "name:kn": "\u0cb8\u0ccb\u0cb2\u0ca6\u0cc7\u0cb5\u0ca8\u0cb9\u0cb3\u0ccd\u0cb3\u0cbf \u0c86\u0cb0\u0c95\u0ccd\u0cb7\u0c95 \u0ca0\u0cbe\u0ca3\u0cc6", "public_transport": "platform"}}, {"type": "node", "id": 1710208653, "lat": 13.1507408, "lon": 77.4119399, "tags": {"railway": "level_crossing"}}, {"type": "node", "id": 1780334166, "lat": 13.1366218, "lon": 77.445103, "tags": {"bus": "yes", "highway": "bus_stop", "loc_name": "THOTAGERE", "name": "Totagere", "name:kn": "\u0ca4\u0ccb\u0c9f\u0c97\u0cc6\u0cb0\u0cc6", "public_transport": "platform"}}, {"type": "node", "id": 1894246427, "lat": 13.1977045, "lon": 77.379935}, {"type": "node", "id": 1894246518, "lat": 13.1059162, "lon": 77.4750219}, {"type": "node", "id": 1894246562, "lat": 13.1292116, "lon": 77.455902, "tags": {"highway": "bus_stop", "name": "Agrahara Gate", "name:kn": "\u0c85\u0c97\u0ccd\u0cb0\u0cb9\u0cbe\u0cb0 \u0c97\u0cc7\u0c9f\u0ccd"}}, {"type": "node", "id": 1894246572, "lat": 13.1077499, "lon": 77.450157, "tags": {"bus": "yes", "highway": "bus_stop", "name": "Basappa Layout", "name:kn": "\u0cac\u0cb8\u0caa\u0ccd\u0caa \u0cac\u0ca1\u0cbe\u0cb5\u0ca3\u0cc6", "public_transport": "platform"}}, {"type": "node", "id": 1894246586, "lat": 13.1177068, "lon": 77.4619087}, {"type": "node", "id": 1894246599, "lat": 13.1187269, "lon": 77.4647714, "tags": {"highway": "bus_stop", "name": "Govindapura Cross"}}, {"type": "node", "id": 1894246623, "lat": 13.1979192, "lon": 77.3797493}, {"type": "node", "id": 1894246664, "lat": 13.1056463, "lon": 77.475289}, {"type": "node", "id": 1894246671, "lat": 13.1004499, "lon": 77.4806401, "tags": {"railway": "level_crossing"}}, {"type": "node", "id": 1894246731, "lat": 13.1176522, "lon": 77.4620107}, {"type": "node", "id": 1983915347, "lat": 13.0984105, "lon": 77.5251924, "tags": {"highway": "bus_stop", "loc_name": "GUNI AGRAHARA", "name": "Guni Agrahara", "name:kn": "\u0c97\u0cc1\u0ca3\u0cbf \u0c85\u0c97\u0ccd\u0cb0\u0cb9\u0cbe\u0cb0"}}, {"type": "node", "id": 1983915925, "lat": 13.088115, "lon": 77.5214425, "tags": {"highway": "bus_stop", "name": "Somashettihalli", "name:kn": "\u0cb8\u0ccb\u0cae\u0cb6\u0cc6\u0c9f\u0ccd\u0c9f\u0cbf\u0cb9\u0cb3\u0ccd\u0cb3\u0cbf"}}, {"type": "node", "id": 2034603703, "lat": 13.11304, "lon": 77.394241}, {"type": "node", "id": 2034603704, "lat": 13.1124293, "lon": 77.3926598}, {"type": "node", "id": 2034603716, "lat": 13.1143219, "lon": 77.4000632}, {"type": "node", "id": 2034603717, "lat": 13.1142626, "lon": 77.3978349}, {"type": "node", "id": 2034603719, "lat": 13.1109457, "lon": 77.3898967, "tags": {"railway": "switch"}}, {"type": "node", "id": 2110697934, "lat": 13.0751191, "lon": 77.4359092, "tags": {"highway": "bus_stop", "name": "Dasanapura", "name:en": "Dasanapura", "name:kn": "\u0ca6\u0cbe\u0cb8\u0ca8\u0caa\u0cc1\u0cb0", "network": "BMTC", "operator": "BMTC", "public_transport": "platform"}}, {"type": "node", "id": 2110697937, "lat": 13.0755778, "lon": 77.4360035, "tags": {"bus": "yes", "highway": "bus_stop", "name": "Dasanapura", "name:kn": "\u0ca6\u0cbe\u0cb8\u0ca8\u0caa\u0cc1\u0cb0", "public_transport": "platform"}}, {"type": "node", "id": 2130914569, "lat": 13.1016009, "lon": 77.4714692}, {"type": "node", "id": 2130914570, "lat": 13.1013211, "lon": 77.4735245}, {"type": "node", "id": 2130914571, "lat": 13.1039167, "lon": 77.4605533}, {"type": "node", "id": 2130914572, "lat": 13.1120357, "lon": 77.419811}, {"type": "node", "id": 2130914573, "lat": 13.109034, "lon": 77.4329012}, {"type": "node", "id": 2130914574, "lat": 13.1031138, "lon": 77.4652439}, {"type": "node", "id": 2130914575, "lat": 13.1143709, "lon": 77.3993593}, {"type": "node", "id": 2130914576, "lat": 13.1078324, "lon": 77.438841}, {"type": "node", "id": 2130914577, "lat": 13.1103258, "lon": 77.4290497}, {"type": "node", "id": 2130914578, "lat": 13.1008421, "lon": 77.477567}, {"type": "node", "id": 2130914579, "lat": 13.1006711, "lon": 77.4786357}, {"type": "node", "id": 2130914580, "lat": 13.1063865, "lon": 77.4469813}, {"type": "node", "id": 2130914581, "lat": 13.1020984, "lon": 77.4692528}, {"type": "node", "id": 2130914582, "lat": 13.1026023, "lon": 77.4675222}, {"type": "node", "id": 2130914583, "lat": 13.1113511, "lon": 77.4255517}, {"type": "node", "id": 2130914584, "lat": 13.104589, "lon": 77.4568921}, {"type": "node", "id": 2142790819, "lat": 13.060893, "lon": 77.5003917, "tags": {"highway": "bus_stop", "name": "MEI layout", "wheelchair": "limited"}}, {"type": "node", "id": 2242519390, "lat": 13.1266044, "lon": 77.5141077, "tags": {"highway": "bus_stop", "loc_name": "KONDU SHETTYHALLI", "name": "Kondashettihalli Byalakere"}}, {"type": "node", "id": 2242519489, "lat": 13.1282495, "lon": 77.5072278, "tags": {"highway": "bus_stop", "loc_name": "MADHUGIRI HALLI", "name": "Madhugirihalli", "name:kn": "\u0cae\u0ca7\u0cc1\u0c97\u0cbf\u0cb0\u0cbf\u0cb9\u0cb3\u0ccd\u0cb3\u0cbf"}}, {"type": "node", "id": 2244641393, "lat": 13.0712135, "lon": 77.5059782, "tags": {"highway": "bus_stop", "name": "Geleyara Balaga", "name:kn": "\u0c97\u0cc6\u0cb2\u0cc6\u0caf\u0cb0 \u0cac\u0cb3\u0c97"}}, {"type": "node", "id": 2244642129, "lat": 13.1036624, "lon": 77.5165725, "tags": {"highway": "bus_stop", "loc_name": "KALATHAMANAHALLI", "name": "Kalathammanahalli", "name:en": "Kalathammanahalli", "name:kn": "\u0c95\u0cb2\u0ca4\u0cae\u0ccd\u0cae\u0ca8\u0cb9\u0cb3\u0ccd\u0cb3\u0cbf", "network": "BMTC", "operator": "BMTC", "public_transport": "platform"}}, {"type": "node", "id": 2244732074, "lat": 13.0734449, "lon": 77.503117, "tags": {"bus": "yes", "name": "Janapriya Apartments", "name:en": "Janapriya Apartments", "network": "BMTC", "operator": "BMTC", "public_transport": "stop_position"}}, {"type": "node", "id": 2244732235, "lat": 13.0769515, "lon": 77.5258623, "tags": {"highway": "bus_stop", "name": "Abbigere", "name:en": "Abbigere", "name:kn": "\u0c85\u0cac\u0ccd\u0cac\u0cbf\u0c97\u0cc6\u0cb0\u0cc6", "network": "BMTC", "operator": "BMTC", "public_transport": "platform"}}, {"type": "node", "id": 2246700974, "lat": 13.2399764, "lon": 77.2642511}, {"type": "node", "id": 2246823470, "lat": 13.2356561, "lon": 77.2557757}, {"type": "node", "id": 2246823691, "lat": 13.2443457, "lon": 77.270543, "tags": {"railway": "level_crossing"}}, {"type": "node", "id": 2247847854, "lat": 13.2416415, "lon": 77.2998429}, {"type": "node", "id": 2247847911, "lat": 13.2440609, "lon": 77.289947}, {"type": "node", "id": 2247917046, "lat": 13.2334144, "lon": 77.2505565, "tags": {"railway": "level_crossing"}}, {"type": "node", "id": 2247917152, "lat": 13.2371667, "lon": 77.3097868}, {"type": "node", "id": 2247917154, "lat": 13.237701, "lon": 77.3085858}, {"type": "node", "id": 2247917279, "lat": 13.2462285, "lon": 77.2794322}, {"type": "node", "id": 2289153675, "lat": 13.0913516, "lon": 77.4898281, "tags": {"internet_access": "no", "name": "Soladevanahalli", "name:kn": "\u0cb8\u0ccb\u0cb2\u0ca6\u0cc7\u0cb5\u0ca8\u0cb9\u0cb3\u0ccd\u0cb3\u0cbf", "network": "IR", "operator": "SWR", "platforms": "2", "railway": "halt", "ref": "SDVL"}}, {"type": "node", "id": 2408541322, "lat": 13.2677835, "lon": 77.2010463}, {"type": "node", "id": 2425683412, "lat": 13.0586246, "lon": 77.4661321, "tags": {"highway": "bus_stop", "loc_name": "Tumkur Road", "name": "TCI", "name:en": "TCI", "network": "BMTC", "operator": "BMTC", "public_transport": "platform"}}, {"type": "node", "id": 2425683415, "lat": 13.0608994, "lon": 77.4612263, "tags": {"bus": "yes", "name": "Madanayakanahalli", "name:en": "Madanayakanahalli", "name:kn": "\u0cae\u0cbe\u0ca6\u0ca8\u0cbe\u0caf\u0c95\u0ca8\u0cb9\u0cb3\u0ccd\u0cb3\u0cbf", "network": "BMTC", "operator": "BMTC", "public_transport": "stop_position"}}, {"type": "node", "id": 2425683438, "lat": 13.060974, "lon": 77.4609941, "tags": {"highway": "bus_stop", "name": "Madanayakanahalli", "name:en": "Madanayakanahalli", "name:kn": "\u0cae\u0cbe\u0ca6\u0ca8\u0cbe\u0caf\u0c95\u0ca8\u0cb9\u0cb3\u0ccd\u0cb3\u0cbf", "network": "BMTC", "operator": "BMTC", "public_transport": "platform"}}, {"type": "node", "id": 2425685002, "lat": 13.0655449, "lon": 77.4533438, "tags": {"highway": "bus_stop", "name": "Makali", "name:en": "Makali", "name:kn": "\u0cae\u0cbe\u0c95\u0cb3\u0cbf", "network": "BMTC", "operator": "BMTC", "public_transport": "platform"}}, {"type": "node", "id": 2425688683, "lat": 13.0703692, "lon": 77.4445812, "tags": {"highway": "bus_stop", "name": "Adakimaranahalli", "name:en": "Adakimaranahalli", "name:kn": "\u0c85\u0ca1\u0c95\u0cbf\u0cae\u0cbe\u0cb0\u0ca8\u0cb9\u0cb3\u0ccd\u0cb3\u0cbf", "network": "BMTC", "operator": "BMTC", "public_transport": "platform", "shelter": "yes"}}, {"type": "node", "id": 2425719964, "lat": 13.0590498, "lon": 77.4659882, "tags": {"highway": "bus_stop", "loc_name": "Tumkur Road", "name": "TCI"}}, {"type": "node", "id": 2425719971, "lat": 13.0708771, "lon": 77.444609, "tags": {"bus": "yes", "highway": "bus_stop", "name": "Adakimaranahalli", "name:en": "Adakimaranahalli", "name:kn": "\u0c85\u0ca1\u0c95\u0cbf\u0cae\u0cbe\u0cb0\u0ca8\u0cb9\u0cb3\u0ccd\u0cb3\u0cbf", "network": "BMTC", "operator": "BMTC", "public_transport": "platform", "shelter": "yes"}}, {"type": "node", "id": 2425720000, "lat": 13.0612674, "lon": 77.4612791, "tags": {"highway": "bus_stop", "name": "Madanayakanahalli", "name:kn": "\u0cae\u0cbe\u0ca6\u0ca8\u0cbe\u0caf\u0c95\u0ca8\u0cb9\u0cb3\u0ccd\u0cb3\u0cbf"}}, {"type": "node", "id": 2425722886, "lat": 13.0659494, "lon": 77.4533884, "tags": {"bus": "yes", "highway": "bus_stop", "name": "Makali", "name:kn": "\u0cae\u0cbe\u0c95\u0cb3\u0cbf", "public_transport": "platform"}}, {"type": "node", "id": 2431206510, "lat": 13.0572169, "lon": 77.4731579, "tags": {"highway": "bus_stop", "loc_name": "Tumkur Road", "name": "Madavara", "name:en": "Madavara", "name:kn": "\u0cae\u0cbe\u0ca6\u0cb5\u0cbe\u0cb0", "network": "BMTC", "operator": "BMTC", "public_transport": "platform"}}, {"type": "node", "id": 2431230945, "lat": 13.0564209, "lon": 77.5072784, "tags": {"highway": "bus_stop", "name": "Bagalagunte", "name:en": "Bagalagunte", "name:kn": "\u0cac\u0cbe\u0c97\u0cb2\u0c97\u0cc1\u0c82\u0c9f\u0cc6", "network": "BMTC", "operator": "BMTC", "public_transport": "platform"}}, {"type": "node", "id": 2431232325, "lat": 13.0640151, "lon": 77.5048674, "tags": {"highway": "bus_stop", "name": "Bone Mill", "name:en": "Bone Mill", "network": "BMTC", "operator": "BMTC", "public_transport": "platform"}}, {"type": "node", "id": 2431234341, "lat": 13.0669701, "lon": 77.5032715, "tags": {"highway": "bus_stop", "loc_name": "Chikka Banawara", "name": "Sapthagiri College", "name:en": "Sapthagiri College", "name:kn": "\u0cb8\u0caa\u0ccd\u0ca4\u0c97\u0cbf\u0cb0\u0cbf \u0c95\u0cbe\u0cb2\u0cc7\u0c9c\u0cc1", "network": "BMTC", "operator": "BMTC", "public_transport": "platform"}}, {"type": "node", "id": 2431237657, "lat": 13.0734812, "lon": 77.5030691, "tags": {"highway": "bus_stop", "name": "Janapriya Apartments", "name:en": "Janapriya Apartments", "name:kn": "\u0c9c\u0ca8\u0caa\u0ccd\u0cb0\u0caf", "network": "BMTC", "operator": "BMTC", "public_transport": "platform"}}, {"type": "node", "id": 2431238702, "lat": 13.0825565, "lon": 77.500118, "tags": {"highway": "bus_stop", "loc_name": "CHIKKA BANAVARA", "name": "Chikkabanawara", "name:kn": "\u0c9a\u0cbf\u0c95\u0ccd\u0c95\u0cac\u0cbe\u0ca3\u0cbe\u0cb5\u0cb0"}}, {"type": "node", "id": 2431244398, "lat": 13.1012792, "lon": 77.4806781, "tags": {"highway": "bus_stop", "loc_name": "TARABANAHALLI", "name": "Tharabana Halli Hesaraghatta", "name:kn": "\u0ca4\u0cb0\u0cac\u0ca8\u0cb9\u0cb3\u0ccd\u0cb3\u0cbf"}}, {"type": "node", "id": 2431246221, "lat": 13.1160504, "lon": 77.4827892, "tags": {"highway": "bus_stop", "name": "Huruli Chikkanahalli", "name:kn": "\u0cb9\u0cc1\u0cb0\u0cc1\u0cb3\u0cbf \u0c9a\u0cbf\u0c95\u0ccd\u0c95\u0ca8\u0cb9\u0cb3\u0ccd\u0cb3\u0cbf"}}, {"type": "node", "id": 2431247267, "lat": 13.1252792, "lon": 77.4835931, "tags": {"highway": "bus_stop", "loc_name": "THIRUMALAPURA", "name": "Thirumalapura Gate"}}, {"type": "node", "id": 2431247783, "lat": 13.1303632, "lon": 77.4843686, "tags": {"highway": "bus_stop", "loc_name": "T.B.CROSS", "name": "Hesaraghatta TB Cross"}}, {"type": "node", "id": 2432467854, "lat": 13.0642011, "lon": 77.4886424, "tags": {"highway": "bus_stop", "name": "Sheshadri Nagara", "name:kn": "\u0cb6\u0cc7\u0cb6\u0cbe\u0ca6\u0ccd\u0cb0\u0cbf \u0ca8\u0c97\u0cb0"}}, {"type": "node", "id": 2432479041, "lat": 13.1352937, "lon": 77.4909127, "tags": {"highway": "bus_stop", "loc_name": "I.I.H.R.HESARAGHATTA", "name": "T B Hesaraghatta"}}, {"type": "node", "id": 2432490961, "lat": 13.0673669, "lon": 77.5001184, "tags": {"highway": "bus_stop", "loc_name": "KIRLOSKAR LAYOUT", "name": "Kirloskar Badavane", "name:kn": "\u0c95\u0cbf\u0cb0\u0ccd\u0cb2\u0ccb\u0cb8\u0ccd\u0c95\u0cb0 \u0cac\u0ca1\u0cbe\u0cb5\u0ca3\u0cc6"}}, {"type": "node", "id": 2432498632, "lat": 13.0919732, "lon": 77.445307, "tags": {"bus": "yes", "highway": "bus_stop", "loc_name": "NAGARARU", "name": "Nagaroor Cross", "public_transport": "platform"}}, {"type": "node", "id": 2432499086, "lat": 13.0993798, "lon": 77.4448549, "tags": {"bus": "yes", "highway": "bus_stop", "loc_name": "VADERAHALLI CROSS", "name": "Vaderahalli", "name:kn": "\u0cb5\u0ca1\u0cc7\u0cb0\u0cb9\u0cb3\u0ccd\u0cb3\u0cbf", "public_transport": "platform"}}, {"type": "node", "id": 2432505983, "lat": 13.1413529, "lon": 77.4622125, "tags": {"bus": "yes", "highway": "bus_stop", "loc_name": "KALGURADAHALLI", "name": "Guddadahalli Hesaraghatta Road", "public_transport": "platform"}}, {"type": "node", "id": 2432506971, "lat": 13.1381746, "lon": 77.4534902, "tags": {"bus": "yes", "highway": "bus_stop", "loc_name": "Thotagere Temple", "name": "Basavanna Temple", "name:kn": "\u0cac\u0cb8\u0cb5\u0ca3\u0ccd\u0ca3 \u0ca6\u0cc7\u0cb5\u0cb8\u0ccd\u0ca5\u0cbe\u0ca8", "public_transport": "platform"}}, {"type": "node", "id": 2435397326, "lat": 13.0572477, "lon": 77.5098468, "tags": {"bus": "yes", "highway": "bus_stop", "loc_name": "Bagalagunte", "name": "Mallasandra", "name:kn": "\u0cae\u0cb2\u0ccd\u0cb2\u0cb8\u0c82\u0ca6\u0ccd\u0cb0", "public_transport": "platform"}}, {"type": "node", "id": 2435401490, "lat": 13.0891518, "lon": 77.5103914, "tags": {"bus": "yes", "highway": "bus_stop", "loc_name": "GANIGARAHALLI", "name": "Ghanigara Halli", "name:kn": "\u0c97\u0cbe\u0ca3\u0cbf\u0c97\u0cb0 \u0cb9\u0cb3\u0ccd\u0cb3\u0cbf", "public_transport": "platform"}}, {"type": "node", "id": 2435407049, "lat": 13.0720035, "lon": 77.4995979, "tags": {"highway": "bus_stop", "name": "Chimney Hills", "name:kn": "\u0c9a\u0cbf\u0cae\u0ccd\u0ca8\u0cbf \u0cb9\u0cbf\u0cb2\u0ccd\u0cb8\u0ccd"}}, {"type": "node", "id": 2435418425, "lat": 13.0757683, "lon": 77.4726196, "tags": {"highway": "bus_stop", "loc_name": "KUDREGERE", "name": "Kudhurgere Madhanayakanahalli"}}, {"type": "node", "id": 2435445597, "lat": 13.06697, "lon": 77.497335, "tags": {"highway": "bus_stop", "name": "Soundarya Layout"}}, {"type": "node", "id": 2435445618, "lat": 13.0654638, "lon": 77.4948226, "tags": {"highway": "bus_stop", "loc_name": "Soundarya Layout", "name": "Bireshwara Circle", "name:kn": "\u0cac\u0cc0\u0cb0\u0cc7\u0cb6\u0ccd\u0cb5\u0cb0 \u0cb5\u0cc3\u0ca4\u0ccd\u0ca4"}}, {"type": "node", "id": 2435448577, "lat": 13.0791187, "lon": 77.4969976, "tags": {"highway": "bus_stop", "loc_name": "CHIKKA BANAVARA", "name": "Ganapathi Nagara", "name:kn": "\u0c97\u0ca3\u0caa\u0ca4\u0cbf \u0ca8\u0c97\u0cb0"}}, {"type": "node", "id": 2437414063, "lat": 13.1430123, "lon": 77.5023435, "tags": {"highway": "bus_stop", "loc_name": "Hesaraghatta", "name": "Muthkur Cross"}}, {"type": "node", "id": 2440576401, "lat": 13.1147717, "lon": 77.4745876, "tags": {"highway": "bus_stop", "name": "Thore Nagasandra", "name:kn": "\u0ca4\u0ccb\u0cb0\u0cc6\u0ca8\u0cbe\u0c97\u0cb8\u0c82\u0ca6\u0ccd\u0cb0"}}, {"type": "node", "id": 2440577260, "lat": 13.1258356, "lon": 77.4757041, "tags": {"highway": "bus_stop", "loc_name": "BILEJAJI", "name": "Bili Jaji"}}, {"type": "node", "id": 2441196197, "lat": 13.129919, "lon": 77.46234, "tags": {"highway": "bus_stop", "name": "Hosahalli Palya", "name:kn": "\u0cb9\u0cca\u0cb8\u0cb9\u0cb3\u0ccd\u0cb3\u0cbf \u0caa\u0cbe\u0cb3\u0ccd\u0caf"}}, {"type": "node", "id": 2441207671, "lat": 13.1259799, "lon": 77.4973356, "tags": {"highway": "bus_stop", "loc_name": "TAMMARASANAHALLI", "name": "Thammarasanahalli", "name:kn": "\u0ca4\u0cae\u0ccd\u0cae\u0cb0\u0cb8\u0ca8\u0cb9\u0cb3\u0ccd\u0cb3\u0cbf"}}, {"type": "node", "id": 2441209134, "lat": 13.1093076, "lon": 77.4919747, "tags": {"bus": "yes", "highway": "bus_stop", "loc_name": "SHABARI NAGARA", "name": "Shabari Nagara", "name:kn": "\u0cb6\u0cac\u0cb0\u0cbf\u0ca8\u0c97\u0cb0", "public_transport": "platform"}}, {"type": "node", "id": 2441209233, "lat": 13.1142743, "lon": 77.5011419, "tags": {"highway": "bus_stop", "loc_name": "SILAVE MAIN ROAD", "name": "Shiluvepura", "name:kn": "\u0cb8\u0cbf\u0cb2\u0cc1\u0cb5\u0cc6\u0caa\u0cc1\u0cb0"}}, {"type": "node", "id": 2441209742, "lat": 13.1147116, "lon": 77.5149723, "tags": {"highway": "bus_stop", "name": "Raghavendra Dhama", "name:kn": "\u0cb0\u0cbe\u0c98\u0cb5\u0cc7\u0c82\u0ca6\u0ccd\u0cb0 \u0ca7\u0cbe\u0cae"}}, {"type": "node", "id": 2441209743, "lat": 13.1127922, "lon": 77.5251056, "tags": {"highway": "bus_stop", "loc_name": "DODDABYALA KERE", "name": "Dodda Byalakere", "name:en": "Dodda Byalakere", "name:kn": "\u0ca6\u0cca\u0ca1\u0ccd\u0ca1\u0cac\u0ccd\u0caf\u0cbe\u0cb2\u0ca6\u0c95\u0cc6\u0cb0\u0cc6", "network": "BMTC", "operator": "BMTC", "public_transport": "platform"}}, {"type": "node", "id": 2441213814, "lat": 13.1026851, "lon": 77.4915779, "tags": {"highway": "bus_stop", "loc_name": "KUMBARA HALLI", "name": "Kumbarahalli", "name:kn": "\u0c95\u0cc1\u0c82\u0cac\u0cbe\u0cb0\u0cb9\u0cb3\u0ccd\u0cb3\u0cbf"}}, {"type": "node", "id": 2441221343, "lat": 13.0954722, "lon": 77.4996401, "tags": {"highway": "bus_stop", "loc_name": "KEMPAPURA", "name": "Kempapura", "name:kn": "\u0c95\u0cc6\u0c82\u0caa\u0caa\u0cc1\u0cb0"}}, {"type": "node", "id": 2441442463, "lat": 13.1081864, "lon": 77.4571906, "tags": {"bus": "yes", "highway": "bus_stop", "name": "Matthahalli", "name:kn": "\u0cae\u0ca4\u0ccd\u0ca4\u0cb9\u0cb3\u0ccd\u0cb3\u0cbf", "public_transport": "platform"}}, {"type": "node", "id": 2441442977, "lat": 13.1114723, "lon": 77.438243, "tags": {"bus": "yes", "highway": "bus_stop", "loc_name": "PILLAHALLI", "name": "Pillahalli Cross", "public_transport": "platform"}}, {"type": "node", "id": 2441447448, "lat": 13.0992483, "lon": 77.4521473, "tags": {"highway": "bus_stop", "loc_name": "VADERAHALLI", "name": "Vaderahalli", "name:kn": "\u0cb5\u0ca1\u0cc7\u0cb0\u0cb9\u0cb3\u0ccd\u0cb3\u0cbf"}}, {"type": "node", "id": 2441448856, "lat": 13.0911094, "lon": 77.434661, "tags": {"bus": "yes", "highway": "bus_stop", "loc_name": "NAGARARU", "name": "Nagaroor", "name:kn": "\u0ca8\u0c97\u0cb0\u0cc2\u0cb0\u0cc1", "public_transport": "platform"}}, {"type": "node", "id": 2441453626, "lat": 13.110033, "lon": 77.4635531, "tags": {"bus": "yes", "highway": "bus_stop", "name": "Narasipura", "name:kn": "\u0ca8\u0cb0\u0cb8\u0cc0\u0caa\u0cc1\u0cb0", "public_transport": "platform"}}, {"type": "node", "id": 2441488712, "lat": 13.1179174, "lon": 77.4606517, "tags": {"highway": "bus_stop", "loc_name": "GOVINDAPURA", "name": "Govinda Pura", "name:kn": "\u0c97\u0ccb\u0cb5\u0cbf\u0c82\u0ca6\u0caa\u0cc1\u0cb0"}}, {"type": "node", "id": 2441492653, "lat": 13.1169765, "lon": 77.447162, "tags": {"highway": "bus_stop", "loc_name": "HONGASANDRA", "name": "Honnasandra", "name:kn": "\u0cb9\u0cca\u0ca8\u0ccd\u0ca8\u0cb8\u0c82\u0ca6\u0ccd\u0cb0"}}, {"type": "node", "id": 2441509228, "lat": 13.0854158, "lon": 77.4656131, "tags": {"bus": "yes", "highway": "bus_stop", "loc_name": "ALURU", "name": "Aluru", "name:kn": "\u0c86\u0cb2\u0cc2\u0cb0\u0cc1", "public_transport": "platform"}}, {"type": "node", "id": 2441513693, "lat": 13.0972385, "lon": 77.4706801, "tags": {"bus": "yes", "highway": "bus_stop", "loc_name": "ALURU PALYA", "name": "Aluru Palya", "name:kn": "\u0c85\u0cb2\u0cc2\u0cb0\u0cc1 \u0caa\u0cbe\u0cb3\u0ccd\u0caf", "public_transport": "platform"}}, {"type": "node", "id": 2442559673, "lat": 13.0764541, "lon": 77.4585122, "tags": {"bus": "yes", "highway": "bus_stop", "loc_name": "HEGGADA DEVANAPURA", "name": "Hegde Devanapura", "name:kn": "\u0cb9\u0cc6\u0c97\u0ccd\u0c97\u0ca1\u0ca6\u0cc7\u0cb5\u0ca8\u0caa\u0cc1\u0cb0", "public_transport": "platform"}}, {"type": "node", "id": 2442563221, "lat": 13.0594664, "lon": 77.4487864, "tags": {"bus": "yes", "highway": "bus_stop", "name": "Shivajyothi Nagara", "name:kn": "\u0cb6\u0cbf\u0cb5\u0c9c\u0ccd\u0caf\u0ccb\u0ca4\u0cbf \u0ca8\u0c97\u0cb0", "public_transport": "platform"}}, {"type": "node", "id": 2442796691, "lat": 13.0648967, "lon": 77.4434208, "tags": {"bus": "yes", "highway": "bus_stop", "name": "Adakimaranahalli", "name:en": "Adakimaranahalli", "name:kn": "\u0c85\u0ca1\u0c95\u0cbf\u0cae\u0cbe\u0cb0\u0ca8\u0cb9\u0cb3\u0ccd\u0cb3\u0cbf", "network": "BMTC", "operator": "BMTC", "public_transport": "platform"}}, {"type": "node", "id": 2443897344, "lat": 13.1045677, "lon": 77.4344668, "tags": {"bus": "yes", "highway": "bus_stop", "loc_name": "PILLAHALLI", "name": "Pillahalli colony", "public_transport": "platform"}}, {"type": "node", "id": 2447244179, "lat": 13.1196231, "lon": 77.5215523, "tags": {"highway": "bus_stop", "loc_name": "CHIKKA BYLAKERE", "name": "Chikka Byalakere", "name:kn": "\u0c9a\u0cbf\u0c95\u0ccd\u0c95 \u0cac\u0ccd\u0caf\u0cbe\u0cb2\u0c95\u0cc6\u0cb0\u0cc6"}}, {"type": "node", "id": 2447249193, "lat": 13.1265226, "lon": 77.5196707, "tags": {"highway": "bus_stop", "loc_name": "KURUBARAHALLI CROSS", "name": "Kurubarahalli Cross"}}, {"type": "node", "id": 2447338470, "lat": 13.0724477, "lon": 77.5235219, "tags": {"highway": "bus_stop", "name": "Abbigere Gate", "name:en": "Abbigere Gate", "name:kn": "\u0c85\u0cac\u0ccd\u0cac\u0cbf\u0c97\u0cc6\u0cb0\u0cc6", "network": "BMTC", "operator": "BMTC", "public_transport": "platform"}}, {"type": "node", "id": 2447345284, "lat": 13.0759197, "lon": 77.5171325, "tags": {"highway": "bus_stop", "loc_name": "KEREGUDDADA HALLI", "name": "RMG"}}, {"type": "node", "id": 2447347638, "lat": 13.0794507, "lon": 77.5155027, "tags": {"highway": "bus_stop", "loc_name": "KEREGUDDADAHALLI", "name": "Kere Guddadahalli", "name:kn": "\u0c95\u0cc6\u0cb0\u0cc6\u0c97\u0cc1\u0ca1\u0ccd\u0ca1\u0ca6\u0cb9\u0cb3\u0ccd\u0cb3\u0cbf"}}, {"type": "node", "id": 2447349005, "lat": 13.0798991, "lon": 77.5124437, "tags": {"highway": "bus_stop", "loc_name": "KEREGUDDADAHALLI", "name": "Gangadhara Kalyana Mantapa", "name:kn": "\u0c97\u0c82\u0c97\u0cbe\u0ca7\u0cbe\u0cb0 \u0c95\u0cb2\u0ccd\u0caf\u0cbe\u0ca3 \u0cae\u0c82\u0c9f\u0caa"}}, {"type": "node", "id": 2447350754, "lat": 13.0793144, "lon": 77.5059746, "tags": {"highway": "bus_stop", "name": "Dasappana Palya", "name:kn": "\u0ca6\u0cbe\u0cb8\u0caa\u0ccd\u0caa\u0ca8 \u0caa\u0cbe\u0cb3\u0ccd\u0caf"}}, {"type": "node", "id": 2448248903, "lat": 13.0928999, "lon": 77.523654, "tags": {"highway": "bus_stop", "name": "Somashettihalli Gate"}}, {"type": "node", "id": 3228461839, "lat": 13.0497448, "lon": 77.495422}, {"type": "node", "id": 3543273314, "lat": 13.1374825, "lon": 77.4791989}, {"type": "node", "id": 3543273315, "lat": 13.1374898, "lon": 77.4793084}, {"type": "node", "id": 3543273322, "lat": 13.137689, "lon": 77.4791844}, {"type": "node", "id": 3543273323, "lat": 13.1377011, "lon": 77.4796522}, {"type": "node", "id": 3639546839, "lat": 13.0566825, "lon": 77.473046, "tags": {"highway": "bus_stop", "loc_name": "TUMKUR ROAD", "name": "Madavara", "name:en": "Madavara", "name:kn": "\u0cae\u0cbe\u0ca6\u0cb5\u0cbe\u0cb0", "network": "BMTC", "operator": "BMTC", "public_transport": "platform"}}, {"type": "node", "id": 3764952341, "lat": 13.0448888, "lon": 77.5391448, "tags": {"railway": "switch"}}, {"type": "node", "id": 3868501020, "lat": 13.0734442, "lon": 77.5072739, "tags": {"railway": "switch"}}, {"type": "node", "id": 3868567932, "lat": 13.0767333, "lon": 77.5039088}, {"type": "node", "id": 3868567933, "lat": 13.076796, "lon": 77.5039839}, {"type": "node", "id": 3868567934, "lat": 13.0739143, "lon": 77.5067304}, {"type": "node", "id": 3868567935, "lat": 13.0738516, "lon": 77.5066634}, {"type": "node", "id": 3868567936, "lat": 13.0776207, "lon": 77.5033221}, {"type": "node", "id": 3868567937, "lat": 13.0776621, "lon": 77.5033696}, {"type": "node", "id": 3868567938, "lat": 13.0747424, "lon": 77.5061413}, {"type": "node", "id": 3868567939, "lat": 13.0747043, "lon": 77.5060908}, {"type": "node", "id": 3868567940, "lat": 13.0773256, "lon": 77.5032206}, {"type": "node", "id": 3868567941, "lat": 13.0773526, "lon": 77.5032671}, {"type": "node", "id": 3868567942, "lat": 13.0770309, "lon": 77.503534}, {"type": "node", "id": 3868567943, "lat": 13.0764522, "lon": 77.5040787}, {"type": "node", "id": 3868567944, "lat": 13.0758956, "lon": 77.5046145}, {"type": "node", "id": 3868567945, "lat": 13.0756116, "lon": 77.5048834}, {"type": "node", "id": 3868567946, "lat": 13.0751917, "lon": 77.5052758}, {"type": "node", "id": 3868567947, "lat": 13.0749134, "lon": 77.5055477}, {"type": "node", "id": 3868567948, "lat": 13.0744194, "lon": 77.5060113}, {"type": "node", "id": 3868567949, "lat": 13.0743723, "lon": 77.5059609}, {"type": "node", "id": 3868567950, "lat": 13.0755211, "lon": 77.5048547}, {"type": "node", "id": 3868567951, "lat": 13.077134, "lon": 77.5033689}, {"type": "node", "id": 3868567952, "lat": 13.0768615, "lon": 77.5036042}, {"type": "node", "id": 3868567953, "lat": 13.0766747, "lon": 77.5037742}, {"type": "node", "id": 3870399507, "lat": 13.072617, "lon": 77.5079904}, {"type": "node", "id": 3870399508, "lat": 13.0726582, "lon": 77.5080295}, {"type": "node", "id": 3870399509, "lat": 13.07039, "lon": 77.5101366}, {"type": "node", "id": 3870399510, "lat": 13.0701112, "lon": 77.5104243}, {"type": "node", "id": 3870399511, "lat": 13.06954, "lon": 77.5111826}, {"type": "node", "id": 3870399512, "lat": 13.0691453, "lon": 77.5118562}, {"type": "node", "id": 3870399513, "lat": 13.0690057, "lon": 77.5121182}, {"type": "node", "id": 3870399514, "lat": 13.0686403, "lon": 77.5129581}, {"type": "node", "id": 3870399515, "lat": 13.0673029, "lon": 77.5163975}, {"type": "node", "id": 3870399516, "lat": 13.0667323, "lon": 77.5179072}, {"type": "node", "id": 3870399517, "lat": 13.0653903, "lon": 77.5213214}, {"type": "node", "id": 3870399518, "lat": 13.0633974, "lon": 77.5264413}, {"type": "node", "id": 3870399519, "lat": 13.0631654, "lon": 77.5270124}, {"type": "node", "id": 3870399520, "lat": 13.062798, "lon": 77.5278533}, {"type": "node", "id": 3870399521, "lat": 13.0626297, "lon": 77.5281976}, {"type": "node", "id": 3870399522, "lat": 13.062161, "lon": 77.5289586}, {"type": "node", "id": 3870399523, "lat": 13.06233, "lon": 77.5287013}, {"type": "node", "id": 3870399524, "lat": 13.0620151, "lon": 77.529167}, {"type": "node", "id": 3870399525, "lat": 13.0615646, "lon": 77.5297125}, {"type": "node", "id": 3870399526, "lat": 13.0613774, "lon": 77.5299144}, {"type": "node", "id": 3870399527, "lat": 13.0607937, "lon": 77.5304778}, {"type": "node", "id": 3870399528, "lat": 13.0610475, "lon": 77.5302401}, {"type": "node", "id": 3870399529, "lat": 13.060597, "lon": 77.5306407}, {"type": "node", "id": 3870399530, "lat": 13.0599482, "lon": 77.5311145}, {"type": "node", "id": 3870399531, "lat": 13.0588537, "lon": 77.5317268}, {"type": "node", "id": 3870399532, "lat": 13.0592471, "lon": 77.5315297}, {"type": "node", "id": 3870399533, "lat": 13.0577719, "lon": 77.5321469}, {"type": "node", "id": 3870399534, "lat": 13.0574578, "lon": 77.5322332}, {"type": "node", "id": 3870399535, "lat": 13.0553753, "lon": 77.5327841}, {"type": "node", "id": 3870399536, "lat": 13.0548299, "lon": 77.532952}, {"type": "node", "id": 3870399537, "lat": 13.0550674, "lon": 77.5328746}, {"type": "node", "id": 3870399538, "lat": 13.0541165, "lon": 77.5332299}, {"type": "node", "id": 3870399539, "lat": 13.0530841, "lon": 77.5337855}, {"type": "node", "id": 3870399540, "lat": 13.0533684, "lon": 77.5336106}, {"type": "node", "id": 3870399541, "lat": 13.0536407, "lon": 77.5334595}, {"type": "node", "id": 3870399542, "lat": 13.0511174, "lon": 77.5350535}, {"type": "node", "id": 3870399543, "lat": 13.0517571, "lon": 77.5346451}, {"type": "node", "id": 3870399544, "lat": 13.0505081, "lon": 77.5354583}, {"type": "node", "id": 3870399545, "lat": 13.048914, "lon": 77.5364946}, {"type": "node", "id": 3870401198, "lat": 13.0462036, "lon": 77.5382666}, {"type": "node", "id": 3870401199, "lat": 13.0449441, "lon": 77.5391563}, {"type": "node", "id": 3870405064, "lat": 13.0451793, "lon": 77.5390012}, {"type": "node", "id": 3870405065, "lat": 13.0457147, "lon": 77.5386562}, {"type": "node", "id": 3870405066, "lat": 13.0458813, "lon": 77.5385514}, {"type": "node", "id": 3870405067, "lat": 13.0463128, "lon": 77.5382568}, {"type": "node", "id": 3870405068, "lat": 13.0465439, "lon": 77.5381115}, {"type": "node", "id": 3870405069, "lat": 13.0471304, "lon": 77.5377239}, {"type": "node", "id": 3870405070, "lat": 13.0473134, "lon": 77.5376093}, {"type": "node", "id": 3870405071, "lat": 13.0477978, "lon": 77.537287}, {"type": "node", "id": 3870405072, "lat": 13.0480386, "lon": 77.5371318}, {"type": "node", "id": 3870405073, "lat": 13.0485326, "lon": 77.5368085}, {"type": "node", "id": 3870405074, "lat": 13.0488427, "lon": 77.5365999}, {"type": "node", "id": 3870405075, "lat": 13.0492106, "lon": 77.5363577}, {"type": "node", "id": 3870405076, "lat": 13.0494658, "lon": 77.5361887}, {"type": "node", "id": 3870405077, "lat": 13.0499003, "lon": 77.5359203}, {"type": "node", "id": 3870405078, "lat": 13.0501288, "lon": 77.535768}, {"type": "node", "id": 3870405079, "lat": 13.0506599, "lon": 77.5354227}, {"type": "node", "id": 3870405080, "lat": 13.0510734, "lon": 77.5351549}, {"type": "node", "id": 3870405081, "lat": 13.0514286, "lon": 77.5349146}, {"type": "node", "id": 3870405082, "lat": 13.0521064, "lon": 77.5344749}, {"type": "node", "id": 3870405083, "lat": 13.0524157, "lon": 77.5342799}, {"type": "node", "id": 3870405084, "lat": 13.0526633, "lon": 77.5341149}, {"type": "node", "id": 3870405085, "lat": 13.0531068, "lon": 77.533828}, {"type": "node", "id": 3870405086, "lat": 13.0534553, "lon": 77.533621}, {"type": "node", "id": 3870405087, "lat": 13.0538804, "lon": 77.5333942}, {"type": "node", "id": 3870405088, "lat": 13.0541446, "lon": 77.5332646}, {"type": "node", "id": 3870405089, "lat": 13.0543964, "lon": 77.5331663}, {"type": "node", "id": 3870405090, "lat": 13.054815, "lon": 77.5330078}, {"type": "node", "id": 3870405091, "lat": 13.0552367, "lon": 77.5328699}, {"type": "node", "id": 3870405092, "lat": 13.0554715, "lon": 77.5328096}, {"type": "node", "id": 3870405093, "lat": 13.0561932, "lon": 77.5326117}, {"type": "node", "id": 3870405094, "lat": 13.0565105, "lon": 77.5325336}, {"type": "node", "id": 3870405095, "lat": 13.0572307, "lon": 77.5323603}, {"type": "node", "id": 3870405096, "lat": 13.0574299, "lon": 77.5323103}, {"type": "node", "id": 3870405097, "lat": 13.0578122, "lon": 77.5322023}, {"type": "node", "id": 3870405098, "lat": 13.0582033, "lon": 77.53207}, {"type": "node", "id": 3870405099, "lat": 13.058479, "lon": 77.5319522}, {"type": "node", "id": 3870405100, "lat": 13.0589486, "lon": 77.5317422}, {"type": "node", "id": 3870405101, "lat": 13.0592753, "lon": 77.5315745}, {"type": "node", "id": 3870405102, "lat": 13.0595164, "lon": 77.5314409}, {"type": "node", "id": 3870405103, "lat": 13.0597179, "lon": 77.5313155}, {"type": "node", "id": 3870405104, "lat": 13.0599289, "lon": 77.5311836}, {"type": "node", "id": 3870405105, "lat": 13.0601414, "lon": 77.5310338}, {"type": "node", "id": 3870405106, "lat": 13.0604222, "lon": 77.5308303}, {"type": "node", "id": 3870405107, "lat": 13.0607648, "lon": 77.5305535}, {"type": "node", "id": 3870405108, "lat": 13.0610694, "lon": 77.5302815}, {"type": "node", "id": 3870405109, "lat": 13.061339, "lon": 77.5300161}, {"type": "node", "id": 3870405110, "lat": 13.0615897, "lon": 77.5297507}, {"type": "node", "id": 3870405111, "lat": 13.0618831, "lon": 77.5293941}, {"type": "node", "id": 3870405112, "lat": 13.0621639, "lon": 77.5290261}, {"type": "node", "id": 3870405113, "lat": 13.062305, "lon": 77.528816}, {"type": "node", "id": 3870405114, "lat": 13.0624859, "lon": 77.5285262}, {"type": "node", "id": 3870405115, "lat": 13.0626397, "lon": 77.5282689}, {"type": "node", "id": 3870405116, "lat": 13.0628111, "lon": 77.5279432}, {"type": "node", "id": 3870405117, "lat": 13.0629443, "lon": 77.5276501}, {"type": "node", "id": 3870405118, "lat": 13.0630601, "lon": 77.527401}, {"type": "node", "id": 3870405119, "lat": 13.0631987, "lon": 77.5270461}, {"type": "node", "id": 3870405120, "lat": 13.0634503, "lon": 77.5264174}, {"type": "node", "id": 3870405121, "lat": 13.0637358, "lon": 77.5256912}, {"type": "node", "id": 3870405122, "lat": 13.0639928, "lon": 77.5250317}, {"type": "node", "id": 3870405123, "lat": 13.0642513, "lon": 77.5243641}, {"type": "node", "id": 3870405124, "lat": 13.064724, "lon": 77.5231493}, {"type": "node", "id": 3870405125, "lat": 13.0650841, "lon": 77.5222423}, {"type": "node", "id": 3870405126, "lat": 13.0654204, "lon": 77.5213646}, {"type": "node", "id": 3870405127, "lat": 13.0658312, "lon": 77.5203046}, {"type": "node", "id": 3870405128, "lat": 13.0662325, "lon": 77.5193015}, {"type": "node", "id": 3870405129, "lat": 13.0666053, "lon": 77.5183277}, {"type": "node", "id": 3870405130, "lat": 13.0667655, "lon": 77.517932}, {"type": "node", "id": 3870405131, "lat": 13.0670922, "lon": 77.5171016}, {"type": "node", "id": 3870405132, "lat": 13.0673302, "lon": 77.5164714}, {"type": "node", "id": 3870405133, "lat": 13.0676263, "lon": 77.5156858}, {"type": "node", "id": 3870405134, "lat": 13.0679586, "lon": 77.5148327}, {"type": "node", "id": 3870405135, "lat": 13.0682794, "lon": 77.5139977}, {"type": "node", "id": 3870405136, "lat": 13.0684581, "lon": 77.5135521}, {"type": "node", "id": 3870405137, "lat": 13.0685886, "lon": 77.513215}, {"type": "node", "id": 3870405138, "lat": 13.0687214, "lon": 77.5128687}, {"type": "node", "id": 3870405139, "lat": 13.0688613, "lon": 77.5125407}, {"type": "node", "id": 3870405140, "lat": 13.0689931, "lon": 77.5122402}, {"type": "node", "id": 3870405141, "lat": 13.0690921, "lon": 77.5120501}, {"type": "node", "id": 3870405142, "lat": 13.0692187, "lon": 77.5118024}, {"type": "node", "id": 3870405143, "lat": 13.0693624, "lon": 77.5115589}, {"type": "node", "id": 3870405144, "lat": 13.0695152, "lon": 77.5113097}, {"type": "node", "id": 3870405145, "lat": 13.0696803, "lon": 77.5110788}, {"type": "node", "id": 3870405146, "lat": 13.069849, "lon": 77.5108535}, {"type": "node", "id": 3870405147, "lat": 13.0699937, "lon": 77.5106589}, {"type": "node", "id": 3870405148, "lat": 13.0701627, "lon": 77.5104617}, {"type": "node", "id": 3870405149, "lat": 13.0704026, "lon": 77.5101973}, {"type": "node", "id": 3870405150, "lat": 13.0708689, "lon": 77.5097218}, {"type": "node", "id": 3870405151, "lat": 13.0713243, "lon": 77.5092814}, {"type": "node", "id": 3870405152, "lat": 13.0716367, "lon": 77.5089874}, {"type": "node", "id": 3870405153, "lat": 13.0719491, "lon": 77.5086911}, {"type": "node", "id": 3870405154, "lat": 13.0725075, "lon": 77.5081651}, {"type": "node", "id": 3870405155, "lat": 13.0730943, "lon": 77.5075366}, {"type": "node", "id": 3870405156, "lat": 13.0733132, "lon": 77.5073298}, {"type": "node", "id": 3870405157, "lat": 13.073816, "lon": 77.5068478}, {"type": "node", "id": 3870405158, "lat": 13.0740207, "lon": 77.5066524}, {"type": "node", "id": 3870405159, "lat": 13.0742475, "lon": 77.5064309}, {"type": "node", "id": 3870405160, "lat": 13.0743784, "lon": 77.5063853}, {"type": "node", "id": 3870405168, "lat": 13.0745527, "lon": 77.50615}, {"type": "node", "id": 3870405169, "lat": 13.0747742, "lon": 77.5059316}, {"type": "node", "id": 4295928344, "lat": 13.1092147, "lon": 77.3881673}, {"type": "node", "id": 4295928352, "lat": 13.1106886, "lon": 77.389577}, {"type": "node", "id": 4295928374, "lat": 13.111942, "lon": 77.3914674}, {"type": "node", "id": 4663171887, "lat": 13.1143227, "lon": 77.3981788, "tags": {"railway": "switch"}}, {"type": "node", "id": 4793687727, "lat": 13.0647807, "lon": 77.5230064}, {"type": "node", "id": 5954688563, "lat": 13.0497029, "lon": 77.4954053}, {"type": "node", "id": 6021402053, "lat": 13.0441271, "lon": 77.5396937, "tags": {"railway": "switch"}}, {"type": "node", "id": 6087642388, "lat": 13.0697338, "lon": 77.5109137}, {"type": "node", "id": 6087642389, "lat": 13.0749263, "lon": 77.5058564}, {"type": "node", "id": 6087642390, "lat": 13.091493, "lon": 77.4900859}, {"type": "node", "id": 6087642391, "lat": 13.0989112, "lon": 77.4821934}, {"type": "node", "id": 6087642392, "lat": 13.1040084, "lon": 77.4769187}, {"type": "node", "id": 6087642393, "lat": 13.1031873, "lon": 77.4777491}, {"type": "node", "id": 6087642394, "lat": 13.1024416, "lon": 77.478499}, {"type": "node", "id": 6087642395, "lat": 13.0981081, "lon": 77.4832309}, {"type": "node", "id": 6087642396, "lat": 13.0964005, "lon": 77.4851369}, {"type": "node", "id": 6087642397, "lat": 13.0949103, "lon": 77.4867704}, {"type": "node", "id": 6087642398, "lat": 13.0946266, "lon": 77.4870754}, {"type": "node", "id": 6087642399, "lat": 13.0934045, "lon": 77.488252}, {"type": "node", "id": 6087642400, "lat": 13.0921402, "lon": 77.4894613}, {"type": "node", "id": 6087642401, "lat": 13.0710439, "lon": 77.5095456}, {"type": "node", "id": 6087642402, "lat": 13.0756954, "lon": 77.5051324}, {"type": "node", "id": 6087642403, "lat": 13.0763764, "lon": 77.5044963}, {"type": "node", "id": 6087642404, "lat": 13.0773189, "lon": 77.5035919}, {"type": "node", "id": 6087642405, "lat": 13.0780769, "lon": 77.5028589}, {"type": "node", "id": 6087642406, "lat": 13.0790875, "lon": 77.5018845}, {"type": "node", "id": 6087642407, "lat": 13.0799377, "lon": 77.5010726}, {"type": "node", "id": 6087642408, "lat": 13.0807747, "lon": 77.5002989}, {"type": "node", "id": 6087642409, "lat": 13.0816294, "lon": 77.4994881, "tags": {"railway": "switch"}}, {"type": "node", "id": 6087642410, "lat": 13.0826224, "lon": 77.4985329}, {"type": "node", "id": 6087642411, "lat": 13.0837428, "lon": 77.4974819}, {"type": "node", "id": 6087642412, "lat": 13.0754161, "lon": 77.5053209}, {"type": "node", "id": 6087642413, "lat": 13.0762518, "lon": 77.5045298}, {"type": "node", "id": 6087642414, "lat": 13.0769509, "lon": 77.5038743}, {"type": "node", "id": 6087642415, "lat": 13.077664, "lon": 77.5031901}, {"type": "node", "id": 6087642416, "lat": 13.0785029, "lon": 77.5023879}, {"type": "node", "id": 6087642417, "lat": 13.0794039, "lon": 77.5015171}, {"type": "node", "id": 6087642418, "lat": 13.0802862, "lon": 77.5006814}, {"type": "node", "id": 6087642419, "lat": 13.0810972, "lon": 77.4999255}, {"type": "node", "id": 6087642420, "lat": 13.0818071, "lon": 77.4992413}, {"type": "node", "id": 6087642421, "lat": 13.0825885, "lon": 77.4984965}, {"type": "node", "id": 6087642422, "lat": 13.0834631, "lon": 77.4976767}, {"type": "node", "id": 6087642423, "lat": 13.0847105, "lon": 77.4964822}, {"type": "node", "id": 6087642424, "lat": 13.0855509, "lon": 77.4956816}, {"type": "node", "id": 6087642425, "lat": 13.0863789, "lon": 77.4948746}, {"type": "node", "id": 6087642426, "lat": 13.0875113, "lon": 77.4938108}, {"type": "node", "id": 6087642427, "lat": 13.0889948, "lon": 77.4923914}, {"type": "node", "id": 6087642428, "lat": 13.0893739, "lon": 77.4920326}, {"type": "node", "id": 6087642429, "lat": 13.0901801, "lon": 77.4912575}, {"type": "node", "id": 6087642430, "lat": 13.0908698, "lon": 77.4906036}, {"type": "node", "id": 6087642431, "lat": 13.0915486, "lon": 77.4899545}, {"type": "node", "id": 6087642432, "lat": 13.0924139, "lon": 77.4891283}, {"type": "node", "id": 6087642433, "lat": 13.0931362, "lon": 77.4884378}, {"type": "node", "id": 6087642434, "lat": 13.0938694, "lon": 77.4877376}, {"type": "node", "id": 6087642435, "lat": 13.0945917, "lon": 77.4870343}, {"type": "node", "id": 6087642436, "lat": 13.0951696, "lon": 77.4864171}, {"type": "node", "id": 6087642437, "lat": 13.0959432, "lon": 77.4855638}, {"type": "node", "id": 6087642438, "lat": 13.0967556, "lon": 77.4846564}, {"type": "node", "id": 6087642439, "lat": 13.0978849, "lon": 77.4834156}, {"type": "node", "id": 6087642440, "lat": 13.099081, "lon": 77.4820743}, {"type": "node", "id": 6087642441, "lat": 13.0997008, "lon": 77.4814061}, {"type": "node", "id": 6087642442, "lat": 13.1003842, "lon": 77.4806565}, {"type": "node", "id": 6087642443, "lat": 13.1011889, "lon": 77.4797729}, {"type": "node", "id": 6087642444, "lat": 13.1018925, "lon": 77.4790026}, {"type": "node", "id": 6087642445, "lat": 13.1030529, "lon": 77.4777842}, {"type": "node", "id": 6087642446, "lat": 13.1042474, "lon": 77.4766072}, {"type": "node", "id": 6087642447, "lat": 13.1048299, "lon": 77.4760123}, {"type": "node", "id": 6087642448, "lat": 13.1056065, "lon": 77.475234}, {"type": "node", "id": 6087642449, "lat": 13.099706, "lon": 77.4810785}, {"type": "node", "id": 6087642450, "lat": 13.0994941, "lon": 77.4814375}, {"type": "node", "id": 6087642451, "lat": 13.0992758, "lon": 77.4817403}, {"type": "node", "id": 6087642452, "lat": 13.0990517, "lon": 77.4820178}, {"type": "node", "id": 6087642453, "lat": 13.0987005, "lon": 77.4824308}, {"type": "node", "id": 6087642454, "lat": 13.0983504, "lon": 77.4828251}, {"type": "node", "id": 6087642455, "lat": 13.0974987, "lon": 77.4837692}, {"type": "node", "id": 6087642456, "lat": 13.0965112, "lon": 77.4848662}, {"type": "node", "id": 6087642457, "lat": 13.0944944, "lon": 77.487079}, {"type": "node", "id": 6087642458, "lat": 13.0931882, "lon": 77.4883236}, {"type": "node", "id": 6087642459, "lat": 13.0919932, "lon": 77.4894305}, {"type": "node", "id": 6087642460, "lat": 13.0914852, "lon": 77.4898867}, {"type": "node", "id": 6087642461, "lat": 13.0901508, "lon": 77.4911562}, {"type": "node", "id": 6087642462, "lat": 13.0896957, "lon": 77.491582}, {"type": "node", "id": 6087642463, "lat": 13.0894704, "lon": 77.4918148}, {"type": "node", "id": 6087642464, "lat": 13.089051, "lon": 77.4922614}, {"type": "node", "id": 6087642465, "lat": 13.0887838, "lon": 77.4925357}, {"type": "node", "id": 6087642466, "lat": 13.0883877, "lon": 77.4929105}, {"type": "node", "id": 6087642467, "lat": 13.087569, "lon": 77.4936952}, {"type": "node", "id": 6087642468, "lat": 13.0869228, "lon": 77.4942964}, {"type": "node", "id": 6087642469, "lat": 13.0862284, "lon": 77.4949583}, {"type": "node", "id": 6087642470, "lat": 13.0855232, "lon": 77.4956361}, {"type": "node", "id": 6087642471, "lat": 13.0847729, "lon": 77.4963522}, {"type": "node", "id": 6087642472, "lat": 13.0840971, "lon": 77.4970029}, {"type": "node", "id": 6087642473, "lat": 13.0833452, "lon": 77.4977206}, {"type": "node", "id": 6087642474, "lat": 13.0826415, "lon": 77.4983761}, {"type": "node", "id": 6087642475, "lat": 13.0820497, "lon": 77.4989422}, {"type": "node", "id": 6087642476, "lat": 13.0813848, "lon": 77.4995834}, {"type": "node", "id": 6087642477, "lat": 13.0811953, "lon": 77.4997716, "tags": {"railway": "switch"}}, {"type": "node", "id": 6087642478, "lat": 13.0804418, "lon": 77.5004749}, {"type": "node", "id": 6087642479, "lat": 13.0802352, "lon": 77.5006711}, {"type": "node", "id": 6087642480, "lat": 13.0794538, "lon": 77.5014047, "tags": {"railway": "switch"}}, {"type": "node", "id": 6087642481, "lat": 13.0793497, "lon": 77.5015036, "tags": {"railway": "switch"}}, {"type": "node", "id": 6087642482, "lat": 13.078632, "lon": 77.5021909}, {"type": "node", "id": 6087642483, "lat": 13.0778273, "lon": 77.5029676}, {"type": "node", "id": 6087642484, "lat": 13.0772564, "lon": 77.5033655}, {"type": "node", "id": 6087642585, "lat": 13.0739827, "lon": 77.5064487}, {"type": "node", "id": 6087642586, "lat": 13.0737897, "lon": 77.5066314, "tags": {"railway": "switch"}}, {"type": "node", "id": 6087642587, "lat": 13.0732186, "lon": 77.5072747, "tags": {"railway": "switch"}}, {"type": "node", "id": 6087642588, "lat": 13.0731611, "lon": 77.5073391, "tags": {"railway": "switch"}}, {"type": "node", "id": 6087642589, "lat": 13.0724799, "lon": 77.5081216, "tags": {"railway": "switch"}}, {"type": "node", "id": 6087642590, "lat": 13.0723793, "lon": 77.5082178, "tags": {"railway": "switch"}}, {"type": "node", "id": 6087642591, "lat": 13.0717721, "lon": 77.508859, "tags": {"railway": "switch"}}, {"type": "node", "id": 6087642592, "lat": 13.0728391, "lon": 77.5077793, "tags": {"railway": "switch"}}, {"type": "node", "id": 6087642593, "lat": 13.0735781, "lon": 77.5071466, "tags": {"railway": "switch"}}, {"type": "node", "id": 6087642594, "lat": 13.0742162, "lon": 77.5066108, "tags": {"railway": "switch"}}, {"type": "node", "id": 6087642595, "lat": 13.0783873, "lon": 77.5023573}, {"type": "node", "id": 6087642596, "lat": 13.078698, "lon": 77.5020654, "tags": {"railway": "switch"}}, {"type": "node", "id": 6087642597, "lat": 13.0794266, "lon": 77.5013781, "tags": {"railway": "buffer_stop"}}, {"type": "node", "id": 6087642598, "lat": 13.0801091, "lon": 77.5008492, "tags": {"railway": "switch"}}, {"type": "node", "id": 6087642599, "lat": 13.0805915, "lon": 77.5003968, "tags": {"railway": "switch"}}, {"type": "node", "id": 6087642600, "lat": 13.0804864, "lon": 77.5004949, "tags": {"railway": "switch"}}, {"type": "node", "id": 6087642601, "lat": 13.0798858, "lon": 77.5011222, "tags": {"railway": "switch"}}, {"type": "node", "id": 6087642602, "lat": 13.0798198, "lon": 77.5011852, "tags": {"railway": "switch"}}, {"type": "node", "id": 6087642603, "lat": 13.0792324, "lon": 77.5018182, "tags": {"railway": "switch"}}, {"type": "node", "id": 6087642604, "lat": 13.080962, "lon": 77.5000515, "tags": {"railway": "switch"}}, {"type": "node", "id": 6087642605, "lat": 13.0798408, "lon": 77.5012502, "tags": {"railway": "buffer_stop"}}, {"type": "node", "id": 6087642606, "lat": 13.0789851, "lon": 77.5020522}, {"type": "node", "id": 6087642607, "lat": 13.0786603, "lon": 77.5023874}, {"type": "node", "id": 6087642608, "lat": 13.0778277, "lon": 77.5032106, "tags": {"railway": "switch"}}, {"type": "node", "id": 6087642609, "lat": 13.0772125, "lon": 77.5038173}, {"type": "node", "id": 6087642610, "lat": 13.0763272, "lon": 77.5046519}, {"type": "node", "id": 6087642611, "lat": 13.0752594, "lon": 77.5056713}, {"type": "node", "id": 6087642612, "lat": 13.0744609, "lon": 77.5063914}, {"type": "node", "id": 6087642613, "lat": 13.0738504, "lon": 77.5069707, "tags": {"railway": "buffer_stop"}}, {"type": "node", "id": 6087642614, "lat": 13.0762459, "lon": 77.5048496, "tags": {"railway": "switch"}}, {"type": "node", "id": 6087642615, "lat": 13.075729, "lon": 77.505223, "tags": {"railway": "switch"}}, {"type": "node", "id": 6087642616, "lat": 13.0774763, "lon": 77.5036343}, {"type": "node", "id": 6087642617, "lat": 13.0772914, "lon": 77.50384}, {"type": "node", "id": 6087642618, "lat": 13.0771656, "lon": 77.5039548}, {"type": "node", "id": 6087642619, "lat": 13.0766716, "lon": 77.5044317}, {"type": "node", "id": 6087642620, "lat": 13.0759492, "lon": 77.5051127, "tags": {"railway": "switch"}}, {"type": "node", "id": 6087642621, "lat": 13.073737, "lon": 77.5072036, "tags": {"railway": "buffer_stop"}}, {"type": "node", "id": 6087642622, "lat": 13.075755, "lon": 77.5053344}, {"type": "node", "id": 6087642623, "lat": 13.0756525, "lon": 77.5054604}, {"type": "node", "id": 6087642624, "lat": 13.0750622, "lon": 77.5060106}, {"type": "node", "id": 6087642625, "lat": 13.0745293, "lon": 77.5065257}, {"type": "node", "id": 6087642626, "lat": 13.0741611, "lon": 77.5068639}, {"type": "node", "id": 6087642627, "lat": 13.0737696, "lon": 77.5072466, "tags": {"railway": "buffer_stop"}}, {"type": "node", "id": 6087642628, "lat": 13.0774952, "lon": 77.5032531}, {"type": "node", "id": 6087642629, "lat": 13.0773414, "lon": 77.5033681}, {"type": "node", "id": 6087642630, "lat": 13.0772008, "lon": 77.5034764}, {"type": "node", "id": 6087642631, "lat": 13.0770382, "lon": 77.5036027}, {"type": "node", "id": 6087642632, "lat": 13.0766801, "lon": 77.503941}, {"type": "node", "id": 6087642633, "lat": 13.0759727, "lon": 77.5046131}, {"type": "node", "id": 6087642634, "lat": 13.0748215, "lon": 77.505698}, {"type": "node", "id": 6087642635, "lat": 13.07398, "lon": 77.5065303}, {"type": "node", "id": 6087642636, "lat": 13.0736649, "lon": 77.5068197}, {"type": "node", "id": 6087642637, "lat": 13.0728447, "lon": 77.5076538, "tags": {"railway": "buffer_stop"}}, {"type": "node", "id": 6087642638, "lat": 13.1151979, "lon": 77.4658202}, {"type": "node", "id": 6087642639, "lat": 13.1155098, "lon": 77.4655002}, {"type": "node", "id": 6087642640, "lat": 13.1160134, "lon": 77.4649346}, {"type": "node", "id": 6087642641, "lat": 13.1166179, "lon": 77.4640711}, {"type": "node", "id": 6087642642, "lat": 13.1164455, "lon": 77.4643317}, {"type": "node", "id": 6087642643, "lat": 13.1229535, "lon": 77.4514498}, {"type": "node", "id": 6087642644, "lat": 13.1288509, "lon": 77.4397207}, {"type": "node", "id": 6087642645, "lat": 13.1304562, "lon": 77.4365141}, {"type": "node", "id": 6087642646, "lat": 13.1312614, "lon": 77.4349216}, {"type": "node", "id": 6087642647, "lat": 13.1328082, "lon": 77.4318026}, {"type": "node", "id": 6087642648, "lat": 13.1332377, "lon": 77.4309173}, {"type": "node", "id": 6087642649, "lat": 13.1334368, "lon": 77.4305283}, {"type": "node", "id": 6087642650, "lat": 13.1339408, "lon": 77.4296963}, {"type": "node", "id": 6087642651, "lat": 13.1337727, "lon": 77.4299527}, {"type": "node", "id": 6087642652, "lat": 13.1344616, "lon": 77.4290144}, {"type": "node", "id": 6087642653, "lat": 13.134742, "lon": 77.4286966}, {"type": "node", "id": 6087642654, "lat": 13.1402438, "lon": 77.4229658}, {"type": "node", "id": 6087642655, "lat": 13.1412419, "lon": 77.4219317}, {"type": "node", "id": 6087642656, "lat": 13.1465206, "lon": 77.416388}, {"type": "node", "id": 6087642657, "lat": 13.1489696, "lon": 77.4138634}, {"type": "node", "id": 6087642658, "lat": 13.1517696, "lon": 77.4109511}, {"type": "node", "id": 6087642659, "lat": 13.1531652, "lon": 77.4094923}, {"type": "node", "id": 6087642660, "lat": 13.1607318, "lon": 77.4034849}, {"type": "node", "id": 6087642661, "lat": 13.1657662, "lon": 77.399575}, {"type": "node", "id": 6087642662, "lat": 13.1661193, "lon": 77.3993513}, {"type": "node", "id": 6087642663, "lat": 13.1670133, "lon": 77.3988771}, {"type": "node", "id": 6087642664, "lat": 13.1674339, "lon": 77.398709}, {"type": "node", "id": 6087642666, "lat": 13.1706288, "lon": 77.397704}, {"type": "node", "id": 6087642667, "lat": 13.1694662, "lon": 77.3980623}, {"type": "node", "id": 6087642668, "lat": 13.1794134, "lon": 77.394886}, {"type": "node", "id": 6087642669, "lat": 13.1789301, "lon": 77.395093}, {"type": "node", "id": 6087642670, "lat": 13.1791842, "lon": 77.3949975}, {"type": "node", "id": 6087642671, "lat": 13.179819, "lon": 77.3946757}, {"type": "node", "id": 6087642672, "lat": 13.1807959, "lon": 77.3940189}, {"type": "node", "id": 6087642673, "lat": 13.1819359, "lon": 77.3930652}, {"type": "node", "id": 6087642675, "lat": 13.1961975, "lon": 77.3811585}, {"type": "node", "id": 6087642676, "lat": 13.2004396, "lon": 77.3776662}, {"type": "node", "id": 6087642677, "lat": 13.2116951, "lon": 77.3681682}, {"type": "node", "id": 6087642678, "lat": 13.2114847, "lon": 77.3683985}, {"type": "node", "id": 6087642679, "lat": 13.2122688, "lon": 77.3674467}, {"type": "node", "id": 6087642680, "lat": 13.2120006, "lon": 77.3678011}, {"type": "node", "id": 6087642681, "lat": 13.2125013, "lon": 77.3670811}, {"type": "node", "id": 6087642682, "lat": 13.2131823, "lon": 77.3658034}, {"type": "node", "id": 6087642683, "lat": 13.2129581, "lon": 77.3662786}, {"type": "node", "id": 6087642684, "lat": 13.2133879, "lon": 77.365258}, {"type": "node", "id": 6087642785, "lat": 13.2156827, "lon": 77.3555068}, {"type": "node", "id": 6087642786, "lat": 13.2174101, "lon": 77.3480277}, {"type": "node", "id": 6087642787, "lat": 13.2182955, "lon": 77.3442467}, {"type": "node", "id": 6087642788, "lat": 13.220017, "lon": 77.3367552}, {"type": "node", "id": 6087642789, "lat": 13.2203544, "lon": 77.3355804}, {"type": "node", "id": 6087642790, "lat": 13.2202371, "lon": 77.3359285}, {"type": "node", "id": 6087642793, "lat": 13.2206374, "lon": 77.3348798}, {"type": "node", "id": 6087642794, "lat": 13.2204897, "lon": 77.3352365}, {"type": "node", "id": 6087642795, "lat": 13.2208006, "lon": 77.3345486}, {"type": "node", "id": 6087642796, "lat": 13.2246962, "lon": 77.3281793}, {"type": "node", "id": 6087642797, "lat": 13.2264268, "lon": 77.3253553}, {"type": "node", "id": 6087642798, "lat": 13.2256174, "lon": 77.3266588}, {"type": "node", "id": 6087642799, "lat": 13.2271246, "lon": 77.3243546}, {"type": "node", "id": 6087642800, "lat": 13.2273985, "lon": 77.3240446}, {"type": "node", "id": 6087642802, "lat": 13.2213974, "lon": 77.3335087}, {"type": "node", "id": 6087642803, "lat": 13.2211899, "lon": 77.3338503}, {"type": "node", "id": 6087642804, "lat": 13.2300056, "lon": 77.3215137}, {"type": "node", "id": 6087642805, "lat": 13.2288979, "lon": 77.3225731}, {"type": "node", "id": 6087642806, "lat": 13.2325737, "lon": 77.3190409}, {"type": "node", "id": 6087642807, "lat": 13.2329395, "lon": 77.3185752}, {"type": "node", "id": 6087642808, "lat": 13.2336386, "lon": 77.317503}, {"type": "node", "id": 6087642809, "lat": 13.2406007, "lon": 77.302187}, {"type": "node", "id": 6087642810, "lat": 13.2398619, "lon": 77.3038107}, {"type": "node", "id": 6087642812, "lat": 13.2418328, "lon": 77.2993161}, {"type": "node", "id": 6087642813, "lat": 13.2414717, "lon": 77.3002472}, {"type": "node", "id": 6087642814, "lat": 13.243025, "lon": 77.2943483}, {"type": "node", "id": 6087642817, "lat": 13.2448964, "lon": 77.2863666}, {"type": "node", "id": 6087642818, "lat": 13.2459963, "lon": 77.2811706}, {"type": "node", "id": 6087642819, "lat": 13.2461218, "lon": 77.280482}, {"type": "node", "id": 6087642820, "lat": 13.2461674, "lon": 77.2801967}, {"type": "node", "id": 6087642822, "lat": 13.2462159, "lon": 77.2796515}, {"type": "node", "id": 6087642823, "lat": 13.2462148, "lon": 77.2784531}, {"type": "node", "id": 6087642824, "lat": 13.2461665, "lon": 77.2779517}, {"type": "node", "id": 6087642825, "lat": 13.2460697, "lon": 77.2773257}, {"type": "node", "id": 6087642826, "lat": 13.2459708, "lon": 77.2768052}, {"type": "node", "id": 6087642827, "lat": 13.2454091, "lon": 77.2746325}, {"type": "node", "id": 6087642828, "lat": 13.2448813, "lon": 77.2726129}, {"type": "node", "id": 6087642830, "lat": 13.2439815, "lon": 77.2694596}, {"type": "node", "id": 6087642831, "lat": 13.2441085, "lon": 77.2697916}, {"type": "node", "id": 6087642832, "lat": 13.2438074, "lon": 77.2690606}, {"type": "node", "id": 6087642833, "lat": 13.243582, "lon": 77.2686197}, {"type": "node", "id": 6087642834, "lat": 13.2433387, "lon": 77.2681833}, {"type": "node", "id": 6087642835, "lat": 13.2421403, "lon": 77.2666324}, {"type": "node", "id": 6087642836, "lat": 13.2424351, "lon": 77.266959}, {"type": "node", "id": 6087642837, "lat": 13.2427418, "lon": 77.2673289}, {"type": "node", "id": 6087642838, "lat": 13.2429186, "lon": 77.2675701}, {"type": "node", "id": 6087642839, "lat": 13.2393764, "lon": 77.2635561}, {"type": "node", "id": 6087642840, "lat": 13.2383029, "lon": 77.2618873}, {"type": "node", "id": 6087642841, "lat": 13.238754, "lon": 77.2626968}, {"type": "node", "id": 6087642842, "lat": 13.2385128, "lon": 77.2622947}, {"type": "node", "id": 6087642858, "lat": 13.2328841, "lon": 77.2488674}, {"type": "node", "id": 6087642859, "lat": 13.232831, "lon": 77.2486013}, {"type": "node", "id": 6087642860, "lat": 13.2329504, "lon": 77.249165}, {"type": "node", "id": 6087642861, "lat": 13.2331939, "lon": 77.2499797}, {"type": "node", "id": 6087642862, "lat": 13.2333125, "lon": 77.2503121, "tags": {"railway": "level_crossing"}}, {"type": "node", "id": 6087642863, "lat": 13.2327269, "lon": 77.2474231}, {"type": "node", "id": 6087642864, "lat": 13.2327502, "lon": 77.2478769}, {"type": "node", "id": 6087642865, "lat": 13.2327256, "lon": 77.2469827}, {"type": "node", "id": 6087642866, "lat": 13.2327331, "lon": 77.2476511}, {"type": "node", "id": 6087642867, "lat": 13.2327717, "lon": 77.248105}, {"type": "node", "id": 6087642868, "lat": 13.2327219, "lon": 77.2471984}, {"type": "node", "id": 6087642869, "lat": 13.2327403, "lon": 77.2467648}, {"type": "node", "id": 6087642870, "lat": 13.2329111, "lon": 77.2455002}, {"type": "node", "id": 6087642871, "lat": 13.2328462, "lon": 77.2458318}, {"type": "node", "id": 6087642872, "lat": 13.2328028, "lon": 77.246124}, {"type": "node", "id": 6087642873, "lat": 13.233426, "lon": 77.2438435}, {"type": "node", "id": 6087642874, "lat": 13.2332992, "lon": 77.244153}, {"type": "node", "id": 6087642875, "lat": 13.2331986, "lon": 77.2444431}, {"type": "node", "id": 6087642876, "lat": 13.2331241, "lon": 77.2446784}, {"type": "node", "id": 6087642877, "lat": 13.233579, "lon": 77.2435002}, {"type": "node", "id": 6087642878, "lat": 13.2337478, "lon": 77.2431661}, {"type": "node", "id": 6087642879, "lat": 13.2346578, "lon": 77.2417301}, {"type": "node", "id": 6087642880, "lat": 13.2341027, "lon": 77.2425337}, {"type": "node", "id": 6087642881, "lat": 13.2370295, "lon": 77.2384236}, {"type": "node", "id": 6087642882, "lat": 13.2403922, "lon": 77.2337912}, {"type": "node", "id": 6087642883, "lat": 13.2423111, "lon": 77.2311109}, {"type": "node", "id": 6087642884, "lat": 13.2443857, "lon": 77.2282383}, {"type": "node", "id": 6087642985, "lat": 13.2496885, "lon": 77.2207694}, {"type": "node", "id": 6087642986, "lat": 13.2517943, "lon": 77.2178093}, {"type": "node", "id": 6087642987, "lat": 13.2544492, "lon": 77.214055}, {"type": "node", "id": 6087642988, "lat": 13.2577836, "lon": 77.2094632}, {"type": "node", "id": 6087642989, "lat": 13.2575098, "lon": 77.209785}, {"type": "node", "id": 6087642990, "lat": 13.2573333, "lon": 77.2100067}, {"type": "node", "id": 6087642991, "lat": 13.2582682, "lon": 77.2089859}, {"type": "node", "id": 6087642992, "lat": 13.2580478, "lon": 77.2091898, "tags": {"railway": "level_crossing"}}, {"type": "node", "id": 6087642993, "lat": 13.2595524, "lon": 77.2078877}, {"type": "node", "id": 6087642994, "lat": 13.2641336, "lon": 77.20409}, {"type": "node", "id": 6087642995, "lat": 13.2659586, "lon": 77.2025659}, {"type": "node", "id": 6087642996, "lat": 13.2700612, "lon": 77.1991564}, {"type": "node", "id": 6087642997, "lat": 13.2734194, "lon": 77.1963644}, {"type": "node", "id": 6087642998, "lat": 13.274734, "lon": 77.1952608}, {"type": "node", "id": 6087642999, "lat": 13.2761617, "lon": 77.1938051}, {"type": "node", "id": 6087643000, "lat": 13.2790339, "lon": 77.1909024}, {"type": "node", "id": 6087643001, "lat": 13.2785601, "lon": 77.1913454}, {"type": "node", "id": 6087643002, "lat": 13.2781147, "lon": 77.1917677}, {"type": "node", "id": 6087643003, "lat": 13.2799072, "lon": 77.1900286}, {"type": "node", "id": 6087643004, "lat": 13.2795408, "lon": 77.1904023}, {"type": "node", "id": 6087643005, "lat": 13.2807892, "lon": 77.1891074}, {"type": "node", "id": 6087643006, "lat": 13.2830045, "lon": 77.1868237}, {"type": "node", "id": 6087643007, "lat": 13.2832324, "lon": 77.1866227}, {"type": "node", "id": 6087643009, "lat": 13.2838384, "lon": 77.1861675}, {"type": "node", "id": 6087790238, "lat": 13.1059742, "lon": 77.4748749}, {"type": "node", "id": 6087790239, "lat": 13.1074499, "lon": 77.4734236}, {"type": "node", "id": 6087790240, "lat": 13.1078413, "lon": 77.4730887}, {"type": "node", "id": 6087790241, "lat": 13.1094909, "lon": 77.4714013}, {"type": "node", "id": 6087790242, "lat": 13.1103452, "lon": 77.4705592}, {"type": "node", "id": 6087790243, "lat": 13.1113548, "lon": 77.4695577}, {"type": "node", "id": 6087790244, "lat": 13.1124452, "lon": 77.4684796}, {"type": "node", "id": 6087790245, "lat": 13.1141165, "lon": 77.4668145}, {"type": "node", "id": 6087790246, "lat": 13.1148776, "lon": 77.4660554}, {"type": "node", "id": 6087790247, "lat": 13.1152752, "lon": 77.4656662}, {"type": "node", "id": 6087790248, "lat": 13.115502, "lon": 77.4654302}, {"type": "node", "id": 6087790249, "lat": 13.1156667, "lon": 77.4652548}, {"type": "node", "id": 6087790250, "lat": 13.1157816, "lon": 77.4651208}, {"type": "node", "id": 6087790251, "lat": 13.1160363, "lon": 77.4648178}, {"type": "node", "id": 6087790252, "lat": 13.1162973, "lon": 77.4644605}, {"type": "node", "id": 6087790253, "lat": 13.1165582, "lon": 77.4640523}, {"type": "node", "id": 6087790254, "lat": 13.1168067, "lon": 77.4636216}, {"type": "node", "id": 6087790255, "lat": 13.1169745, "lon": 77.4633027}, {"type": "node", "id": 6087790256, "lat": 13.117192, "lon": 77.4628561}, {"type": "node", "id": 6087790257, "lat": 13.1179002, "lon": 77.4613889}, {"type": "node", "id": 6087790258, "lat": 13.1184563, "lon": 77.4603044}, {"type": "node", "id": 6087790259, "lat": 13.1191832, "lon": 77.4588467}, {"type": "node", "id": 6087790260, "lat": 13.1197517, "lon": 77.4577143}, {"type": "node", "id": 6087790261, "lat": 13.1208141, "lon": 77.4556155}, {"type": "node", "id": 6087790262, "lat": 13.1216311, "lon": 77.4539856}, {"type": "node", "id": 6087790263, "lat": 13.1226935, "lon": 77.451858}, {"type": "node", "id": 6087790264, "lat": 13.1237186, "lon": 77.4498326}, {"type": "node", "id": 6087790265, "lat": 13.1247934, "lon": 77.4476731}, {"type": "node", "id": 6087790266, "lat": 13.1258216, "lon": 77.445603}, {"type": "node", "id": 6087790267, "lat": 13.1264895, "lon": 77.4442857}, {"type": "node", "id": 6087790268, "lat": 13.1270517, "lon": 77.4431693}, {"type": "node", "id": 6087790269, "lat": 13.1281824, "lon": 77.4409237}, {"type": "node", "id": 6087790270, "lat": 13.1287664, "lon": 77.4397754}, {"type": "node", "id": 6087790271, "lat": 13.1293504, "lon": 77.4386016}, {"type": "node", "id": 6087790272, "lat": 13.1300493, "lon": 77.4372077}, {"type": "node", "id": 6087790273, "lat": 13.1309936, "lon": 77.4353098}, {"type": "node", "id": 6087790274, "lat": 13.1321088, "lon": 77.4330802}, {"type": "node", "id": 6087790275, "lat": 13.1328947, "lon": 77.4314982}, {"type": "node", "id": 6087790276, "lat": 13.1331711, "lon": 77.43094}, {"type": "node", "id": 6087790277, "lat": 13.1335377, "lon": 77.4302318}, {"type": "node", "id": 6087790278, "lat": 13.1337738, "lon": 77.4298555}, {"type": "node", "id": 6087790279, "lat": 13.1339446, "lon": 77.4295939}, {"type": "node", "id": 6087790280, "lat": 13.1341434, "lon": 77.4293355}, {"type": "node", "id": 6087790281, "lat": 13.1343981, "lon": 77.4290038}, {"type": "node", "id": 6087790282, "lat": 13.1346156, "lon": 77.428755}, {"type": "node", "id": 6087790283, "lat": 13.1349666, "lon": 77.4283786}, {"type": "node", "id": 6087790284, "lat": 13.1359575, "lon": 77.4273515}, {"type": "node", "id": 6087791385, "lat": 13.13688, "lon": 77.4263914}, {"type": "node", "id": 6087791386, "lat": 13.1375634, "lon": 77.4256801}, {"type": "node", "id": 6087791387, "lat": 13.1389643, "lon": 77.4242288}, {"type": "node", "id": 6087791388, "lat": 13.1401043, "lon": 77.4230359}, {"type": "node", "id": 6087791389, "lat": 13.1415071, "lon": 77.4215683, "tags": {"railway": "switch"}}, {"type": "node", "id": 6087791390, "lat": 13.1423127, "lon": 77.4207489, "tags": {"railway": "switch"}}, {"type": "node", "id": 6087791391, "lat": 13.1431887, "lon": 77.419827}, {"type": "node", "id": 6087791392, "lat": 13.1436515, "lon": 77.4192784}, {"type": "node", "id": 6087791393, "lat": 13.1440708, "lon": 77.4187968}, {"type": "node", "id": 6087791394, "lat": 13.1444187, "lon": 77.4184108}, {"type": "node", "id": 6087791395, "lat": 13.145686, "lon": 77.4170616}, {"type": "node", "id": 6087791396, "lat": 13.1464719, "lon": 77.4162514}, {"type": "node", "id": 6087791397, "lat": 13.1468353, "lon": 77.415926}, {"type": "node", "id": 6087791398, "lat": 13.1473353, "lon": 77.4154731}, {"type": "node", "id": 6087791399, "lat": 13.1477081, "lon": 77.4151031}, {"type": "node", "id": 6087791400, "lat": 13.1483914, "lon": 77.4143886, "tags": {"railway": "switch"}}, {"type": "node", "id": 6087791401, "lat": 13.1494941, "lon": 77.4132499}, {"type": "node", "id": 6087791402, "lat": 13.1489269, "lon": 77.4138355, "tags": {"railway": "switch"}}, {"type": "node", "id": 6087791403, "lat": 13.1483548, "lon": 77.4145008, "tags": {"railway": "switch"}}, {"type": "node", "id": 6087791405, "lat": 13.1482608, "lon": 77.4145983, "tags": {"railway": "switch"}}, {"type": "node", "id": 6087791426, "lat": 13.1423458, "lon": 77.4207939, "tags": {"railway": "switch"}}, {"type": "node", "id": 6087791427, "lat": 13.142164, "lon": 77.4209837, "tags": {"railway": "switch"}}, {"type": "node", "id": 6087791437, "lat": 13.1518071, "lon": 77.4108143}, {"type": "node", "id": 6087791438, "lat": 13.152868, "lon": 77.4097046}, {"type": "node", "id": 6087791439, "lat": 13.1531139, "lon": 77.4094655}, {"type": "node", "id": 6087791440, "lat": 13.1533819, "lon": 77.4092219}, {"type": "node", "id": 6087791441, "lat": 13.1536916, "lon": 77.408967}, {"type": "node", "id": 6087791442, "lat": 13.1540891, "lon": 77.4086468}, {"type": "node", "id": 6087791443, "lat": 13.1545042, "lon": 77.4083265}, {"type": "node", "id": 6087791444, "lat": 13.155095, "lon": 77.4078709}, {"type": "node", "id": 6087791445, "lat": 13.1557055, "lon": 77.4073927}, {"type": "node", "id": 6087791446, "lat": 13.1562744, "lon": 77.4069597}, {"type": "node", "id": 6087791447, "lat": 13.1567685, "lon": 77.4065582}, {"type": "node", "id": 6087791448, "lat": 13.1574735, "lon": 77.4060056}, {"type": "node", "id": 6087791449, "lat": 13.1581061, "lon": 77.4055004}, {"type": "node", "id": 6087791450, "lat": 13.1587869, "lon": 77.4049613}, {"type": "node", "id": 6087791451, "lat": 13.1591185, "lon": 77.4046862}, {"type": "node", "id": 6087791452, "lat": 13.1595512, "lon": 77.4043524}, {"type": "node", "id": 6087791453, "lat": 13.1604187, "lon": 77.403669}, {"type": "node", "id": 6087791454, "lat": 13.1626281, "lon": 77.4019255}, {"type": "node", "id": 6087791455, "lat": 13.1639765, "lon": 77.4008835}, {"type": "node", "id": 6087791456, "lat": 13.1649319, "lon": 77.4001301}, {"type": "node", "id": 6087791457, "lat": 13.1657445, "lon": 77.3995234}, {"type": "node", "id": 6087791458, "lat": 13.1660739, "lon": 77.3993182}, {"type": "node", "id": 6087791459, "lat": 13.1663528, "lon": 77.3991468}, {"type": "node", "id": 6087791460, "lat": 13.1666888, "lon": 77.3989799}, {"type": "node", "id": 6087791461, "lat": 13.1669963, "lon": 77.3988265}, {"type": "node", "id": 6087791462, "lat": 13.1675234, "lon": 77.398619}, {"type": "node", "id": 6087791463, "lat": 13.1681207, "lon": 77.3984228}, {"type": "node", "id": 6087791464, "lat": 13.1699633, "lon": 77.3978544}, {"type": "node", "id": 6087791465, "lat": 13.1708857, "lon": 77.3975679}, {"type": "node", "id": 6087791466, "lat": 13.1726513, "lon": 77.3970379}, {"type": "node", "id": 6087791467, "lat": 13.1752823, "lon": 77.3962259}, {"type": "node", "id": 6087791468, "lat": 13.1765231, "lon": 77.395829}, {"type": "node", "id": 6087791469, "lat": 13.178438, "lon": 77.3952223}, {"type": "node", "id": 6087791470, "lat": 13.178785, "lon": 77.3950892}, {"type": "node", "id": 6087791471, "lat": 13.179143, "lon": 77.3949426}, {"type": "node", "id": 6087791472, "lat": 13.1794636, "lon": 77.394796}, {"type": "node", "id": 6087791473, "lat": 13.1798128, "lon": 77.394611}, {"type": "node", "id": 6087791474, "lat": 13.1801466, "lon": 77.3944148}, {"type": "node", "id": 6087791475, "lat": 13.1804892, "lon": 77.394178}, {"type": "node", "id": 6087791476, "lat": 13.18079, "lon": 77.3939524}, {"type": "node", "id": 6087791477, "lat": 13.1812358, "lon": 77.3935916}, {"type": "node", "id": 6087791478, "lat": 13.1816531, "lon": 77.3932375}, {"type": "node", "id": 6087791479, "lat": 13.1823426, "lon": 77.3926623}, {"type": "node", "id": 6087791480, "lat": 13.1831969, "lon": 77.3919428}, {"type": "node", "id": 6087791481, "lat": 13.1843849, "lon": 77.3909549}, {"type": "node", "id": 6087791482, "lat": 13.185417, "lon": 77.3901001}, {"type": "node", "id": 6087791483, "lat": 13.1865084, "lon": 77.3891934}, {"type": "node", "id": 6087791484, "lat": 13.1873407, "lon": 77.3884875}, {"type": "node", "id": 6087791585, "lat": 13.188296, "lon": 77.3877161}, {"type": "node", "id": 6087791586, "lat": 13.1891656, "lon": 77.386974}, {"type": "node", "id": 6087791587, "lat": 13.1896816, "lon": 77.3865433}, {"type": "node", "id": 6087791588, "lat": 13.1905732, "lon": 77.3857899}, {"type": "node", "id": 6087791589, "lat": 13.1915152, "lon": 77.3850073}, {"type": "node", "id": 6087791590, "lat": 13.1925825, "lon": 77.3841299}, {"type": "node", "id": 6087791591, "lat": 13.1934828, "lon": 77.3833834}, {"type": "node", "id": 6087791592, "lat": 13.1943414, "lon": 77.3826616}, {"type": "node", "id": 6087791593, "lat": 13.1948926, "lon": 77.3821857}, {"type": "node", "id": 6087791594, "lat": 13.1956832, "lon": 77.3815241}, {"type": "node", "id": 6087791595, "lat": 13.1972763, "lon": 77.3802004}, {"type": "node", "id": 6087791596, "lat": 13.1991706, "lon": 77.3786597}, {"type": "node", "id": 6087791597, "lat": 13.200919, "lon": 77.3772084}, {"type": "node", "id": 6087791598, "lat": 13.2026083, "lon": 77.3757731}, {"type": "node", "id": 6087791599, "lat": 13.2042821, "lon": 77.3743792}, {"type": "node", "id": 6087791600, "lat": 13.2058969, "lon": 77.3730108}, {"type": "node", "id": 6087791601, "lat": 13.209201, "lon": 77.3702676}, {"type": "node", "id": 6087791602, "lat": 13.2101885, "lon": 77.3694702}, {"type": "node", "id": 6087791603, "lat": 13.2106636, "lon": 77.3690715}, {"type": "node", "id": 6087791604, "lat": 13.2110797, "lon": 77.3687079}, {"type": "node", "id": 6087791605, "lat": 13.2113716, "lon": 77.368424}, {"type": "node", "id": 6087791606, "lat": 13.2116355, "lon": 77.3681465}, {"type": "node", "id": 6087791607, "lat": 13.211856, "lon": 77.3678881}, {"type": "node", "id": 6087791608, "lat": 13.2121075, "lon": 77.3675628}, {"type": "node", "id": 6087791609, "lat": 13.2123684, "lon": 77.3671896}, {"type": "node", "id": 6087791610, "lat": 13.2125982, "lon": 77.3667972}, {"type": "node", "id": 6087791611, "lat": 13.212828, "lon": 77.3664017}, {"type": "node", "id": 6087791612, "lat": 13.2130081, "lon": 77.3660381}, {"type": "node", "id": 6087791613, "lat": 13.2132068, "lon": 77.3655788}, {"type": "node", "id": 6087791614, "lat": 13.2133434, "lon": 77.3652247}, {"type": "node", "id": 6087791615, "lat": 13.2135608, "lon": 77.364456}, {"type": "node", "id": 6087791616, "lat": 13.2137626, "lon": 77.3635948}, {"type": "node", "id": 6087791617, "lat": 13.2139924, "lon": 77.3626187}, {"type": "node", "id": 6087791618, "lat": 13.2143806, "lon": 77.3608963}, {"type": "node", "id": 6087791619, "lat": 13.2147936, "lon": 77.3591483, "tags": {"railway": "switch"}}, {"type": "node", "id": 6087791620, "lat": 13.2150358, "lon": 77.3581308, "tags": {"railway": "switch"}}, {"type": "node", "id": 6087791621, "lat": 13.2153867, "lon": 77.3565774}, {"type": "node", "id": 6087791622, "lat": 13.2155016, "lon": 77.3560303}, {"type": "node", "id": 6087791623, "lat": 13.2156478, "lon": 77.3552524}, {"type": "node", "id": 6087791624, "lat": 13.2157549, "lon": 77.3546462}, {"type": "node", "id": 6087791625, "lat": 13.2160369, "lon": 77.3534124}, {"type": "node", "id": 6087791626, "lat": 13.2162353, "lon": 77.3525488}, {"type": "node", "id": 6087791627, "lat": 13.2165121, "lon": 77.3514973}, {"type": "node", "id": 6087791628, "lat": 13.2166427, "lon": 77.3510092}, {"type": "node", "id": 6087791629, "lat": 13.2169638, "lon": 77.3497485}, {"type": "node", "id": 6087791630, "lat": 13.2175174, "lon": 77.3473587}, {"type": "node", "id": 6087791631, "lat": 13.2173775, "lon": 77.3479626, "tags": {"railway": "switch"}}, {"type": "node", "id": 6087791632, "lat": 13.2171242, "lon": 77.3492657, "tags": {"railway": "switch"}}, {"type": "node", "id": 6087791633, "lat": 13.2171059, "lon": 77.3493448, "tags": {"railway": "switch"}}, {"type": "node", "id": 6087791635, "lat": 13.217107, "lon": 77.3491303, "tags": {"railway": "switch"}}, {"type": "node", "id": 6087791647, "lat": 13.2150624, "lon": 77.3581803, "tags": {"railway": "switch"}}, {"type": "node", "id": 6087791648, "lat": 13.2150195, "lon": 77.3583598, "tags": {"railway": "switch"}}, {"type": "node", "id": 6087791664, "lat": 13.2182825, "lon": 77.3440864}, {"type": "node", "id": 6087791665, "lat": 13.2189399, "lon": 77.3412336}, {"type": "node", "id": 6087791666, "lat": 13.2195957, "lon": 77.3383644}, {"type": "node", "id": 6087791667, "lat": 13.2198503, "lon": 77.3372576}, {"type": "node", "id": 6087791668, "lat": 13.2199621, "lon": 77.3367632}, {"type": "node", "id": 6087880738, "lat": 13.2201205, "lon": 77.3361444}, {"type": "node", "id": 6087880739, "lat": 13.2202478, "lon": 77.3357234}, {"type": "node", "id": 6087880740, "lat": 13.2203844, "lon": 77.335347}, {"type": "node", "id": 6087880741, "lat": 13.220549, "lon": 77.3349483}, {"type": "node", "id": 6087880742, "lat": 13.2207322, "lon": 77.3345751}, {"type": "node", "id": 6087880743, "lat": 13.2209961, "lon": 77.3340871}, {"type": "node", "id": 6087880744, "lat": 13.2213035, "lon": 77.3335512}, {"type": "node", "id": 6087880745, "lat": 13.2215271, "lon": 77.3331971}, {"type": "node", "id": 6087880746, "lat": 13.222086, "lon": 77.3323104}, {"type": "node", "id": 6087880747, "lat": 13.2223531, "lon": 77.3318894}, {"type": "node", "id": 6087880748, "lat": 13.2243279, "lon": 77.3286678}, {"type": "node", "id": 6087880749, "lat": 13.2253899, "lon": 77.3269198}, {"type": "node", "id": 6087880750, "lat": 13.2265698, "lon": 77.3250124}, {"type": "node", "id": 6087880752, "lat": 13.2269828, "lon": 77.3244286}, {"type": "node", "id": 6087880753, "lat": 13.227197, "lon": 77.3241767}, {"type": "node", "id": 6087880754, "lat": 13.2274889, "lon": 77.3238704}, {"type": "node", "id": 6087880755, "lat": 13.2279423, "lon": 77.3234143}, {"type": "node", "id": 6087880756, "lat": 13.228554, "lon": 77.3228274}, {"type": "node", "id": 6087880757, "lat": 13.2295786, "lon": 77.321845}, {"type": "node", "id": 6087880758, "lat": 13.2306343, "lon": 77.3208402}, {"type": "node", "id": 6087880759, "lat": 13.2319726, "lon": 77.3195739}, {"type": "node", "id": 6087880760, "lat": 13.2324322, "lon": 77.3191018}, {"type": "node", "id": 6087880761, "lat": 13.2327178, "lon": 77.3187765}, {"type": "node", "id": 6087880762, "lat": 13.2329724, "lon": 77.3184384}, {"type": "node", "id": 6087880763, "lat": 13.2332426, "lon": 77.3180556}, {"type": "node", "id": 6087880764, "lat": 13.2335282, "lon": 77.317574}, {"type": "node", "id": 6087880765, "lat": 13.2337207, "lon": 77.3172167}, {"type": "node", "id": 6087880766, "lat": 13.2340809, "lon": 77.3164289}, {"type": "node", "id": 6087880767, "lat": 13.2352111, "lon": 77.3139313}, {"type": "node", "id": 6087880768, "lat": 13.2353105, "lon": 77.3137017}, {"type": "node", "id": 6087880769, "lat": 13.2358383, "lon": 77.3125311}, {"type": "node", "id": 6087880770, "lat": 13.236717, "lon": 77.3106236}, {"type": "node", "id": 6087880771, "lat": 13.2383533, "lon": 77.3069905}, {"type": "node", "id": 6087880772, "lat": 13.2397071, "lon": 77.3040177}, {"type": "node", "id": 6087880773, "lat": 13.2401014, "lon": 77.3031246}, {"type": "node", "id": 6087880774, "lat": 13.2405578, "lon": 77.3020975}, {"type": "node", "id": 6087880775, "lat": 13.2408808, "lon": 77.3014628}, {"type": "node", "id": 6087880776, "lat": 13.2412689, "lon": 77.3005537}, {"type": "node", "id": 6087880777, "lat": 13.2414334, "lon": 77.3001614}, {"type": "node", "id": 6087880778, "lat": 13.2416601, "lon": 77.2996191}, {"type": "node", "id": 6087880779, "lat": 13.2418309, "lon": 77.299112}, {"type": "node", "id": 6087880780, "lat": 13.2420358, "lon": 77.2983177}, {"type": "node", "id": 6087880781, "lat": 13.2422966, "lon": 77.2971822}, {"type": "node", "id": 6087880782, "lat": 13.2424394, "lon": 77.2965889}, {"type": "node", "id": 6087880783, "lat": 13.2425239, "lon": 77.2961813, "tags": {"railway": "level_crossing"}}, {"type": "node", "id": 6087880784, "lat": 13.2428368, "lon": 77.294876}, {"type": "node", "id": 6087895085, "lat": 13.2430945, "lon": 77.2937916}, {"type": "node", "id": 6087895086, "lat": 13.2433678, "lon": 77.2926241}, {"type": "node", "id": 6087895087, "lat": 13.243492, "lon": 77.2920946}, {"type": "node", "id": 6087895088, "lat": 13.24379, "lon": 77.2908411}, {"type": "node", "id": 6087895089, "lat": 13.244116, "lon": 77.2894599}, {"type": "node", "id": 6087895090, "lat": 13.2446346, "lon": 77.2872367}, {"type": "node", "id": 6087895091, "lat": 13.2449233, "lon": 77.2859832}, {"type": "node", "id": 6087895092, "lat": 13.2452121, "lon": 77.2846531}, {"type": "node", "id": 6087895093, "lat": 13.2456623, "lon": 77.2824745}, {"type": "node", "id": 6087895094, "lat": 13.2460255, "lon": 77.2806883}, {"type": "node", "id": 6087895095, "lat": 13.2461032, "lon": 77.2802353}, {"type": "node", "id": 6087895096, "lat": 13.2461466, "lon": 77.2797728}, {"type": "node", "id": 6087895097, "lat": 13.2461652, "lon": 77.2793231}, {"type": "node", "id": 6087895098, "lat": 13.2461777, "lon": 77.2789084, "tags": {"railway": "switch"}}, {"type": "node", "id": 6087895099, "lat": 13.2461559, "lon": 77.2785575, "tags": {"railway": "switch"}}, {"type": "node", "id": 6087895100, "lat": 13.2461156, "lon": 77.2781333}, {"type": "node", "id": 6087895101, "lat": 13.2460566, "lon": 77.277741}, {"type": "node", "id": 6087895102, "lat": 13.245987, "lon": 77.2773875}, {"type": "node", "id": 6087895103, "lat": 13.2458392, "lon": 77.2768}, {"type": "node", "id": 6087895104, "lat": 13.2453859, "lon": 77.2750297}, {"type": "node", "id": 6087895105, "lat": 13.2444793, "lon": 77.2716072}, {"type": "node", "id": 6087895106, "lat": 13.244218, "lon": 77.2705969, "tags": {"railway": "level_crossing"}}, {"type": "node", "id": 6087895107, "lat": 13.2440322, "lon": 77.2699039}, {"type": "node", "id": 6087895108, "lat": 13.2437683, "lon": 77.2691989, "tags": {"railway": "switch"}}, {"type": "node", "id": 6087895109, "lat": 13.2437093, "lon": 77.2690714, "tags": {"railway": "switch"}}, {"type": "node", "id": 6087895110, "lat": 13.2433491, "lon": 77.2683696}, {"type": "node", "id": 6087895111, "lat": 13.2431691, "lon": 77.2680634}, {"type": "node", "id": 6087895112, "lat": 13.243071, "lon": 77.2679066, "tags": {"railway": "level_crossing"}}, {"type": "node", "id": 6087895113, "lat": 13.2428213, "lon": 77.2675052}, {"type": "node", "id": 6087895114, "lat": 13.2425295, "lon": 77.2671448}, {"type": "node", "id": 6087895115, "lat": 13.2422624, "lon": 77.266829}, {"type": "node", "id": 6087895116, "lat": 13.2415452, "lon": 77.2660411}, {"type": "node", "id": 6087895117, "lat": 13.2432555, "lon": 77.2680551, "tags": {"railway": "switch"}}, {"type": "node", "id": 6087895133, "lat": 13.2459109, "lon": 77.2770543}, {"type": "node", "id": 6087895136, "lat": 13.2462342, "lon": 77.2792542, "tags": {"railway": "switch"}}, {"type": "node", "id": 6087895148, "lat": 13.2444567, "lon": 77.2709992, "tags": {"railway": "switch"}}, {"type": "node", "id": 6087895149, "lat": 13.2407054, "lon": 77.2651232}, {"type": "node", "id": 6087895150, "lat": 13.2394056, "lon": 77.2636571}, {"type": "node", "id": 6087895151, "lat": 13.2390983, "lon": 77.2632782}, {"type": "node", "id": 6087895152, "lat": 13.2388765, "lon": 77.2629782}, {"type": "node", "id": 6087895153, "lat": 13.2386635, "lon": 77.2626535}, {"type": "node", "id": 6087895154, "lat": 13.2385494, "lon": 77.2624662}, {"type": "node", "id": 6087895155, "lat": 13.2383781, "lon": 77.2621392}, {"type": "node", "id": 6087895156, "lat": 13.2381783, "lon": 77.26174},