{"version": 0.6, "generator": "Overpass API 0.7.62.8 e802775f", "osm3s": {"timestamp_osm_base": "2026-01-12T03:15:08Z", "copyright": "The data included in this document is from www.openstreetmap.org. The data is made available under ODbL."}, "elements": [{"type": "node", "id": 13877592, "lat": -33.822438, "lon": 151.1941934, "tags": {"fare_gates": "yes", "name": "St Leonards", "network": "Sydney Trains", "network:wikidata": "Q7660181", "platforms": "2", "public_transport": "station", "railway": "station", "railway:ref": "STL", "ref": "206520", "train": "yes", "wheelchair": "yes", "wikidata": "Q7594018", "wikipedia": "en:St Leonards railway station"}}, {"type": "node", "id": 315260649, "lat": -33.7962331, "lon": 151.1809468, "tags": {"bus": "yes", "name": "Chatswood Station, Stand D", "network": "Transport Buses", "public_transport": "stop_position", "ref": "206722"}}, {"type": "node", "id": 355847156, "lat": -33.8230345, "lon": 151.2109892, "tags": {"bus": "yes", "gtfs:stop_id": "206222", "highway": "bus_stop", "name": "Amherst St after Miller St", "network": "Transport Buses", "network:wikidata": "Q5001345", "public_transport": "platform", "ref": "206222", "shelter": "yes"}}, {"type": "node", "id": 361039735, "lat": -33.8223622, "lon": 151.210279, "tags": {"bench": "yes", "bus": "yes", "gtfs:stop_id": "206218", "highway": "bus_stop", "lit": "yes", "name": "Miller St at Abbott St", "network": "Transport Buses", "network:wikidata": "Q5001345", "public_transport": "platform", "ref": "206218", "shelter": "no", "source": "survey"}}, {"type": "node", "id": 361039741, "lat": -33.8247029, "lon": 151.20975, "tags": {"bench": "yes", "bus": "yes", "gtfs:stop_id": "206217", "highway": "bus_stop", "name": "Miller St at Rosalind St", "network": "Transport Buses", "network:wikidata": "Q5001345", "public_transport": "platform", "ref": "206217", "source": "survey"}}, {"type": "node", "id": 363375402, "lat": -33.8227291, "lon": 151.2103558, "tags": {"bench": "yes", "bus": "yes", "gtfs:stop_id": "206213", "highway": "bus_stop", "name": "Miller St opp Abbott St", "network": "Transport Buses", "network:wikidata": "Q5001345", "public_transport": "platform", "ref": "206213", "shelter": "no"}}, {"type": "node", "id": 456745896, "lat": -33.824877, "lon": 151.2008552, "tags": {"bench": "yes", "bin": "no", "bus": "yes", "gtfs:stop_id": "206547", "highway": "bus_stop", "lit": "yes", "name": "Willoughby Rd opp Holtermann St", "network": "Transport Buses", "network:wikidata": "Q5001345", "public_transport": "platform", "ref": "206547", "shelter": "no", "source": "survey", "tactile_paving": "no"}}, {"type": "node", "id": 476140614, "lat": -33.8216551, "lon": 151.2163674, "tags": {"bus": "yes", "gtfs:stop_id": "206227", "highway": "bus_stop", "name": "Carter St at Avon St", "network": "Transport Buses", "network:wikidata": "Q5001345", "public_transport": "platform", "ref": "206227", "source": "survey"}}, {"type": "node", "id": 476140616, "lat": -33.8216772, "lon": 151.2135063, "tags": {"bench": "yes", "bus": "yes", "gtfs:stop_id": "206223", "highway": "bus_stop", "name": "Carter St at Colin St", "network": "Transport Buses", "network:wikidata": "Q5001345", "public_transport": "platform", "ref": "206223", "shelter": "yes", "source": "survey"}}, {"type": "node", "id": 476140626, "lat": -33.8242584, "lon": 151.197734, "tags": {"bench": "no", "bin": "no", "bus": "yes", "gtfs:stop_id": "206514", "highway": "bus_stop", "lit": "no", "name": "Pacific Hwy after Albany St", "network": "Transport Buses", "network:wikidata": "Q5001345", "public_transport": "platform", "ref": "206514", "shelter": "no", "source": "survey", "tactile_paving": "no"}}, {"type": "node", "id": 497587514, "lat": -33.8191346, "lon": 151.2034821, "tags": {"bus": "yes", "highway": "bus_stop", "operator": "NSW BUS", "public_transport": "platform", "source": "survey"}}, {"type": "node", "id": 497587518, "lat": -33.8193484, "lon": 151.2008391, "tags": {"bus": "yes", "gtfs:stop_id": "206549", "highway": "bus_stop", "name": "St Leonards Catholic Church, Willoughby Rd", "network": "Transport Buses", "network:wikidata": "Q5001345", "public_transport": "platform", "ref": "206549", "shelter": "yes", "source": "survey"}}, {"type": "node", "id": 497587519, "lat": -33.8200409, "lon": 151.2007255, "tags": {"bench": "yes", "bin": "no", "bus": "yes", "check_date:shelter": "2021-05-09", "gtfs:stop_id": "206536", "highway": "bus_stop", "name": "Willoughby Rd before Dalleys Rd", "network": "Transport Buses", "network:wikidata": "Q5001345", "public_transport": "platform", "ref": "206536", "shelter": "yes", "source": "survey", "tactile_paving": "yes"}}, {"type": "node", "id": 497587520, "lat": -33.8223016, "lon": 151.200853, "tags": {"bench": "yes", "bus": "yes", "gtfs:stop_id": "206548", "highway": "bus_stop", "name": "Willoughby Rd at Chandos St", "network": "Transport Buses", "network:wikidata": "Q5001345", "public_transport": "platform", "ref": "206548", "shelter": "no", "source": "survey"}}, {"type": "node", "id": 514332895, "lat": -33.8232154, "lon": 151.1946973, "tags": {"bench": "yes", "bin": "no", "bus": "yes", "check_date": "2025-08-14", "check_date:bin": "2025-08-14", "check_date:lit": "2025-08-14", "check_date:tactile_paving": "2025-08-14", "gtfs:stop_id": "206523", "highway": "bus_stop", "lit": "no", "local_ref": "A", "name": "St Leonards Station, Pacific Hwy, Stand A", "network": "Transport Buses", "network:wikidata": "Q5001345", "public_transport": "platform", "ref": "206523", "shelter": "no", "tactile_paving": "no", "wheelchair": "yes"}}, {"type": "node", "id": 539316300, "lat": -33.8199144, "lon": 151.1305009, "tags": {"bus": "yes", "gtfs:stop_id": "211152", "highway": "bus_stop", "name": "Thompson St at Westminster Rd", "network": "Transport Buses", "network:wikidata": "Q5001345", "public_transport": "platform", "ref": "211152"}}, {"type": "node", "id": 539316350, "lat": -33.821962, "lon": 151.1348275, "tags": {"bus": "yes", "gtfs:stop_id": "211014", "highway": "bus_stop", "name": "Princes St at Pittwater Rd", "network": "Transport Buses", "network:wikidata": "Q5001345", "public_transport": "platform", "ref": "211014"}}, {"type": "node", "id": 539316351, "lat": -33.8220041, "lon": 151.134608, "tags": {"bus": "yes", "gtfs:stop_id": "211032", "highway": "bus_stop", "name": "Princes St at Pittwater Rd", "network": "Transport Buses", "network:wikidata": "Q5001345", "public_transport": "platform", "ref": "211032"}}, {"type": "node", "id": 555694439, "lat": -33.8032469, "lon": 151.1978852, "tags": {"bench": "no", "bin": "no", "bus": "yes", "gtfs:stop_id": "2068114", "highway": "bus_stop", "name": "Mowbray Rd at Penshurst St", "network": "Transport Buses", "network:wikidata": "Q5001345", "public_transport": "platform", "ref": "2068114", "shelter": "no", "tactile_paving": "no"}}, {"type": "node", "id": 555694441, "lat": -33.8014677, "lon": 151.194113, "tags": {"bus": "yes", "gtfs:stop_id": "2068111", "highway": "bus_stop", "name": "Sydney St opp Stephen St", "network": "Transport Buses", "network:wikidata": "Q5001345", "public_transport": "platform", "ref": "2068111"}}, {"type": "node", "id": 555694443, "lat": -33.8035457, "lon": 151.1999991, "tags": {"bus": "yes", "gtfs:stop_id": "206858", "highway": "bus_stop", "name": "Willoughby Girls High School, Mowbray Rd", "network": "Transport Buses", "network:wikidata": "Q5001345", "public_transport": "platform", "ref": "206858"}}, {"type": "node", "id": 555694446, "lat": -33.7993654, "lon": 151.1941709, "tags": {"bench": "yes", "bin": "no", "bus": "yes", "gtfs:stop_id": "206745", "highway": "bus_stop", "name": "Fry St at Sydney St", "network": "Transport Buses", "network:wikidata": "Q5001345", "public_transport": "platform", "ref": "206745", "shelter": "no", "tactile_paving": "no"}}, {"type": "node", "id": 555694448, "lat": -33.8023688, "lon": 151.2086217, "tags": {"bench": "yes", "bus": "yes", "gtfs:stop_id": "206870", "highway": "bus_stop", "name": "Edinburgh Rd opp Windsor Rd", "network": "Transport Buses", "network:wikidata": "Q5001345", "public_transport": "platform", "ref": "206870", "shelter": "no"}}, {"type": "node", "id": 571370579, "lat": -33.8142829, "lon": 151.177362, "tags": {"bench": "yes", "bin": "no", "bus": "yes", "check_date:shelter": "2021-08-15", "gtfs:stop_id": "2066227", "highway": "bus_stop", "name": "Pacific Hwy at Allison Av", "network": "Transport Buses", "network:wikidata": "Q5001345", "public_transport": "platform", "ref": "2066227", "shelter": "yes", "tactile_paving": "yes"}}, {"type": "node", "id": 584021918, "lat": -33.8195355, "lon": 151.2111979, "tags": {"bench": "yes", "bus": "yes", "gtfs:stop_id": "206212", "highway": "bus_stop", "name": "Cammeray Public School, Miller St", "network": "Transport Buses", "network:wikidata": "Q5001345", "public_transport": "platform", "ref": "206212", "shelter": "yes", "source": "local_knowledge, nearmap"}}, {"type": "node", "id": 584036357, "lat": -33.8185246, "lon": 151.2126984, "tags": {"bench": "yes", "bus": "yes", "gtfs:stop_id": "206211", "highway": "bus_stop", "name": "Miller St after The Boulevarde", "network": "Transport Buses", "network:wikidata": "Q5001345", "public_transport": "platform", "ref": "206211", "shelter": "yes", "source": "local_knowledge;nearmap"}}, {"type": "node", "id": 589255688, "lat": -33.8228048, "lon": 151.2010027, "tags": {"bench": "yes", "bin": "no", "bus": "yes", "check_date:bench": "2021-05-09", "gtfs:stop_id": "206537", "highway": "bus_stop", "lit": "no", "name": "Willoughby Rd at Atchison St", "network": "Transport Buses", "network:wikidata": "Q5001345", "public_transport": "platform", "ref": "206537", "shelter": "no", "source": "survey", "tactile_paving": "no"}}, {"type": "node", "id": 627406584, "lat": -33.8205645, "lon": 151.1315986, "tags": {"bench": "yes", "bus": "yes", "gtfs:stop_id": "211154", "highway": "bus_stop", "name": "Thompson St opp The Strand", "network": "Transport Buses", "network:wikidata": "Q5001345", "public_transport": "platform", "ref": "211154", "shelter": "yes"}}, {"type": "node", "id": 752260056, "lat": -33.7715537, "lon": 151.2123285, "tags": {"bus": "yes", "gtfs:stop_id": "208744", "highway": "bus_stop", "name": "Melwood Av after Downpatrick Rd", "network": "Transport Buses", "network:wikidata": "Q5001345", "public_transport": "platform", "ref": "208744", "shelter": "yes"}}, {"type": "node", "id": 752260057, "lat": -33.7672872, "lon": 151.2102411, "tags": {"bus": "yes", "gtfs:stop_id": "208746", "highway": "bus_stop", "name": "Forestville Park Tennis Club, Melwood Av", "network": "Transport Buses", "network:wikidata": "Q5001345", "public_transport": "platform", "ref": "208746"}}, {"type": "node", "id": 752353630, "lat": -33.7717816, "lon": 151.2166355, "tags": {"bus": "yes", "gtfs:stop_id": "208723", "highway": "bus_stop", "name": "Starkey St opp Killarney Heights High School", "network": "Transport Buses", "network:wikidata": "Q5001345", "public_transport": "platform", "ref": "208723"}}, {"type": "node", "id": 752353682, "lat": -33.7598328, "lon": 151.2123294, "tags": {"bench": "yes", "bin": "no", "bus": "yes", "gtfs:stop_id": "208736", "highway": "bus_stop", "name": "Warringah Rd opp Melwood Av", "network": "Transport Buses", "network:wikidata": "Q5001345", "public_transport": "platform", "ref": "208736", "shelter": "yes", "tactile_paving": "no"}}, {"type": "node", "id": 752353743, "lat": -33.7623945, "lon": 151.2068314, "tags": {"bench": "yes", "bin": "no", "bus": "yes", "gtfs:stop_id": "208734", "highway": "bus_stop", "name": "Warringah Rd at Ryrie Av", "network": "Transport Buses", "network:wikidata": "Q5001345", "public_transport": "platform", "ref": "208734", "shelter": "yes", "tactile_paving": "no"}}, {"type": "node", "id": 752353744, "lat": -33.7623245, "lon": 151.2071959, "tags": {"bench": "yes", "bin": "no", "bus": "yes", "gtfs:stop_id": "208755", "highway": "bus_stop", "name": "Warringah Rd opp Laurel Ch", "network": "Transport Buses", "network:wikidata": "Q5001345", "public_transport": "platform", "ref": "208755", "shelter": "yes"}}, {"type": "node", "id": 752353748, "lat": -33.7637619, "lon": 151.2058336, "tags": {"bench": "yes", "bus": "yes", "gtfs:stop_id": "208733", "highway": "bus_stop", "name": "Warringah Rd at Valley Rd", "network": "Transport Buses", "network:wikidata": "Q5001345", "public_transport": "platform", "ref": "208733", "shelter": "yes"}}, {"type": "node", "id": 752353771, "lat": -33.7604004, "lon": 151.2140311, "tags": {"bench": "yes", "bin": "no", "bus": "yes", "covered": "yes", "gtfs:stop_id": "208752", "highway": "bus_stop", "name": "Warringah Rd at Darley St", "network": "Transport Buses", "network:wikidata": "Q5001345", "public_transport": "platform", "ref": "208752", "tactile_paving": "yes"}}, {"type": "node", "id": 752353779, "lat": -33.7600799, "lon": 151.2138098, "tags": {"bench": "yes", "bin": "no", "bus": "yes", "gtfs:stop_id": "208737", "highway": "bus_stop", "name": "Warringah Rd opp Darley St", "network": "Transport Buses", "network:wikidata": "Q5001345", "public_transport": "platform", "ref": "208737", "shelter": "yes", "tactile_paving": "yes"}}, {"type": "node", "id": 752353784, "lat": -33.760052, "lon": 151.212106, "tags": {"bench": "no", "bin": "no", "bus": "yes", "covered": "no", "gtfs:stop_id": "208753", "highway": "bus_stop", "name": "Warringah Rd at Melwood Av", "network": "Transport Buses", "network:wikidata": "Q5001345", "public_transport": "platform", "ref": "208753", "tactile_paving": "yes"}}, {"type": "node", "id": 752353787, "lat": -33.7601094, "lon": 151.2102941, "tags": {"bench": "yes", "bin": "no", "bus": "yes", "gtfs:stop_id": "208754", "highway": "bus_stop", "name": "Warringah Rd before Forestville Av", "network": "Transport Buses", "network:wikidata": "Q5001345", "public_transport": "platform", "ref": "208754", "shelter": "yes", "tactile_paving": "yes"}}, {"type": "node", "id": 752353791, "lat": -33.7599868, "lon": 151.2095726, "tags": {"bench": "yes", "bin": "no", "bus": "yes", "gtfs:stop_id": "208735", "highway": "bus_stop", "name": "Warringah Rd after Woodlands Rd", "network": "Transport Buses", "network:wikidata": "Q5001345", "public_transport": "platform", "ref": "208735", "shelter": "yes", "tactile_paving": "no"}}, {"type": "node", "id": 752353801, "lat": -33.7606518, "lon": 151.2171663, "tags": {"bench": "yes", "bin": "no", "bus": "yes", "covered": "yes", "gtfs:stop_id": "208738", "highway": "bus_stop", "name": "Warringah Rd after Ferguson St", "network": "Transport Buses", "network:wikidata": "Q5001345", "public_transport": "platform", "ref": "208738", "tactile_paving": "yes"}}, {"type": "node", "id": 752353831, "lat": -33.7617915, "lon": 151.2166113, "tags": {"bench": "yes", "bin": "no", "bus": "yes", "gtfs:stop_id": "208715", "highway": "bus_stop", "name": "Forestville Memorial Hall, Starkey St", "network": "Transport Buses", "network:wikidata": "Q5001345", "public_transport": "platform", "ref": "208715", "shelter": "yes", "tactile_paving": "yes"}}, {"type": "node", "id": 752353899, "lat": -33.7650039, "lon": 151.210689, "tags": {"bus": "yes", "gtfs:stop_id": "208747", "highway": "bus_stop", "name": "Melwood Oval, Melwood Av", "network": "Transport Buses", "network:wikidata": "Q5001345", "public_transport": "platform", "ref": "208747"}}, {"type": "node", "id": 752353907, "lat": -33.7641722, "lon": 151.2132921, "tags": {"bus": "yes", "gtfs:stop_id": "208748", "highway": "bus_stop", "name": "Cannons Pde at Darley St", "network": "Transport Buses", "network:wikidata": "Q5001345", "public_transport": "platform", "ref": "208748"}}, {"type": "node", "id": 752353924, "lat": -33.7629168, "lon": 151.2162312, "tags": {"bus": "yes", "gtfs:stop_id": "208750", "highway": "bus_stop", "name": "Starkey St at Violet Av", "network": "Transport Buses", "network:wikidata": "Q5001345", "public_transport": "platform", "ref": "208750"}}, {"type": "node", "id": 752353926, "lat": -33.7628672, "lon": 151.2163847, "tags": {"bus": "yes", "gtfs:stop_id": "208716", "highway": "bus_stop", "name": "Starkey St opp Tyrone Av", "network": "Transport Buses", "network:wikidata": "Q5001345", "public_transport": "platform", "ref": "208716"}}, {"type": "node", "id": 752622799, "lat": -33.774898, "lon": 151.2184185, "tags": {"bus": "yes", "gtfs:stop_id": "208731", "highway": "bus_stop", "name": "Starkey St at Tramore Pl", "network": "Transport Buses", "network:wikidata": "Q5001345", "public_transport": "platform", "ref": "208731"}}, {"type": "node", "id": 817127075, "lat": -33.7991908, "lon": 151.1277629, "tags": {"bus": "yes", "gtfs:stop_id": "211358", "highway": "bus_stop", "name": "Coxs Rd after Blamey St", "network": "Transport Buses", "network:wikidata": "Q5001345", "public_transport": "platform", "ref": "211358"}}, {"type": "node", "id": 943856631, "lat": -33.7758757, "lon": 151.1287143, "tags": {"bench": "yes", "bin": "no", "bus": "yes", "gtfs:stop_id": "2113196", "highway": "bus_stop", "lit": "no", "name": "Fontenoy Rd at Khartoum Rd", "network": "Transport Buses", "network:wikidata": "Q5001345", "public_transport": "platform", "ref": "2113196", "shelter": "yes", "tactile_paving": "yes"}}, {"type": "node", "id": 943856640, "lat": -33.775993, "lon": 151.1286321, "tags": {"bench": "yes", "bin": "no", "bus": "yes", "gtfs:stop_id": "2113195", "highway": "bus_stop", "lit": "no", "name": "Fontenoy Rd at Khartoum Rd", "network": "Transport Buses", "network:wikidata": "Q5001345", "public_transport": "platform", "ref": "2113195", "shelter": "yes", "tactile_paving": "yes"}}, {"type": "node", "id": 943856650, "lat": -33.7795714, "lon": 151.1335131, "tags": {"bench": "yes", "bin": "no", "bus": "yes", "gtfs:stop_id": "2113189", "highway": "bus_stop", "lit": "yes", "name": "Fontenoy Rd after Lane Cove Rd", "network": "Transport Buses", "network:wikidata": "Q5001345", "public_transport": "platform", "ref": "2113189", "shelter": "yes", "tactile_paving": "no"}}, {"type": "node", "id": 943856661, "lat": -33.779152, "lon": 151.1332263, "tags": {"bench": "yes", "bin": "no", "bus": "yes", "check_date:shelter": "2021-12-29", "highway": "bus_stop", "lit": "yes", "name": "Fontenoy Rd before Lane Cove Rd", "network": "Transport Buses", "network:wikidata": "Q5001345", "public_transport": "platform", "ref": "2113190", "shelter": "yes", "tactile_paving": "no"}}, {"type": "node", "id": 943856662, "lat": -33.7781501, "lon": 151.131568, "tags": {"bench": "yes", "bin": "no", "bus": "yes", "check_date:shelter": "2021-12-29", "gtfs:stop_id": "2113191", "highway": "bus_stop", "lit": "no", "name": "Fontenoy Rd opp Tuckwell Pl", "network": "Transport Buses", "network:wikidata": "Q5001345", "public_transport": "platform", "ref": "2113191", "shelter": "yes", "tactile_paving": "yes"}}, {"type": "node", "id": 943856670, "lat": -33.7777764, "lon": 151.1313656, "tags": {"bench": "no", "bin": "no", "bus": "yes", "gtfs:stop_id": "2113192", "highway": "bus_stop", "lit": "yes", "name": "Fontenoy Rd before Tuckwell Pl", "network": "Transport Buses", "network:wikidata": "Q5001345", "public_transport": "platform", "ref": "2113192", "shelter": "no", "tactile_paving": "no"}}, {"type": "node", "id": 943856677, "lat": -33.7770886, "lon": 151.1301272, "tags": {"bench": "no", "bin": "no", "bus": "yes", "gtfs:stop_id": "2113193", "highway": "bus_stop", "lit": "no", "name": "Fontenoy Rd opp Fontenoy Park", "network": "Transport Buses", "network:wikidata": "Q5001345", "public_transport": "platform", "ref": "2113193", "shelter": "no", "tactile_paving": "no"}}, {"type": "node", "id": 943856687, "lat": -33.7767176, "lon": 151.1298701, "tags": {"bench": "no", "bin": "no", "bus": "yes", "check_date:shelter": "2024-07-11", "departures_board": "timetable", "gtfs:stop_id": "2113194", "highway": "bus_stop", "lit": "no", "name": "Fontenoy Park, Fontenoy Rd", "network": "Transport Buses", "network:wikidata": "Q5001345", "operator": "NSW Transport", "public_transport": "platform", "ref": "2113194", "shelter": "no", "tactile_paving": "no"}}, {"type": "node", "id": 951237969, "lat": -33.7835271, "lon": 151.1302721, "tags": {"bench": "no", "bin": "yes", "bus": "yes", "gtfs:stop_id": "2113201", "highway": "bus_stop", "lit": "no", "name": "Lane Cove Rd after Talavera Rd", "network": "Transport Buses", "network:wikidata": "Q5001345", "public_transport": "platform", "ref": "2113201", "shelter": "no", "tactile_paving": "yes"}}, {"type": "node", "id": 951237971, "lat": -33.7786067, "lon": 151.1260235, "tags": {"bench": "yes", "bin": "no", "bus": "yes", "gtfs:stop_id": "211379", "highway": "bus_stop", "lit": "no", "name": "Talavera Rd after Khartoum Rd", "network": "Transport Buses", "network:wikidata": "Q5001345", "public_transport": "platform", "ref": "211379", "shelter": "yes", "tactile_paving": "no"}}, {"type": "node", "id": 951237972, "lat": -33.7856277, "lon": 151.1277148, "tags": {"bench": "yes", "bin": "no", "bus": "yes", "gtfs:stop_id": "2113206", "highway": "bus_stop", "lit": "yes", "local_ref": "B", "name": "Macquarie Park Station, Lane Cove Rd, Stand B", "network": "Transport Buses", "network:wikidata": "Q5001345", "public_transport": "platform", "ref": "2113206", "shelter": "yes", "source": "survey", "tactile_paving": "yes"}}, {"type": "node", "id": 951237980, "lat": -33.7802507, "lon": 151.1333434, "tags": {"bench": "no", "bin": "no", "bus": "yes", "gtfs:stop_id": "2113188", "highway": "bus_stop", "lit": "yes", "name": "Lane Cove Rd opp Eden Gardens", "network": "Transport Buses", "network:wikidata": "Q5001345", "public_transport": "platform", "ref": "2113188", "shelter": "no", "tactile_paving": "yes"}}, {"type": "node", "id": 951237987, "lat": -33.7787164, "lon": 151.1259234, "tags": {"bench": "yes", "bin": "no", "bus": "yes", "gtfs:stop_id": "211374", "highway": "bus_stop", "lit": "no", "name": "Talavera Rd at Khartoum Rd", "network": "Transport Buses", "network:wikidata": "Q5001345", "public_transport": "platform", "ref": "211374", "shelter": "yes", "tactile_paving": "no"}}, {"type": "node", "id": 951238001, "lat": -33.7835804, "lon": 151.1261562, "tags": {"bench": "no", "bus": "yes", "gtfs:stop_id": "2113219", "highway": "bus_stop", "name": "Waterloo Rd after Coolinga St", "network": "Transport Buses", "network:wikidata": "Q5001345", "public_transport": "platform", "ref": "2113219", "shelter": "yes", "source": "survey", "tactile_paving": "yes"}}, {"type": "node", "id": 951238002, "lat": -33.7828748, "lon": 151.1305919, "tags": {"bench": "yes", "bin": "yes", "bus": "yes", "gtfs:stop_id": "2113207", "highway": "bus_stop", "lit": "yes", "name": "Lane Cove Rd before Talavera Rd", "network": "Transport Buses", "network:wikidata": "Q5001345", "public_transport": "platform", "ref": "2113207", "shelter": "yes", "tactile_paving": "yes"}}, {"type": "node", "id": 951238012, "lat": -33.7845589, "lon": 151.1278922, "tags": {"bench": "no", "bus": "yes", "gtfs:stop_id": "2113310", "highway": "bus_stop", "local_ref": "C", "name": "Macquarie Park Station, Waterloo Rd, Stand F", "network": "Transport Buses", "network:wikidata": "Q5001345", "public_transport": "platform", "ref": "2113310", "shelter": "no", "tactile_paving": "yes"}}, {"type": "node", "id": 951238015, "lat": -33.7808794, "lon": 151.1291663, "tags": {"bench": "yes", "bin": "no", "bus": "yes", "gtfs:stop_id": "211380", "highway": "bus_stop", "lit": "no", "name": "Talavera Rd before Lane Cove Rd", "network": "Transport Buses", "network:wikidata": "Q5001345", "public_transport": "platform", "ref": "211380", "shelter": "yes", "tactile_paving": "no"}}, {"type": "node", "id": 951238019, "lat": -33.7831957, "lon": 151.1260747, "tags": {"bench": "yes", "bus": "yes", "gtfs:stop_id": "2113226", "highway": "bus_stop", "name": "Waterloo Rd opp Coolinga St", "network": "Transport Buses", "network:wikidata": "Q5001345", "public_transport": "platform", "ref": "2113226", "shelter": "yes", "source": "survey", "tactile_paving": "no"}}, {"type": "node", "id": 951238021, "lat": -33.7795144, "lon": 151.1344475, "tags": {"bench": "no", "bin": "no", "bus": "yes", "departures_board": "timetable", "gtfs:stop_id": "2113312", "highway": "bus_stop", "lit": "yes", "name": "Eden Gardens, Lane Cove Rd", "network": "Transport Buses", "network:wikidata": "Q5001345", "public_transport": "platform", "ref": "2113312", "shelter": "no", "tactile_paving": "no"}}, {"type": "node", "id": 951238025, "lat": -33.7845875, "lon": 151.1275352, "tags": {"bench": "yes", "bus": "yes", "gtfs:stop_id": "2113311", "highway": "bus_stop", "local_ref": "C", "name": "Macquarie Park Station, Waterloo Rd, Stand C", "network": "Transport Buses", "network:wikidata": "Q5001345", "public_transport": "platform", "ref": "2113311", "shelter": "yes", "source": "survey", "tactile_paving": "no"}}, {"type": "node", "id": 951238028, "lat": -33.7806846, "lon": 151.1286324, "tags": {"bench": "yes", "bin": "no", "bus": "yes", "gtfs:stop_id": "211373", "highway": "bus_stop", "lit": "no", "name": "15 Talavera Rd", "network": "Transport Buses", "network:wikidata": "Q5001345", "public_transport": "platform", "ref": "211373", "shelter": "yes", "tactile_paving": "no"}}, {"type": "node", "id": 951238029, "lat": -33.785915, "lon": 151.1278825, "tags": {"bench": "yes", "bin": "yes", "bus": "yes", "gtfs:stop_id": "2113202", "highway": "bus_stop", "lit": "no", "name": "Macquarie Park Station, Lane Cove Rd, Stand A", "network": "Transport Buses", "network:wikidata": "Q5001345", "public_transport": "platform", "ref": "2113202", "shelter": "yes", "source": "survey", "tactile_paving": "no"}}, {"type": "node", "id": 954424282, "lat": -33.7885705, "lon": 151.1273595, "tags": {"bench": "yes", "bus": "yes", "gtfs:stop_id": "2113243", "highway": "bus_stop", "name": "Epping Rd after Lane Cove Rd", "network": "Transport Buses", "network:wikidata": "Q5001345", "public_transport": "platform", "ref": "2113243", "shelter": "yes", "tactile_paving": "no"}}, {"type": "node", "id": 954424297, "lat": -33.7868266, "lon": 151.1263239, "tags": {"bench": "no", "bus": "yes", "highway": "bus_stop", "name": "Lane Cove Rd after Epping Rd", "public_transport": "platform", "ref": "2113216", "shelter": "no", "source": "survey"}}, {"type": "node", "id": 1060251853, "lat": -33.8097936, "lon": 151.1323791, "tags": {"bus": "yes", "highway": "bus_stop", "name": "Sager Place Centre, Sager Pl", "network": "Transport Buses", "network:wikidata": "Q5001345", "public_transport": "platform", "ref": "211385"}}, {"type": "node", "id": 1334513395, "lat": -33.7855807, "lon": 151.1288434, "tags": {"bench": "yes", "bus": "yes", "gtfs:stop_id": "2113324", "highway": "bus_stop", "local_ref": "D", "name": "Macquarie Park Station, Waterloo Rd, Stand D", "network": "Transport Buses", "network:wikidata": "Q5001345", "public_transport": "platform", "ref": "2113324", "shelter": "yes", "source": "survey", "tactile_paving": "no"}}, {"type": "node", "id": 1388085311, "lat": -33.8221887, "lon": 151.1541661, "tags": {"bus": "yes", "gtfs:stop_id": "2066172", "highway": "bus_stop", "name": "Riverview St before Kooyong Rd", "network": "Transport Buses", "network:wikidata": "Q5001345", "public_transport": "platform", "ref": "2066172", "wheelchair": "limited"}}, {"type": "node", "id": 1406765364, "lat": -33.8228301, "lon": 151.153219, "tags": {"bus": "yes", "gtfs:stop_id": "2066171", "highway": "bus_stop", "name": "Riverview St after Coonah Pde", "network": "Transport Buses", "network:wikidata": "Q5001345", "public_transport": "platform", "ref": "2066171"}}, {"type": "node", "id": 1425704880, "lat": -33.8058595, "lon": 151.1529544, "tags": {"bench": "yes", "bin": "no", "bus": "yes", "gtfs:stop_id": "2066230", "highway": "bus_stop", "name": "Epping Rd opp Sam Johnson Way", "network": "Transport Buses", "network:wikidata": "Q5001345", "public_transport": "platform", "ref": "2066230", "shelter": "yes"}}, {"type": "node", "id": 1425705447, "lat": -33.8096568, "lon": 151.1578734, "tags": {"bench": "yes", "bin": "no", "bus": "yes", "departures_board": "timetable", "gtfs:stop_id": "2066247", "highway": "bus_stop", "name": "Epping Rd after Fraser St", "network": "Transport Buses", "network:wikidata": "Q5001345", "public_transport": "platform", "ref": "2066247", "shelter": "no", "tactile_paving": "no"}}, {"type": "node", "id": 1425705578, "lat": -33.8099578, "lon": 151.1598109, "tags": {"bench": "yes", "bin": "no", "bus": "yes", "departures_board": "timetable", "gtfs:stop_id": "2066240", "highway": "bus_stop", "name": "Tantallon Oval, Epping Rd", "network": "Transport Buses", "network:wikidata": "Q5001345", "public_transport": "platform", "ref": "2066240", "shelter": "yes", "tactile_paving": "yes"}}, {"type": "node", "id": 1425705708, "lat": -33.8104921, "lon": 151.1632151, "tags": {"bench": "yes", "bin": "no", "bus": "yes", "gtfs:stop_id": "206617", "highway": "bus_stop", "lit": "yes", "name": "Epping Rd at Wingadee St", "network": "Transport Buses", "network:wikidata": "Q5001345", "public_transport": "platform", "ref": "206617", "shelter": "yes", "tactile_paving": "yes"}}, {"type": "node", "id": 1461865848, "lat": -33.8206653, "lon": 151.1320486, "tags": {"bus": "yes", "gtfs:stop_id": "211153", "highway": "bus_stop", "name": "Thompson St at The Strand", "network": "Transport Buses", "network:wikidata": "Q5001345", "public_transport": "platform", "ref": "211153"}}, {"type": "node", "id": 1556693559, "lat": -33.7330312, "lon": 151.1290516}, {"type": "node", "id": 1556693560, "lat": -33.7330064, "lon": 151.129096}, {"type": "node", "id": 1556693562, "lat": -33.733227, "lon": 151.1292564}, {"type": "node", "id": 1556693563, "lat": -33.7338237, "lon": 151.1298894}, {"type": "node", "id": 1556693564, "lat": -33.7338405, "lon": 151.1298559}, {"type": "node", "id": 1556693565, "lat": -33.7413987, "lon": 151.1367856}, {"type": "node", "id": 1556693567, "lat": -33.7414186, "lon": 151.1367422}, {"type": "node", "id": 1556693569, "lat": -33.7417414, "lon": 151.1370953}, {"type": "node", "id": 1556693570, "lat": -33.7417613, "lon": 151.1370661}, {"type": "node", "id": 1556693578, "lat": -33.7420638, "lon": 151.1374203}, {"type": "node", "id": 1556693579, "lat": -33.7420907, "lon": 151.1373976}, {"type": "node", "id": 1556693580, "lat": -33.7424066, "lon": 151.1377885}, {"type": "node", "id": 1556693581, "lat": -33.7424289, "lon": 151.1377577}, {"type": "node", "id": 1556693582, "lat": -33.7427267, "lon": 151.1381882}, {"type": "node", "id": 1556693584, "lat": -33.7427479, "lon": 151.1381613}, {"type": "node", "id": 1556693585, "lat": -33.7430713, "lon": 151.1386576}, {"type": "node", "id": 1556693587, "lat": -33.7430958, "lon": 151.1386321}, {"type": "node", "id": 1556693596, "lat": -33.7433367, "lon": 151.1390572}, {"type": "node", "id": 1556693597, "lat": -33.7433623, "lon": 151.1390317}, {"type": "node", "id": 1556693598, "lat": -33.7435731, "lon": 151.1394595}, {"type": "node", "id": 1556693599, "lat": -33.7436054, "lon": 151.1394408}, {"type": "node", "id": 1556693600, "lat": -33.7437906, "lon": 151.1398713}, {"type": "node", "id": 1556693601, "lat": -33.7438229, "lon": 151.1398592}, {"type": "node", "id": 1556693602, "lat": -33.7439612, "lon": 151.1402602}, {"type": "node", "id": 1556693604, "lat": -33.7440069, "lon": 151.1402481}, {"type": "node", "id": 1556693607, "lat": -33.7441273, "lon": 151.1406652}, {"type": "node", "id": 1556693615, "lat": -33.7442088, "lon": 151.1406799}, {"type": "node", "id": 1556693616, "lat": -33.7442578, "lon": 151.1409951}, {"type": "node", "id": 1556693618, "lat": -33.7443939, "lon": 151.1410756}, {"type": "node", "id": 1556693619, "lat": -33.7444987, "lon": 151.1416053}, {"type": "node", "id": 1556693620, "lat": -33.7445996, "lon": 151.1415115, "tags": {"exit:carriages:forward": "no|no|no|no|stairs|lift|no|no", "local_ref": "2", "name": "Pymble", "public_transport": "stop_position", "railway": "stop", "ref": "2073162", "side": "right", "train": "yes", "wheelchair": "yes"}}, {"type": "node", "id": 1556693621, "lat": -33.7447485, "lon": 151.1419124}, {"type": "node", "id": 1556693623, "lat": -33.7448338, "lon": 151.1426232}, {"type": "node", "id": 1556693625, "lat": -33.7448489, "lon": 151.1422584}, {"type": "node", "id": 1556693627, "lat": -33.7449667, "lon": 151.1429924}, {"type": "node", "id": 1556693633, "lat": -33.7449593, "lon": 151.1426889}, {"type": "node", "id": 1556693634, "lat": -33.7450357, "lon": 151.1429621}, {"type": "node", "id": 1556693636, "lat": -33.7450546, "lon": 151.143216}, {"type": "node", "id": 1556693637, "lat": -33.7451087, "lon": 151.1431905}, {"type": "node", "id": 1556693638, "lat": -33.7451773, "lon": 151.1435003}, {"type": "node", "id": 1556693640, "lat": -33.7452152, "lon": 151.1434735}, {"type": "node", "id": 1556693642, "lat": -33.7453217, "lon": 151.1438114}, {"type": "node", "id": 1556693643, "lat": -33.7453574, "lon": 151.1437913}, {"type": "node", "id": 1556693656, "lat": -33.7455057, "lon": 151.1441615}, {"type": "node", "id": 1556693657, "lat": -33.7455336, "lon": 151.14414}, {"type": "node", "id": 1556693658, "lat": -33.7456685, "lon": 151.1444283}, {"type": "node", "id": 1556693659, "lat": -33.7456975, "lon": 151.1444096}, {"type": "node", "id": 1556693660, "lat": -33.745828, "lon": 151.1446442}, {"type": "node", "id": 1556693662, "lat": -33.7458525, "lon": 151.1446255}, {"type": "node", "id": 1556693666, "lat": -33.7459528, "lon": 151.1448052}, {"type": "node", "id": 1556693668, "lat": -33.7459818, "lon": 151.1447904}, {"type": "node", "id": 1556693670, "lat": -33.746177, "lon": 151.145056}, {"type": "node", "id": 1556693676, "lat": -33.7461803, "lon": 151.145009}, {"type": "node", "id": 1556693678, "lat": -33.7464167, "lon": 151.1452773}, {"type": "node", "id": 1556693679, "lat": -33.746429, "lon": 151.1452518}, {"type": "node", "id": 1556693680, "lat": -33.746671, "lon": 151.1454798}, {"type": "node", "id": 1556693682, "lat": -33.7466855, "lon": 151.1454422}, {"type": "node", "id": 1556693684, "lat": -33.7469375, "lon": 151.1456514}, {"type": "node", "id": 1556693686, "lat": -33.7469418, "lon": 151.1456181}, {"type": "node", "id": 1556693688, "lat": -33.7473555, "lon": 151.1458667, "tags": {"railway": "hirail_access", "surface": "unpaved"}}, {"type": "node", "id": 1556693690, "lat": -33.7473675, "lon": 151.1458328, "tags": {"railway": "hirail_access", "surface": "unpaved"}}, {"type": "node", "id": 1556693695, "lat": -33.7475453, "lon": 151.1459518}, {"type": "node", "id": 1556693697, "lat": -33.7475553, "lon": 151.1459156}, {"type": "node", "id": 1556693699, "lat": -33.7480671, "lon": 151.146204}, {"type": "node", "id": 1556693701, "lat": -33.7480805, "lon": 151.1461637}, {"type": "node", "id": 1556693704, "lat": -33.7485589, "lon": 151.1464454}, {"type": "node", "id": 1556693706, "lat": -33.7485767, "lon": 151.1464065}, {"type": "node", "id": 1556693708, "lat": -33.749044, "lon": 151.1467042}, {"type": "node", "id": 1556693710, "lat": -33.7490607, "lon": 151.146668}, {"type": "node", "id": 1556693714, "lat": -33.7495375, "lon": 151.1469989}, {"type": "node", "id": 1556693716, "lat": -33.7495533, "lon": 151.1469609}, {"type": "node", "id": 1556693718, "lat": -33.7500396, "lon": 151.1472827}, {"type": "node", "id": 1556693720, "lat": -33.7500569, "lon": 151.1472427}, {"type": "node", "id": 1556693722, "lat": -33.7504318, "lon": 151.1475307}, {"type": "node", "id": 1556693724, "lat": -33.7504498, "lon": 151.1474944}, {"type": "node", "id": 1556693726, "lat": -33.7506506, "lon": 151.1476914}, {"type": "node", "id": 1556693729, "lat": -33.7506719, "lon": 151.1476622}, {"type": "node", "id": 1556693731, "lat": -33.7508531, "lon": 151.1478924}, {"type": "node", "id": 1556693735, "lat": -33.7508765, "lon": 151.1478577}, {"type": "node", "id": 1556693737, "lat": -33.7511711, "lon": 151.1482452}, {"type": "node", "id": 1556693739, "lat": -33.7511986, "lon": 151.1482145}, {"type": "node", "id": 1556693742, "lat": -33.7514006, "lon": 151.1485604}, {"type": "node", "id": 1556693744, "lat": -33.7514282, "lon": 151.1485343}, {"type": "node", "id": 1556693746, "lat": -33.7516087, "lon": 151.1488741}, {"type": "node", "id": 1556693747, "lat": -33.7516388, "lon": 151.1488526}, {"type": "node", "id": 1556693748, "lat": -33.7517904, "lon": 151.1492268}, {"type": "node", "id": 1556693749, "lat": -33.7518239, "lon": 151.1492053}, {"type": "node", "id": 1556693755, "lat": -33.7519465, "lon": 151.1495929}, {"type": "node", "id": 1556693757, "lat": -33.75198, "lon": 151.1495741}, {"type": "node", "id": 1556693759, "lat": -33.7520817, "lon": 151.1499957}, {"type": "node", "id": 1556693762, "lat": -33.7521227, "lon": 151.1499993}, {"type": "node", "id": 1556693764, "lat": -33.7522621, "lon": 151.1505907}, {"type": "node", "id": 1556693766, "lat": -33.7522966, "lon": 151.150576}, {"type": "node", "id": 1556693767, "lat": -33.7523892, "lon": 151.1509582}, {"type": "node", "id": 1556693768, "lat": -33.7524204, "lon": 151.1509407}, {"type": "node", "id": 1556693774, "lat": -33.7525275, "lon": 151.151276}, {"type": "node", "id": 1556693775, "lat": -33.7525565, "lon": 151.1512505}, {"type": "node", "id": 1556693777, "lat": -33.7526981, "lon": 151.1515939}, {"type": "node", "id": 1556693779, "lat": -33.7527271, "lon": 151.1515711}, {"type": "node", "id": 1556693781, "lat": -33.7528887, "lon": 151.1518929}, {"type": "node", "id": 1556693783, "lat": -33.7529133, "lon": 151.1518648}, {"type": "node", "id": 1556693785, "lat": -33.7531017, "lon": 151.1521678}, {"type": "node", "id": 1556693786, "lat": -33.753124, "lon": 151.1521357}, {"type": "node", "id": 1556693788, "lat": -33.7533292, "lon": 151.1524267}, {"type": "node", "id": 1556693792, "lat": -33.7533537, "lon": 151.1523918}, {"type": "node", "id": 1556693794, "lat": -33.7535767, "lon": 151.152656}, {"type": "node", "id": 1556693798, "lat": -33.7535979, "lon": 151.1526198}, {"type": "node", "id": 1556693800, "lat": -33.7538454, "lon": 151.1528639}, {"type": "node", "id": 1556693802, "lat": -33.7538633, "lon": 151.152833}, {"type": "node", "id": 1556693803, "lat": -33.7543004, "lon": 151.1532112}, {"type": "node", "id": 1556693804, "lat": -33.7543171, "lon": 151.1531764}, {"type": "node", "id": 1556693805, "lat": -33.7545089, "lon": 151.1533722, "tags": {"railway": "switch"}}, {"type": "node", "id": 1556693806, "lat": -33.7545033, "lon": 151.1533185}, {"type": "node", "id": 1556693814, "lat": -33.7547029, "lon": 151.1534781, "tags": {"railway": "switch"}}, {"type": "node", "id": 1556693817, "lat": -33.7547632, "lon": 151.1536033}, {"type": "node", "id": 1556693819, "lat": -33.7550486, "lon": 151.1537825, "tags": {"railway": "switch"}}, {"type": "node", "id": 1556693820, "lat": -33.7550307, "lon": 151.1537238}, {"type": "node", "id": 1556693821, "lat": -33.7551065, "lon": 151.1538764}, {"type": "node", "id": 1556693822, "lat": -33.7552642, "lon": 151.1538786}, {"type": "node", "id": 1556693823, "lat": -33.7552638, "lon": 151.1539944}, {"type": "node", "id": 1556693824, "lat": -33.7554533, "lon": 151.1541393}, {"type": "node", "id": 1556693832, "lat": -33.7554755, "lon": 151.1541053}, {"type": "node", "id": 1556693834, "lat": -33.755508, "lon": 151.1540132, "tags": {"exit:carriages:forward": "no|no|lift|stairs|no|no|no|no", "local_ref": "3", "name": "Gordon", "public_transport": "stop_position", "railway": "stop", "ref": "207263", "side": "right", "train": "yes", "wheelchair": "yes"}}, {"type": "node", "id": 1556693836, "lat": -33.755693, "lon": 151.1541151}, {"type": "node", "id": 1556693838, "lat": -33.7559316, "lon": 151.1542621}, {"type": "node", "id": 1556693839, "lat": -33.756061, "lon": 151.1543471}, {"type": "node", "id": 1556693841, "lat": -33.7562327, "lon": 151.1544745}, {"type": "node", "id": 1556693842, "lat": -33.7564144, "lon": 151.1546305}, {"type": "node", "id": 1556693843, "lat": -33.7564948, "lon": 151.1549305, "tags": {"exit:carriages:forward": "no|no|no|stairs|no|lift;ramp|no|no", "local_ref": "1", "name": "Gordon", "public_transport": "stop_position", "railway": "stop", "ref": "207261", "side": "left", "train": "yes", "wheelchair": "yes"}}, {"type": "node", "id": 1556693844, "lat": -33.7566508, "lon": 151.1550073, "tags": {"railway": "switch"}}, {"type": "node", "id": 1556693853, "lat": -33.7566978, "lon": 151.1550937}, {"type": "node", "id": 1556693855, "lat": -33.7567694, "lon": 151.1549711}, {"type": "node", "id": 1556693856, "lat": -33.7569224, "lon": 151.155191}, {"type": "node", "id": 1556693857, "lat": -33.756943, "lon": 151.1551277}, {"type": "node", "id": 1556693858, "lat": -33.7569766, "lon": 151.1552884}, {"type": "node", "id": 1556693859, "lat": -33.7571024, "lon": 151.1552604}, {"type": "node", "id": 1556693860, "lat": -33.7571583, "lon": 151.1553936, "tags": {"railway": "switch"}}, {"type": "node", "id": 1556693861, "lat": -33.7571734, "lon": 151.1553168}, {"type": "node", "id": 1556693862, "lat": -33.7572129, "lon": 151.1553798}, {"type": "node", "id": 1556693866, "lat": -33.7572603, "lon": 151.1554674}, {"type": "node", "id": 1556693867, "lat": -33.7572801, "lon": 151.1554295}, {"type": "node", "id": 1556693868, "lat": -33.7572914, "lon": 151.155408}, {"type": "node", "id": 1556693870, "lat": -33.7573702, "lon": 151.1555476}, {"type": "node", "id": 1556693871, "lat": -33.757394, "lon": 151.1555021}, {"type": "node", "id": 1556693872, "lat": -33.7574002, "lon": 151.1554904}, {"type": "node", "id": 1556693873, "lat": -33.7575629, "lon": 151.1556218, "tags": {"railway": "switch"}}, {"type": "node", "id": 1556693875, "lat": -33.7578449, "lon": 151.1558366}, {"type": "node", "id": 1556693876, "lat": -33.7581509, "lon": 151.1560832}, {"type": "node", "id": 1556693877, "lat": -33.7647587, "lon": 151.1611681}, {"type": "node", "id": 1556693878, "lat": -33.7643824, "lon": 151.1608334}, {"type": "node", "id": 1556693880, "lat": -33.7650066, "lon": 151.1613856}, {"type": "node", "id": 1556693881, "lat": -33.7651231, "lon": 151.1613326}, {"type": "node", "id": 1556693882, "lat": -33.7652285, "lon": 151.1615825}, {"type": "node", "id": 1556693883, "lat": -33.7653213, "lon": 151.1614714}, {"type": "node", "id": 1556693884, "lat": -33.7653996, "lon": 151.1617252}, {"type": "node", "id": 1556693886, "lat": -33.7654911, "lon": 151.1615964}, {"type": "node", "id": 1556693887, "lat": -33.7655591, "lon": 151.1618437}, {"type": "node", "id": 1556693888, "lat": -33.7656456, "lon": 151.1617162}, {"type": "node", "id": 1556693889, "lat": -33.7658354, "lon": 151.1620347, "tags": {"exit:carriages:forward": "no|lift|stairs|no|no|no|no|no", "local_ref": "1", "name": "Killara", "public_transport": "stop_position", "railway": "stop", "ref": "207191", "side": "right", "train": "yes", "wheelchair": "yes"}}, {"type": "node", "id": 1556693890, "lat": -33.765891, "lon": 151.1619208}, {"type": "node", "id": 1556693891, "lat": -33.7661683, "lon": 151.1622628}, {"type": "node", "id": 1556693892, "lat": -33.7662104, "lon": 151.1622032}, {"type": "node", "id": 1556693893, "lat": -33.766385, "lon": 151.1624168}, {"type": "node", "id": 1556693895, "lat": -33.7664028, "lon": 151.1623778}, {"type": "node", "id": 1556693896, "lat": -33.7677858, "lon": 151.163489}, {"type": "node", "id": 1556693897, "lat": -33.7678044, "lon": 151.1634522}, {"type": "node", "id": 1556693898, "lat": -33.7687308, "lon": 151.1642024}, {"type": "node", "id": 1556693900, "lat": -33.7687461, "lon": 151.1641674}, {"type": "node", "id": 1556693901, "lat": -33.7722713, "lon": 151.1669009}, {"type": "node", "id": 1556693902, "lat": -33.772291, "lon": 151.1668656}, {"type": "node", "id": 1556693903, "lat": -33.7736336, "lon": 151.1678824}, {"type": "node", "id": 1556693904, "lat": -33.7737906, "lon": 151.1680699}, {"type": "node", "id": 1556693906, "lat": -33.7738148, "lon": 151.168021}, {"type": "node", "id": 1556693907, "lat": -33.7739052, "lon": 151.1681669}, {"type": "node", "id": 1556693908, "lat": -33.7739341, "lon": 151.1681056}, {"type": "node", "id": 1556693909, "lat": -33.7740257, "lon": 151.1682159, "tags": {"railway": "buffer_stop"}}, {"type": "node", "id": 1556693910, "lat": -33.7740262, "lon": 151.1681677}, {"type": "node", "id": 1556693911, "lat": -33.7741969, "lon": 151.1684015}, {"type": "node", "id": 1556693912, "lat": -33.774242, "lon": 151.1683141, "tags": {"railway": "signal", "railway:signal:direction": "forward", "railway:signal:position": "left", "railway:signal:speed_limit": "AU:NSW:general", "railway:signal:speed_limit:form": "sign", "railway:signal:speed_limit:speed": "75"}}, {"type": "node", "id": 1556693914, "lat": -33.7745026, "lon": 151.1686466}, {"type": "node", "id": 1556693915, "lat": -33.7745543, "lon": 151.1685118}, {"type": "node", "id": 1556693916, "lat": -33.7746275, "lon": 151.1686877}, {"type": "node", "id": 1556693918, "lat": -33.7746372, "lon": 151.1687477}, {"type": "node", "id": 1556693919, "lat": -33.774698, "lon": 151.168598, "tags": {"exit:carriages:forward": "no|no|no|no|no|stairs|no|lift", "local_ref": "3", "name": "Lindfield", "public_transport": "stop_position", "railway": "stop", "ref": "2070143", "side": "right", "train": "yes", "wheelchair": "yes"}}, {"type": "node", "id": 1556693920, "lat": -33.7748485, "lon": 151.1689013}, {"type": "node", "id": 1556693921, "lat": -33.7750303, "lon": 151.1690251}, {"type": "node", "id": 1556693922, "lat": -33.7751381, "lon": 151.1690428}, {"type": "node", "id": 1556693923, "lat": -33.7752361, "lon": 151.1691554}, {"type": "node", "id": 1556693924, "lat": -33.7753231, "lon": 151.1689908}, {"type": "node", "id": 1556693929, "lat": -33.7753631, "lon": 151.1691858}, {"type": "node", "id": 1556693931, "lat": -33.7754396, "lon": 151.1692806}, {"type": "node", "id": 1556693933, "lat": -33.7756498, "lon": 151.1693995}, {"type": "node", "id": 1556693934, "lat": -33.7758868, "lon": 151.1693552}, {"type": "node", "id": 1556693935, "lat": -33.7758215, "lon": 151.1694903, "tags": {"railway": "signal", "railway:signal:direction": "forward", "railway:signal:position": "left", "railway:signal:stop": "AU:NSW:stop_position", "railway:signal:stop:form": "sign", "railway:signal:stop:states": "8"}}, {"type": "node", "id": 1556693937, "lat": -33.7758518, "lon": 151.1694598}, {"type": "node", "id": 1556693938, "lat": -33.7760859, "lon": 151.169479}, {"type": "node", "id": 1556693939, "lat": -33.7761852, "lon": 151.1696626}, {"type": "node", "id": 1556693941, "lat": -33.7761978, "lon": 151.1696156}, {"type": "node", "id": 1556693942, "lat": -33.7763587, "lon": 151.1696136}, {"type": "node", "id": 1556693943, "lat": -33.7764264, "lon": 151.1696918, "tags": {"railway": "switch"}}, {"type": "node", "id": 1556693944, "lat": -33.7764955, "lon": 151.1697597}, {"type": "node", "id": 1556693945, "lat": -33.7765205, "lon": 151.1696789}, {"type": "node", "id": 1556693946, "lat": -33.7766566, "lon": 151.1697591}, {"type": "node", "id": 1556693947, "lat": -33.7766503, "lon": 151.1697382}, {"type": "node", "id": 1556693948, "lat": -33.7766141, "lon": 151.1696995}, {"type": "node", "id": 1556693949, "lat": -33.7768038, "lon": 151.1698017}, {"type": "node", "id": 1556693951, "lat": -33.7768839, "lon": 151.1698333}, {"type": "node", "id": 1556693953, "lat": -33.7767539, "lon": 151.169739}, {"type": "node", "id": 1556693954, "lat": -33.7770712, "lon": 151.1698573, "tags": {"railway": "switch"}}, {"type": "node", "id": 1556693955, "lat": -33.7770747, "lon": 151.1698122, "tags": {"railway": "switch"}}, {"type": "node", "id": 1556693956, "lat": -33.77733, "lon": 151.1699038}, {"type": "node", "id": 1556693957, "lat": -33.7771969, "lon": 151.1698334, "tags": {"railway": "signal", "railway:signal:direction": "forward", "railway:signal:distant": "AU:NSW:distant", "railway:signal:distant:form": "light", "railway:signal:distant:states": "GYR", "railway:signal:main": "AU:NSW:main", "railway:signal:main:form": "light", "railway:signal:main:states": "GYR", "railway:signal:main:type": "staggered", "railway:signal:position": "left", "railway:signal:shunting": "AU:NSW:subsidiary", "railway:signal:shunting:form": "light", "railway:signal:shunting_route": "AU:NSW:stencil", "railway:signal:shunting_route:form": "light", "ref": "LD 3"}}, {"type": "node", "id": 1557879094, "lat": -33.7777465, "lon": 151.1699664}, {"type": "node", "id": 1557879098, "lat": -33.7777531, "lon": 151.1699249}, {"type": "node", "id": 1557879116, "lat": -33.7780936, "lon": 151.1700284, "tags": {"railway": "signal", "railway:signal:direction": "forward", "railway:signal:main_repeated": "AU:NSW:LED_repeater", "railway:signal:main_repeated:form": "light", "railway:signal:position": "left", "ref": "SH 8.82 REPEATER"}}, {"type": "node", "id": 1557879120, "lat": -33.7781705, "lon": 151.1699956}, {"type": "node", "id": 1557879122, "lat": -33.7785337, "lon": 151.1701311}, {"type": "node", "id": 1557879124, "lat": -33.7785439, "lon": 151.170094}, {"type": "node", "id": 1557879126, "lat": -33.7788459, "lon": 151.1702459, "tags": {"railway": "signal", "railway:signal:departure": "AU:NSW:EYL", "railway:signal:departure:form": "sign", "railway:signal:direction": "forward", "railway:signal:distant": "AU:NSW:distant", "railway:signal:distant:form": "light", "railway:signal:main": "AU:NSW:main", "railway:signal:main:form": "light", "railway:signal:main:states": "GR", "railway:signal:main:type": "staggered", "railway:signal:position": "left", "ref": "SH 8.82"}}, {"type": "node", "id": 1557879128, "lat": -33.778817, "lon": 151.1701827}, {"type": "node", "id": 1557879130, "lat": -33.7791986, "lon": 151.170388}, {"type": "node", "id": 1557879132, "lat": -33.7792134, "lon": 151.1703463}, {"type": "node", "id": 1557879135, "lat": -33.7795799, "lon": 151.1705821}, {"type": "node", "id": 1557879146, "lat": -33.7796005, "lon": 151.1705418}, {"type": "node", "id": 1557879148, "lat": -33.7799417, "lon": 151.1707958}, {"type": "node", "id": 1557879150, "lat": -33.77996, "lon": 151.1707608}, {"type": "node", "id": 1557879152, "lat": -33.7803002, "lon": 151.1710565}, {"type": "node", "id": 1557879153, "lat": -33.7803207, "lon": 151.1710201}, {"type": "node", "id": 1557879155, "lat": -33.7806538, "lon": 151.1713565}, {"type": "node", "id": 1557879157, "lat": -33.7806756, "lon": 151.1713251}, {"type": "node", "id": 1557879160, "lat": -33.7809504, "lon": 151.1716506}, {"type": "node", "id": 1557879162, "lat": -33.7808988, "lon": 151.1715359, "tags": {"railway": "signal", "railway:signal:direction": "forward", "railway:signal:distant": "AU:NSW:distant", "railway:signal:distant:form": "light", "railway:signal:main": "AU:NSW:main", "railway:signal:main:form": "light", "railway:signal:main:states": "GR", "railway:signal:main:type": "staggered", "railway:signal:position": "left"}}, {"type": "node", "id": 1557879173, "lat": -33.7812518, "lon": 151.1719936}, {"type": "node", "id": 1557879175, "lat": -33.7812817, "lon": 151.1719669}, {"type": "node", "id": 1557879176, "lat": -33.7815305, "lon": 151.1723524}, {"type": "node", "id": 1557879178, "lat": -33.7815605, "lon": 151.1723288}, {"type": "node", "id": 1557879180, "lat": -33.7818231, "lon": 151.1728037, "tags": {"railway": "signal", "railway:signal:direction": "forward", "railway:signal:distant": "AU:NSW:distant", "railway:signal:distant:form": "light", "railway:signal:main": "AU:NSW:main", "railway:signal:main:form": "light", "railway:signal:main:states": "GR", "railway:signal:main:type": "staggered", "railway:signal:position": "left"}}, {"type": "node", "id": 1557879181, "lat": -33.781814, "lon": 151.1727183}, {"type": "node", "id": 1557879184, "lat": -33.7820157, "lon": 151.1731487}, {"type": "node", "id": 1557879187, "lat": -33.7821573, "lon": 151.1733434, "tags": {"railway": "signal", "railway:signal:direction": "forward", "railway:signal:distant": "AU:NSW:distant", "railway:signal:distant:form": "light", "railway:signal:main": "AU:NSW:main", "railway:signal:main:form": "light", "railway:signal:main:states": "GR", "railway:signal:main:type": "staggered", "railway:signal:position": "left"}}, {"type": "node", "id": 1557879194, "lat": -33.7835185, "lon": 151.1759974}, {"type": "node", "id": 1557879197, "lat": -33.7836526, "lon": 151.1763544}, {"type": "node", "id": 1557879199, "lat": -33.7837935, "lon": 151.1764843, "tags": {"railway": "signal", "railway:signal:direction": "forward", "railway:signal:distant": "AU:NSW:distant", "railway:signal:distant:form": "light", "railway:signal:main": "AU:NSW:main", "railway:signal:main:form": "light", "railway:signal:main:states": "GR", "railway:signal:main:type": "staggered", "railway:signal:position": "left"}}, {"type": "node", "id": 1557879202, "lat": -33.78388, "lon": 151.1768323}, {"type": "node", "id": 1557879205, "lat": -33.7840877, "lon": 151.1769785}, {"type": "node", "id": 1557879207, "lat": -33.7840859, "lon": 151.1772133}, {"type": "node", "id": 1557879209, "lat": -33.7843192, "lon": 151.1776033}, {"type": "node", "id": 1557879211, "lat": -33.7843968, "lon": 151.1774954}, {"type": "node", "id": 1557879213, "lat": -33.7844889, "lon": 151.1778572}, {"type": "node", "id": 1557879217, "lat": -33.784611, "lon": 151.1778466}, {"type": "node", "id": 1557879219, "lat": -33.7846255, "lon": 151.1780357, "tags": {"railway": "signal", "railway:signal:direction": "forward", "railway:signal:distant": "AU:NSW:distant", "railway:signal:distant:form": "light", "railway:signal:distant:states": "GYR", "railway:signal:main": "AU:NSW:main", "railway:signal:main:form": "light", "railway:signal:main:states": "GR", "railway:signal:position": "left", "railway:signal:train_protection": "AU:NSW:A", "railway:signal:train_protection:form": "light"}}, {"type": "node", "id": 1557879220, "lat": -33.7847977, "lon": 151.178113}, {"type": "node", "id": 1557879223, "lat": -33.7849539, "lon": 151.1784359}, {"type": "node", "id": 1557879225, "lat": -33.7850299, "lon": 151.1784172}, {"type": "node", "id": 1557879228, "lat": -33.7852555, "lon": 151.1787421}, {"type": "node", "id": 1557879231, "lat": -33.7852893, "lon": 151.1787}, {"type": "node", "id": 1557879234, "lat": -33.7855645, "lon": 151.1790263}, {"type": "node", "id": 1557879236, "lat": -33.7855867, "lon": 151.1789874}, {"type": "node", "id": 1557879245, "lat": -33.7860006, "lon": 151.1793795, "tags": {"railway": "signal", "railway:signal:direction": "forward", "railway:signal:distant": "AU:NSW:distant", "railway:signal:distant:form": "light", "railway:signal:distant:states": "GYR", "railway:signal:main": "AU:NSW:main", "railway:signal:main:form": "light", "railway:signal:main:states": "GR", "railway:signal:position": "left", "railway:signal:train_protection": "AU:NSW:A", "railway:signal:train_protection:form": "light"}}, {"type": "node", "id": 1557879246, "lat": -33.7859969, "lon": 151.1793283}, {"type": "node", "id": 1557879247, "lat": -33.7863116, "lon": 151.1796036}, {"type": "node", "id": 1557879248, "lat": -33.7863495, "lon": 151.1795811}, {"type": "node", "id": 1557879249, "lat": -33.7865756, "lon": 151.179783}, {"type": "node", "id": 1557879250, "lat": -33.7867036, "lon": 151.1798117}, {"type": "node", "id": 1557879251, "lat": -33.786974, "lon": 151.1800207}, {"type": "node", "id": 1557879252, "lat": -33.7869851, "lon": 151.1799808}, {"type": "node", "id": 1557879262, "lat": -33.7870254, "lon": 151.1800466, "tags": {"railway": "signal", "railway:signal:direction": "forward", "railway:signal:position": "left", "railway:signal:speed_limit": "AU:NSW:general", "railway:signal:speed_limit:form": "sign", "railway:signal:speed_limit:speed": "80"}}, {"type": "node", "id": 1557879264, "lat": -33.7870383, "lon": 151.1800089}, {"type": "node", "id": 1557879266, "lat": -33.7872627, "lon": 151.1801707}, {"type": "node", "id": 1557879267, "lat": -33.787277, "lon": 151.1801289}, {"type": "node", "id": 1557879269, "lat": -33.787373, "lon": 151.1802199}, {"type": "node", "id": 1557879271, "lat": -33.7873899, "lon": 151.1801823}, {"type": "node", "id": 1557879272, "lat": -33.7875086, "lon": 151.1802786}, {"type": "node", "id": 1557879274, "lat": -33.7875228, "lon": 151.1802396}, {"type": "node", "id": 1557879276, "lat": -33.7881188, "lon": 151.1805298, "tags": {"railway": "signal", "railway:signal:direction": "forward", "railway:signal:distant": "AU:NSW:distant", "railway:signal:distant:form": "light", "railway:signal:distant:states": "GYR", "railway:signal:main": "AU:NSW:main", "railway:signal:main:form": "light", "railway:signal:main:states": "GR", "railway:signal:position": "left", "railway:signal:train_protection": "AU:NSW:A", "railway:signal:train_protection:form": "light"}}, {"type": "node", "id": 1557879278, "lat": -33.7878764, "lon": 151.1803704}, {"type": "node", "id": 1557879279, "lat": -33.7883497, "lon": 151.1806234}, {"type": "node", "id": 1557879280, "lat": -33.7883274, "lon": 151.1804921}, {"type": "node", "id": 1557879282, "lat": -33.788781, "lon": 151.1807662}, {"type": "node", "id": 1557879284, "lat": -33.7888364, "lon": 151.1805985}, {"type": "node", "id": 1557879285, "lat": -33.7889826, "lon": 151.1808202}, {"type": "node", "id": 1557879287, "lat": -33.789031, "lon": 151.1806275}, {"type": "node", "id": 1557879289, "lat": -33.789384, "lon": 151.1808925}, {"type": "node", "id": 1557879296, "lat": -33.7894057, "lon": 151.1806723}, {"type": "node", "id": 1557879298, "lat": -33.7894794, "lon": 151.1808091}, {"type": "node", "id": 1557879300, "lat": -33.7894883, "lon": 151.1807436}, {"type": "node", "id": 1557879301, "lat": -33.789705, "lon": 151.1808329}, {"type": "node", "id": 1557879302, "lat": -33.7897181, "lon": 151.1807678}, {"type": "node", "id": 1557879303, "lat": -33.7897135, "lon": 151.1809262}, {"type": "node", "id": 1557879304, "lat": -33.7897968, "lon": 151.1806987}, {"type": "node", "id": 1557879307, "lat": -33.7898504, "lon": 151.180844}, {"type": "node", "id": 1557879310, "lat": -33.7898524, "lon": 151.1807799}, {"type": "node", "id": 1557879311, "lat": -33.7900186, "lon": 151.1807878}, {"type": "node", "id": 1557879312, "lat": -33.7900197, "lon": 151.1808537}, {"type": "node", "id": 1557879313, "lat": -33.7901767, "lon": 151.1807878}, {"type": "node", "id": 1557879314, "lat": -33.7901799, "lon": 151.1808592}, {"type": "node", "id": 1557879315, "lat": -33.7902058, "lon": 151.1807087}, {"type": "node", "id": 1557879316, "lat": -33.7903559, "lon": 151.1809462, "tags": {"railway": "signal", "railway:signal:direction": "forward", "railway:signal:distant": "AU:NSW:distant", "railway:signal:distant:form": "light", "railway:signal:distant:states": "GYR", "railway:signal:main": "AU:NSW:main", "railway:signal:main:form": "light", "railway:signal:main:states": "GR", "railway:signal:position": "left", "railway:signal:train_protection": "AU:NSW:A", "railway:signal:train_protection:form": "light"}}, {"type": "node", "id": 1557879317, "lat": -33.7904504, "lon": 151.1807936}, {"type": "node", "id": 1557879318, "lat": -33.7904518, "lon": 151.1808592}, {"type": "node", "id": 1557879319, "lat": -33.7906444, "lon": 151.1809532}, {"type": "node", "id": 1557879320, "lat": -33.7907068, "lon": 151.1807257}, {"type": "node", "id": 1557879321, "lat": -33.791088, "lon": 151.1809661}, {"type": "node", "id": 1557879322, "lat": -33.7915189, "lon": 151.1809786}, {"type": "node", "id": 1557879323, "lat": -33.7911598, "lon": 151.1807289, "tags": {"railway": "signal", "railway:signal:direction": "forward", "railway:signal:distant": "AU:NSW:distant", "railway:signal:distant:form": "light", "railway:signal:distant:states": "GYR", "railway:signal:main": "AU:NSW:main", "railway:signal:main:form": "light", "railway:signal:main:states": "GR", "railway:signal:position": "left", "railway:signal:train_protection": "AU:NSW:A", "railway:signal:train_protection:form": "light"}}, {"type": "node", "id": 1557879324, "lat": -33.7919648, "lon": 151.1809731}, {"type": "node", "id": 1557879325, "lat": -33.7922908, "lon": 151.1809564}, {"type": "node", "id": 1557879326, "lat": -33.792297, "lon": 151.1807532}, {"type": "node", "id": 1557879327, "lat": -33.7922997, "lon": 151.1808358, "tags": {"railway": "signal", "railway:signal:direction": "backward", "railway:signal:main": "AU:MNWSW:points_indiciator", "railway:signal:main:form": "light", "railway:signal:position": "left", "ref": "SI_3110"}}, {"type": "node", "id": 1557879328, "lat": -33.7922998, "lon": 151.1808856, "tags": {"railway": "signal", "railway:signal:direction": "forward", "railway:signal:main": "AU:MNWSW:points_indiciator", "railway:signal:main:form": "light", "railway:signal:position": "left", "ref": "SI_3112"}}, {"type": "node", "id": 1557879329, "lat": -33.7927003, "lon": 151.1807708, "tags": {"railway": "signal", "railway:signal:direction": "forward", "railway:signal:distant": "AU:NSW:distant", "railway:signal:distant:form": "light", "railway:signal:distant:states": "GYR", "railway:signal:main": "AU:NSW:main", "railway:signal:main:form": "light", "railway:signal:main:states": "GR", "railway:signal:position": "left", "railway:signal:train_protection": "AU:NSW:A", "railway:signal:train_protection:form": "light"}}, {"type": "node", "id": 1557879330, "lat": -33.7926063, "lon": 151.1809324, "tags": {"railway": "signal", "railway:signal:direction": "forward", "railway:signal:distant": "AU:NSW:distant", "railway:signal:distant:form": "light", "railway:signal:distant:states": "GYR", "railway:signal:main": "AU:NSW:main", "railway:signal:main:form": "light", "railway:signal:main:states": "GR", "railway:signal:position": "left", "railway:signal:train_protection": "AU:NSW:A", "railway:signal:train_protection:form": "light"}}, {"type": "node", "id": 1557879331, "lat": -33.792703, "lon": 151.1808328}, {"type": "node", "id": 1557879332, "lat": -33.7927042, "lon": 151.18088}, {"type": "node", "id": 1557879333, "lat": -33.793099, "lon": 151.1809232, "tags": {"railway": "hirail_access"}}, {"type": "node", "id": 1557879334, "lat": -33.7931003, "lon": 151.1808806, "tags": {"railway": "hirail_access"}}, {"type": "node", "id": 1557879335, "lat": -33.7931015, "lon": 151.1808393, "tags": {"railway": "hirail_access"}}, {"type": "node", "id": 1557879336, "lat": -33.7931028, "lon": 151.1807958, "tags": {"railway": "hirail_access"}}, {"type": "node", "id": 1557879337, "lat": -33.7931721, "lon": 151.1809231, "tags": {"railway": "signal", "railway:signal:direction": "forward", "railway:signal:position": "left", "railway:signal:speed_limit": "AU:NSW:general", "railway:signal:speed_limit:form": "sign", "railway:signal:speed_limit:speed": "60"}}, {"type": "node", "id": 1557879338, "lat": -33.7931961, "lon": 151.1808814}, {"type": "node", "id": 1557879339, "lat": -33.7932268, "lon": 151.1808424}, {"type": "node", "id": 1557879340, "lat": -33.793251, "lon": 151.1807992}, {"type": "node", "id": 1557879341, "lat": -33.7932862, "lon": 151.1809253}, {"type": "node", "id": 1557879342, "lat": -33.7932874, "lon": 151.1807999}, {"type": "node", "id": 1557879343, "lat": -33.7937871, "lon": 151.1808958}, {"type": "node", "id": 1557879344, "lat": -33.7937892, "lon": 151.1808529}, {"type": "node", "id": 1557879345, "lat": -33.7941006, "lon": 151.1808587, "tags": {"railway": "switch", "railway:turnout_side": "left", "ref": "CHW13"}}, {"type": "node", "id": 1557879346, "lat": -33.7946467, "lon": 151.1809118, "tags": {"railway": "switch", "railway:turnout_side": "left", "ref": "CHW23"}}, {"type": "node", "id": 1557879347, "lat": -33.7948515, "lon": 151.1808726}, {"type": "node", "id": 1557879348, "lat": -33.794853, "lon": 151.1809159}, {"type": "node", "id": 1557879349, "lat": -33.7953945, "lon": 151.1809649}, {"type": "node", "id": 1557879350, "lat": -33.7953989, "lon": 151.1808381}, {"type": "node", "id": 1557879351, "lat": -33.7954145, "lon": 151.1809654}, {"type": "node", "id": 1557879352, "lat": -33.7954151, "lon": 151.1809259}, {"type": "node", "id": 1557879353, "lat": -33.7954159, "lon": 151.1808769}, {"type": "node", "id": 1557879354, "lat": -33.7954165, "lon": 151.1808392}, {"type": "node", "id": 1557879355, "lat": -33.795701, "lon": 151.1809291}, {"type": "node", "id": 1557879356, "lat": -33.7957016, "lon": 151.1808854}, {"type": "node", "id": 1557879357, "lat": -33.7957023, "lon": 151.1808438}, {"type": "node", "id": 1557879358, "lat": -33.7957003, "lon": 151.180971, "tags": {"railway": "signal", "railway:signal:direction": "forward", "railway:signal:distant": "AU:NSW:distant", "railway:signal:distant:form": "light", "railway:signal:distant:states": "GYR", "railway:signal:main": "AU:NSW:main", "railway:signal:main:form": "light", "railway:signal:main:states": "GR", "railway:signal:position": "bridge", "railway:signal:train_protection": "AU:NSW:A", "railway:signal:train_protection:form": "light", "ref": "SH 7.38"}}, {"type": "node", "id": 1557879360, "lat": -33.7960061, "lon": 151.1808463}, {"type": "node", "id": 1557879362, "lat": -33.7960072, "lon": 151.1809852}, {"type": "node", "id": 1557879368, "lat": -33.796111, "lon": 151.1809381, "tags": {"railway": "switch", "railway:turnout_side": "right", "ref": "CHW22"}}, {"type": "node", "id": 1557879369, "lat": -33.7962155, "lon": 151.1808424}, {"type": "node", "id": 1557879370, "lat": -33.7962203, "lon": 151.1810032}, {"type": "node", "id": 1557879371, "lat": -33.7963605, "lon": 151.1808345}, {"type": "node", "id": 1557879372, "lat": -33.796362, "lon": 151.1810213}, {"type": "node", "id": 1557879373, "lat": -33.7965763, "lon": 151.1810476}, {"type": "node", "id": 1557879374, "lat": -33.7965816, "lon": 151.1808097}, {"type": "node", "id": 1557879376, "lat": -33.7965822, "lon": 151.1809048, "tags": {"railway": "switch", "railway:turnout_side": "right", "ref": "CHW12"}}, {"type": "node", "id": 1557879378, "lat": -33.7968164, "lon": 151.1807926}, {"type": "node", "id": 1557879385, "lat": -33.7968263, "lon": 151.1810739, "tags": {"railway": "signal", "railway:signal:direction": "forward", "railway:signal:distant": "AU:NSW:distant", "railway:signal:distant:form": "light", "railway:signal:distant:states": "GYR", "railway:signal:main": "AU:NSW:main", "railway:signal:main:form": "light", "railway:signal:main:states": "GR", "railway:signal:position": "left", "railway:signal:train_protection": "AU:NSW:A", "railway:signal:train_protection:form": "light"}}, {"type": "node", "id": 1557879388, "lat": -33.7970579, "lon": 151.1810918}, {"type": "node", "id": 1557879390, "lat": -33.7971691, "lon": 151.1807702}, {"type": "node", "id": 1557879392, "lat": -33.7977952, "lon": 151.1811161}, {"type": "node", "id": 1557879393, "lat": -33.7978299, "lon": 151.180786}, {"type": "node", "id": 1557879394, "lat": -33.7980411, "lon": 151.1811146}, {"type": "node", "id": 1557879395, "lat": -33.7980475, "lon": 151.1807865}, {"type": "node", "id": 1557879396, "lat": -33.7983694, "lon": 151.1811038, "tags": {"railway": "signal", "railway:signal:direction": "forward", "railway:signal:distant": "AU:NSW:distant", "railway:signal:distant:form": "light", "railway:signal:main": "AU:NSW:main", "railway:signal:main:form": "light", "railway:signal:main:states": "GR", "railway:signal:position": "left", "railway:signal:train_protection": "AU:NSW:A", "railway:signal:train_protection:form": "light", "ref": "SH 7.20"}}, {"type": "node", "id": 1557879399, "lat": -33.798265, "lon": 151.1807983}, {"type": "node", "id": 1557879400, "lat": -33.7984825, "lon": 151.1808169}, {"type": "node", "id": 1557879402, "lat": -33.7985513, "lon": 151.1810997}, {"type": "node", "id": 1557879404, "lat": -33.7985868, "lon": 151.1809831}, {"type": "node", "id": 1557879406, "lat": -33.7985993, "lon": 151.180942}, {"type": "node", "id": 1557879407, "lat": -33.7986339, "lon": 151.1808281}, {"type": "node", "id": 1557879409, "lat": -33.7987566, "lon": 151.1810866}, {"type": "node", "id": 1557879411, "lat": -33.798786, "lon": 151.1809867}, {"type": "node", "id": 1557879412, "lat": -33.7987993, "lon": 151.1809417}, {"type": "node", "id": 1557879418, "lat": -33.7988265, "lon": 151.1808495}, {"type": "node", "id": 1557879419, "lat": -33.7990661, "lon": 151.1808731}, {"type": "node", "id": 1557879420, "lat": -33.7991027, "lon": 151.1810587, "tags": {"railway": "signal", "railway:signal:direction": "forward", "railway:signal:main_repeated": "AU:NSW:alert", "railway:signal:main_repeated:caption": "100m", "railway:signal:main_repeated:form": "sign", "railway:signal:position": "left", "ref": "SH 7.10"}}, {"type": "node", "id": 1557879421, "lat": -33.79932, "lon": 151.1809474, "tags": {"railway": "switch", "railway:turnout_side": "left", "ref": "CHW11"}}, {"type": "node", "id": 1557879422, "lat": -33.7995141, "lon": 151.1810483}, {"type": "node", "id": 1557879423, "lat": -33.799473, "lon": 151.1809077}, {"type": "node", "id": 1557879424, "lat": -33.7995518, "lon": 151.1809808}, {"type": "node", "id": 1557879425, "lat": -33.7997087, "lon": 151.181049}, {"type": "node", "id": 1557879426, "lat": -33.7999635, "lon": 151.180967, "tags": {"railway": "signal", "railway:signal:direction": "forward", "railway:signal:main": "AU:MNWSW:points_indiciator", "railway:signal:main:form": "light", "railway:signal:position": "left", "ref": "SI_3101"}}, {"type": "node", "id": 1557879432, "lat": -33.7997366, "lon": 151.1809138}, {"type": "node", "id": 1557879433, "lat": -33.7998083, "lon": 151.1810066, "tags": {"railway": "switch", "railway:turnout_side": "left", "ref": "CHW21"}}, {"type": "node", "id": 1557879437, "lat": -33.7998963, "lon": 151.1810451, "tags": {"railway": "signal", "railway:signal:direction": "forward", "railway:signal:distant": "AU:NSW:distant", "railway:signal:distant:form": "light", "railway:signal:main": "AU:NSW:main", "railway:signal:main:form": "light", "railway:signal:main:states": "GR", "railway:signal:position": "left", "railway:signal:train_protection": "AU:NSW:A", "railway:signal:train_protection:form": "light", "ref": "SH 7.10"}}, {"type": "node", "id": 1557879439, "lat": -33.8000705, "lon": 151.1809218}, {"type": "node", "id": 1557879441, "lat": -33.8013844, "lon": 151.1810398, "tags": {"railway": "signal", "railway:signal:direction": "forward", "railway:signal:fouling_point": "AU:MNWSW:points_cleared", "railway:signal:fouling_point:caption": "6 Cars", "railway:signal:fouling_point:form": "sign", "railway:signal:position": "right", "railway:signal:stop": "AU:NSW:stop", "railway:signal:stop:form": "sign"}}, {"type": "node", "id": 1557879448, "lat": -33.8005681, "lon": 151.1810684}, {"type": "node", "id": 1557879450, "lat": -33.8008423, "lon": 151.1810712}, {"type": "node", "id": 1557879451, "lat": -33.8010599, "lon": 151.1809143}, {"type": "node", "id": 1557879463, "lat": -33.8014525, "lon": 151.1811165}, {"type": "node", "id": 1557879465, "lat": -33.8014524, "lon": 151.1809078}, {"type": "node", "id": 1557879467, "lat": -33.8018787, "lon": 151.18115}, {"type": "node", "id": 1557879471, "lat": -33.8018983, "lon": 151.1809181}, {"type": "node", "id": 1557879475, "lat": -33.8023565, "lon": 151.1809362}, {"type": "node", "id": 1557879476, "lat": -33.8029118, "lon": 151.1812469}, {"type": "node", "id": 1557879485, "lat": -33.8032773, "lon": 151.1813003, "tags": {"railway": "signal", "railway:signal:direction": "forward", "railway:signal:distant": "AU:NSW:distant", "railway:signal:distant:form": "light", "railway:signal:main": "AU:NSW:main", "railway:signal:main:form": "light", "railway:signal:main:states": "GR", "railway:signal:main:type": "staggered", "railway:signal:position": "left"}}, {"type": "node", "id": 1557879490, "lat": -33.8037355, "lon": 151.1813742}, {"type": "node", "id": 1557879498, "lat": -33.8041493, "lon": 151.1814577}, {"type": "node", "id": 1557879500, "lat": -33.8045815, "lon": 151.1815661}, {"type": "node", "id": 1557879502, "lat": -33.8050181, "lon": 151.1817505, "tags": {"railway": "signal", "railway:signal:direction": "forward", "railway:signal:distant": "AU:NSW:distant", "railway:signal:distant:form": "light", "railway:signal:distant:states": "GYR", "railway:signal:main": "AU:NSW:main", "railway:signal:main:form": "light", "railway:signal:main:states": "GR", "railway:signal:main:type": "staggered", "railway:signal:position": "left", "railway:signal:speed_limit": "AU:NSW:general", "railway:signal:speed_limit:form": "sign", "railway:signal:speed_limit:speed": "80", "ref": "SH 6.76"}}, {"type": "node", "id": 1557879504, "lat": -33.8054489, "lon": 151.1819723}, {"type": "node", "id": 1557879512, "lat": -33.806007, "lon": 151.182301, "tags": {"railway": "hirail_access"}}, {"type": "node", "id": 1557879514, "lat": -33.8062188, "lon": 151.1823698}, {"type": "node", "id": 1557879516, "lat": -33.8062403, "lon": 151.1824658}, {"type": "node", "id": 1557879518, "lat": -33.8063346, "lon": 151.1824538}, {"type": "node", "id": 1557879519, "lat": -33.8066228, "lon": 151.18275}, {"type": "node", "id": 1557879521, "lat": -33.806651, "lon": 151.1827008}, {"type": "node", "id": 1557879523, "lat": -33.807019, "lon": 151.1830678}, {"type": "node", "id": 1557879525, "lat": -33.8070378, "lon": 151.1830347}, {"type": "node", "id": 1557879526, "lat": -33.8071266, "lon": 151.1831638}, {"type": "node", "id": 1557879527, "lat": -33.8071453, "lon": 151.1831331}, {"type": "node", "id": 1557879528, "lat": -33.8072552, "lon": 151.183282}, {"type": "node", "id": 1557879530, "lat": -33.8072731, "lon": 151.1832527, "tags": {"railway": "signal", "railway:signal:direction": "forward", "railway:signal:position": "left", "railway:signal:speed_limit": "AU:NSW:general", "railway:signal:speed_limit:form": "sign", "railway:signal:speed_limit:speed": "80"}}, {"type": "node", "id": 1557879531, "lat": -33.8074017, "lon": 151.183366}, {"type": "node", "id": 1557879533, "lat": -33.8076683, "lon": 151.1836971}, {"type": "node", "id": 1557879535, "lat": -33.8076975, "lon": 151.183664}, {"type": "node", "id": 1557879536, "lat": -33.8079575, "lon": 151.1840243}, {"type": "node", "id": 1557879543, "lat": -33.8079948, "lon": 151.183978}, {"type": "node", "id": 1557879544, "lat": -33.8081889, "lon": 151.1843075}, {"type": "node", "id": 1557879546, "lat": -33.8082452, "lon": 151.1842522}, {"type": "node", "id": 1557879549, "lat": -33.808456, "lon": 151.184658}, {"type": "node", "id": 1557879550, "lat": -33.8086368, "lon": 151.1847377, "tags": {"exit:carriages:forward": "stairs|lift|no|no|no|no|no|no", "local_ref": "2", "name": "Artarmon", "public_transport": "stop_position", "railway": "stop", "ref": "206452", "side": "right", "train": "yes", "wheelchair": "yes"}}, {"type": "node", "id": 1557879551, "lat": -33.808635, "lon": 151.1849168}, {"type": "node", "id": 1557879552, "lat": -33.808782, "lon": 151.1849164}, {"type": "node", "id": 1557879553, "lat": -33.8089138, "lon": 151.185347}, {"type": "node", "id": 1557879554, "lat": -33.808856, "lon": 151.1851425, "tags": {"fare_gates": "no", "name": "Artarmon", "network": "Sydney Trains", "network:wikidata": "Q7660181", "platforms": "2", "public_transport": "station", "railway": "station", "railway:ref": "ART", "ref": "206410", "subway": "no", "train": "yes", "wheelchair": "yes", "wikidata": "Q4797346", "wikipedia": "en:Artarmon railway station"}}, {"type": "node", "id": 1557879557, "lat": -33.8091421, "lon": 151.1857293}, {"type": "node", "id": 1557879558, "lat": -33.8091897, "lon": 151.1856142}, {"type": "node", "id": 1557879560, "lat": -33.8093105, "lon": 151.1860328, "tags": {"railway": "signal", "railway:signal:direction": "forward", "railway:signal:position": "right", "railway:signal:stop": "AU:NSW:stop_position", "railway:signal:stop:form": "sign", "railway:signal:stop:states": "8"}}, {"type": "node", "id": 1557879562, "lat": -33.8093999, "lon": 151.1860892, "tags": {"railway": "signal", "railway:signal:direction": "forward", "railway:signal:distant": "AU:NSW:distant", "railway:signal:distant:form": "light", "railway:signal:main": "AU:NSW:main", "railway:signal:main:form": "light", "railway:signal:main:states": "GR", "railway:signal:main:type": "staggered", "railway:signal:position": "left"}}, {"type": "node", "id": 1557879563, "lat": -33.809531, "lon": 151.1864832}, {"type": "node", "id": 1557879565, "lat": -33.8095619, "lon": 151.1864543}, {"type": "node", "id": 1557879567, "lat": -33.8097533, "lon": 151.1869583}, {"type": "node", "id": 1557879568, "lat": -33.8097816, "lon": 151.1869267}, {"type": "node", "id": 1557879570, "lat": -33.8100357, "lon": 151.1874716}, {"type": "node", "id": 1557879573, "lat": -33.8102302, "lon": 151.1879739}, {"type": "node", "id": 1557879574, "lat": -33.8102589, "lon": 151.1879548}, {"type": "node", "id": 1557879575, "lat": -33.8106964, "lon": 151.188979}, {"type": "node", "id": 1557879576, "lat": -33.8107215, "lon": 151.1889631}, {"type": "node", "id": 1557879577, "lat": -33.8111118, "lon": 151.1898749}, {"type": "node", "id": 1557879578, "lat": -33.8111426, "lon": 151.1898622}, {"type": "node", "id": 1557879579, "lat": -33.8113353, "lon": 151.1902973}, {"type": "node", "id": 1557879580, "lat": -33.8113625, "lon": 151.190278}, {"type": "node", "id": 1557879581, "lat": -33.8115668, "lon": 151.1906756}, {"type": "node", "id": 1557879582, "lat": -33.8115906, "lon": 151.1906592}, {"type": "node", "id": 1557879583, "lat": -33.8119071, "lon": 151.191166, "tags": {"railway": "signal", "railway:signal:direction": "forward", "railway:signal:distant": "AU:NSW:distant", "railway:signal:distant:form": "light", "railway:signal:distant:states": "GR", "railway:signal:main": "AU:NSW:main", "railway:signal:main:form": "light", "railway:signal:main:states": "GR", "railway:signal:main:type": "staggered", "railway:signal:position": "left"}}, {"type": "node", "id": 1557879584, "lat": -33.8118236, "lon": 151.1909917}, {"type": "node", "id": 1557879585, "lat": -33.8120966, "lon": 151.1913939}, {"type": "node", "id": 1557879586, "lat": -33.8121177, "lon": 151.191367}, {"type": "node", "id": 1557879587, "lat": -33.8123791, "lon": 151.1917021}, {"type": "node", "id": 1557879588, "lat": -33.8124067, "lon": 151.1916738}, {"type": "node", "id": 1557879589, "lat": -33.8126909, "lon": 151.1919964}, {"type": "node", "id": 1557879590, "lat": -33.8127082, "lon": 151.1919625}, {"type": "node", "id": 1559079783, "lat": -33.8128144, "lon": 151.1921089}, {"type": "node", "id": 1559079785, "lat": -33.8128277, "lon": 151.1920709}, {"type": "node", "id": 1559079786, "lat": -33.8130828, "lon": 151.1923254}, {"type": "node", "id": 1559079787, "lat": -33.8131003, "lon": 151.1922843}, {"type": "node", "id": 1559079788, "lat": -33.8132402, "lon": 151.1924372}, {"type": "node", "id": 1559079789, "lat": -33.813255, "lon": 151.1923968}, {"type": "node", "id": 1559079790, "lat": -33.8133361, "lon": 151.1924984, "tags": {"railway": "signal", "railway:signal:direction": "forward", "railway:signal:distant": "AU:NSW:distant", "railway:signal:distant:form": "light", "railway:signal:main": "AU:NSW:main", "railway:signal:main:form": "light", "railway:signal:main:type": "staggered", "railway:signal:position": "left"}}, {"type": "node", "id": 1559079791, "lat": -33.8135081, "lon": 151.192607}, {"type": "node", "id": 1559079792, "lat": -33.8135185, "lon": 151.1925668}, {"type": "node", "id": 1559079794, "lat": -33.8137325, "lon": 151.1927426}, {"type": "node", "id": 1559079795, "lat": -33.8137442, "lon": 151.192706}, {"type": "node", "id": 1559079796, "lat": -33.8140942, "lon": 151.1929251}, {"type": "node", "id": 1559079798, "lat": -33.8141139, "lon": 151.1928866}, {"type": "node", "id": 1559079799, "lat": -33.8144693, "lon": 151.1930755}, {"type": "node", "id": 1559079800, "lat": -33.8144758, "lon": 151.1930283}, {"type": "node", "id": 1559079802, "lat": -33.8148848, "lon": 151.1932124}, {"type": "node", "id": 1559079803, "lat": -33.8148943, "lon": 151.1931698}, {"type": "node", "id": 1559079804, "lat": -33.8151887, "lon": 151.1932764}, {"type": "node", "id": 1559079805, "lat": -33.8151904, "lon": 151.1932334}, {"type": "node", "id": 1559079806, "lat": -33.8154708, "lon": 151.193321}, {"type": "node", "id": 1559079807, "lat": -33.8154764, "lon": 151.1932875}, {"type": "node", "id": 1559079808, "lat": -33.8158438, "lon": 151.1933571}, {"type": "node", "id": 1559079809, "lat": -33.8158465, "lon": 151.193316}, {"type": "node", "id": 1559079810, "lat": -33.816201, "lon": 151.1933628}, {"type": "node", "id": 1559079811, "lat": -33.8162054, "lon": 151.1933237}, {"type": "node", "id": 1559079812, "lat": -33.8167039, "lon": 151.1933581}, {"type": "node", "id": 1559079813, "lat": -33.816706, "lon": 151.1933143}, {"type": "node", "id": 1559079814, "lat": -33.8172101, "lon": 151.1933534}, {"type": "node", "id": 1559079815, "lat": -33.8172105, "lon": 151.1933151}, {"type": "node", "id": 1559079816, "lat": -33.8174623, "lon": 151.1933151}, {"type": "node", "id": 1559079817, "lat": -33.8174917, "lon": 151.1933614, "tags": {"railway": "signal", "railway:signal:direction": "forward", "railway:signal:distant": "AU:NSW:distant", "railway:signal:distant:form": "light", "railway:signal:main": "AU:NSW:main", "railway:signal:main:form": "light", "railway:signal:main:type": "staggered", "railway:signal:position": "left"}}, {"type": "node", "id": 1559079818, "lat": -33.8176483, "lon": 151.1933679}, {"type": "node", "id": 1559079819, "lat": -33.8176505, "lon": 151.1933267}, {"type": "node", "id": 1559079820, "lat": -33.8178887, "lon": 151.1933923}, {"type": "node", "id": 1559079821, "lat": -33.8178805, "lon": 151.1933496}, {"type": "node", "id": 1559079822, "lat": -33.8182637, "lon": 151.1934528}, {"type": "node", "id": 1559079823, "lat": -33.8182702, "lon": 151.1934109}, {"type": "node", "id": 1559079824, "lat": -33.8188022, "lon": 151.1936149, "tags": {"railway": "buffer_stop"}}, {"type": "node", "id": 1559079825, "lat": -33.8205121, "lon": 151.1939375, "tags": {"railway": "signal", "railway:signal:direction": "backward", "railway:signal:position": "right", "railway:signal:switch": "AU:NSW:trailing_points", "railway:signal:switch:form": "light"}}, {"type": "node", "id": 1559079826, "lat": -33.8206275, "lon": 151.1939398, "tags": {"railway": "signal", "railway:signal:direction": "backward", "railway:signal:position": "right", "railway:signal:stop": "AU:NSW:catch_point", "railway:signal:stop:form": "sign"}}, {"type": "node", "id": 1559079827, "lat": -33.8207619, "lon": 151.193939}, {"type": "node", "id": 1559079828, "lat": -33.8210013, "lon": 151.1939518, "tags": {"railway": "signal", "railway:signal:direction": "forward", "railway:signal:electricity": "AU:NSW:turnout", "railway:signal:electricity:form": "sign", "railway:signal:position": "right"}}, {"type": "node", "id": 1559079829, "lat": -33.8210008, "lon": 151.1939331}, {"type": "node", "id": 1559079830, "lat": -33.8211127, "lon": 151.1939125, "tags": {"railway": "signal", "railway:signal:direction": "forward", "railway:signal:distant": "AU:NSW:distant", "railway:signal:distant:form": "light", "railway:signal:distant:states": "GYR", "railway:signal:main": "AU:NSW:main", "railway:signal:main:form": "light", "railway:signal:main:states": "GR", "railway:signal:position": "left", "ref": "SH 5.31"}}, {"type": "node", "id": 1559079831, "lat": -33.8211229, "lon": 151.1939589, "tags": {"railway": "switch"}}, {"type": "node", "id": 1559079832, "lat": -33.8221602, "lon": 151.194143}, {"type": "node", "id": 1559079833, "lat": -33.8221648, "lon": 151.1941044}, {"type": "node", "id": 1559079834, "lat": -33.8235523, "lon": 151.1943894}, {"type": "node", "id": 1559079835, "lat": -33.8235574, "lon": 151.1943534}, {"type": "node", "id": 1559079836, "lat": -33.8238279, "lon": 151.194444}, {"type": "node", "id": 1559079837, "lat": -33.8238341, "lon": 151.1944066}, {"type": "node", "id": 1559079838, "lat": -33.8240938, "lon": 151.1945091}, {"type": "node", "id": 1559079839, "lat": -33.8241008, "lon": 151.1944697}, {"type": "node", "id": 1559079840, "lat": -33.8244175, "lon": 151.1946165}, {"type": "node", "id": 1559079841, "lat": -33.8244289, "lon": 151.1945772}, {"type": "node", "id": 1559079842, "lat": -33.8247287, "lon": 151.194722}, {"type": "node", "id": 1559079843, "lat": -33.8247403, "lon": 151.1946843}, {"type": "node", "id": 1559079844, "lat": -33.8249967, "lon": 151.1948241}, {"type": "node", "id": 1559079845, "lat": -33.825008, "lon": 151.1947857}, {"type": "node", "id": 1559079846, "lat": -33.8254248, "lon": 151.1950054}, {"type": "node", "id": 1559079848, "lat": -33.8257053, "lon": 151.1951154, "tags": {"railway": "signal", "railway:signal:direction": "forward", "railway:signal:distant": "AU:NSW:distant", "railway:signal:distant:form": "light", "railway:signal:main": "AU:NSW:main", "railway:signal:main:form": "light", "railway:signal:main:type": "staggered", "railway:signal:position": "left"}}, {"type": "node", "id": 1559079851, "lat": -33.8265791, "lon": 151.1954966}, {"type": "node", "id": 1559079854, "lat": -33.8268487, "lon": 151.1956095}, {"type": "node", "id": 1559079857, "lat": -33.8271425, "lon": 151.1957076}, {"type": "node", "id": 1559079861, "lat": -33.827334, "lon": 151.1957495}, {"type": "node", "id": 1559079864, "lat": -33.8274952, "lon": 151.1957671}, {"type": "node", "id": 1559079867, "lat": -33.8277154, "lon": 151.1957664}, {"type": "node", "id": 1559079868, "lat": -33.8278098, "lon": 151.1957614, "tags": {"railway": "signal", "railway:signal:direction": "forward", "railway:signal:distant": "AU:NSW:distant", "railway:signal:distant:form": "light", "railway:signal:distant:states": "GYRg", "railway:signal:main": "AU:NSW:main", "railway:signal:main:form": "light", "railway:signal:main:states": "GR", "railway:signal:main:type": "staggered", "railway:signal:position": "left"}}, {"type": "node", "id": 1559079870, "lat": -33.82798, "lon": 151.1957348}, {"type": "node", "id": 1559079872, "lat": -33.8281118, "lon": 151.195704}, {"type": "node", "id": 1559079874, "lat": -33.8283774, "lon": 151.1956103}, {"type": "node", "id": 1559079876, "lat": -33.8286977, "lon": 151.1954228, "tags": {"railway": "signal", "railway:signal:direction": "forward", "railway:signal:position": "left", "railway:signal:speed_limit": "AU:NSW:train_stop", "railway:signal:speed_limit:form": "sign", "railway:signal:speed_limit:speed": "10"}}, {"type": "node", "id": 1559079878, "lat": -33.8288478, "lon": 151.1953147}, {"type": "node", "id": 1559079880, "lat": -33.8290641, "lon": 151.1951132}, {"type": "node", "id": 1559079882, "lat": -33.8292596, "lon": 151.1948921}, {"type": "node", "id": 1559079884, "lat": -33.8294264, "lon": 151.1946318}, {"type": "node", "id": 1559079886, "lat": -33.8295736, "lon": 151.1943491}, {"type": "node", "id": 1559079888, "lat": -33.8296372, "lon": 151.1941769, "tags": {"railway": "signal", "railway:signal:direction": "forward", "railway:signal:distant": "AU:NSW:distant", "railway:signal:distant:form": "light", "railway:signal:distant:states": "GYRg", "railway:signal:main": "AU:NSW:main", "railway:signal:main:form": "light", "railway:signal:main:states": "GR", "railway:signal:main:type": "staggered", "railway:signal:position": "left"}}, {"type": "node", "id": 1559079890, "lat": -33.8297905, "lon": 151.1936562}, {"type": "node", "id": 1600550984, "lat": -33.7788079, "lon": 151.1721405}, {"type": "node", "id": 1600550988, "lat": -33.7789072, "lon": 151.1721509}, {"type": "node", "id": 1600550995, "lat": -33.7788826, "lon": 151.1695489}, {"type": "node", "id": 1600550996, "lat": -33.7789946, "lon": 151.1695719}, {"type": "node", "id": 1600551001, "lat": -33.7791069, "lon": 151.1738549}, {"type": "node", "id": 1600551003, "lat": -33.7791538, "lon": 151.1736113}, {"type": "node", "id": 1600551008, "lat": -33.7801215, "lon": 151.1661205}, {"type": "node", "id": 1600551009, "lat": -33.7802511, "lon": 151.1661453}, {"type": "node", "id": 1600551013, "lat": -33.7800278, "lon": 151.1761186}, {"type": "node", "id": 1600551014, "lat": -33.7801995, "lon": 151.1761633}, {"type": "node", "id": 1600551015, "lat": -33.7809191, "lon": 151.1650125}, {"type": "node", "id": 1600551016, "lat": -33.7816836, "lon": 151.1644078}, {"type": "node", "id": 1600551017, "lat": -33.781181, "lon": 151.1776875}, {"type": "node", "id": 1600551018, "lat": -33.7815533, "lon": 151.1778708}, {"type": "node", "id": 1600551019, "lat": -33.7830509, "lon": 151.1632731}, {"type": "node", "id": 1600551020, "lat": -33.7826817, "lon": 151.1636427}, {"type": "node", "id": 1600551021, "lat": -33.7831774, "lon": 151.1791871}, {"type": "node", "id": 1600551022, "lat": -33.7833086, "lon": 151.1791004}, {"type": "node", "id": 1600551023, "lat": -33.7837825, "lon": 151.1629496}, {"type": "node", "id": 1600551024, "lat": -33.7839542, "lon": 151.1630268}, {"type": "node", "id": 1600551025, "lat": -33.784743, "lon": 151.1797493}, {"type": "node", "id": 1600551026, "lat": -33.7849729, "lon": 151.1796461}, {"type": "node", "id": 1600551027, "lat": -33.785531, "lon": 151.1623661}, {"type": "node", "id": 1600551028, "lat": -33.7856146, "lon": 151.1624892}, {"type": "node", "id": 1600551029, "lat": -33.7855032, "lon": 151.1798671}, {"type": "node", "id": 1600551030, "lat": -33.7861899, "lon": 151.1798128}, {"type": "node", "id": 1600551031, "lat": -33.7863985, "lon": 151.1303186}, {"type": "node", "id": 1600551032, "lat": -33.7864559, "lon": 151.1301935}, {"type": "node", "id": 1600551033, "lat": -33.7871007, "lon": 151.1310596}, {"type": "node", "id": 1600551036, "lat": -33.7871705, "lon": 151.1309345}, {"type": "node", "id": 1600551037, "lat": -33.7872289, "lon": 151.1616304}, {"type": "node", "id": 1600551038, "lat": -33.7872874, "lon": 151.161747}, {"type": "node", "id": 1600551039, "lat": -33.7879247, "lon": 151.1316866}, {"type": "node", "id": 1600551040, "lat": -33.7879659, "lon": 151.1315344}, {"type": "node", "id": 1600551043, "lat": -33.786421, "lon": 151.179974}, {"type": "node", "id": 1600551045, "lat": -33.788701, "lon": 151.1605646}, {"type": "node", "id": 1600551046, "lat": -33.7887293, "lon": 151.132128}, {"type": "node", "id": 1600551047, "lat": -33.7887464, "lon": 151.131997}, {"type": "node", "id": 1600551048, "lat": -33.7888177, "lon": 151.1606343}, {"type": "node", "id": 1600551053, "lat": -33.7901318, "lon": 151.1327618}, {"type": "node", "id": 1600551054, "lat": -33.7901611, "lon": 151.1326122}, {"type": "node", "id": 1600551055, "lat": -33.7912981, "lon": 151.1334012}, {"type": "node", "id": 1600551056, "lat": -33.7909914, "lon": 151.1330548}, {"type": "node", "id": 1600551057, "lat": -33.7915984, "lon": 151.1571644, "tags": {"railway": "signal", "railway:signal:direction": "backward"}}, {"type": "node", "id": 1600551058, "lat": -33.7917164, "lon": 151.1337292}, {"type": "node", "id": 1600551059, "lat": -33.7917145, "lon": 151.1572288, "tags": {"railway": "signal", "railway:signal:direction": "forward"}}, {"type": "node", "id": 1600551060, "lat": -33.79202, "lon": 151.1338305}, {"type": "node", "id": 1600551061, "lat": -33.79241, "lon": 151.1343974}, {"type": "node", "id": 1600551062, "lat": -33.7924756, "lon": 151.1342778}, {"type": "node", "id": 1600551063, "lat": -33.7928602, "lon": 151.1555466, "tags": {"railway": "signal", "railway:signal:direction": "forward"}}, {"type": "node", "id": 1600551064, "lat": -33.7931729, "lon": 151.1353772}, {"type": "node", "id": 1600551065, "lat": -33.7929537, "lon": 151.1556151, "tags": {"railway": "signal", "railway:signal:direction": "backward"}}, {"type": "node", "id": 1600551066, "lat": -33.7933124, "lon": 151.1353376}, {"type": "node", "id": 1600551067, "lat": -33.7935052, "lon": 151.1359219}, {"type": "node", "id": 1600551068, "lat": -33.7936613, "lon": 151.1359826}, {"type": "node", "id": 1600551069, "lat": -33.7939539, "lon": 151.1371708}, {"type": "node", "id": 1600551070, "lat": -33.7940909, "lon": 151.1371264}, {"type": "node", "id": 1600551071, "lat": -33.7939662, "lon": 151.1537758}, {"type": "node", "id": 1600551072, "lat": -33.7939653, "lon": 151.1540222}, {"type": "node", "id": 1600551073, "lat": -33.7943759, "lon": 151.138954}, {"type": "node", "id": 1600551074, "lat": -33.7945132, "lon": 151.1388937}, {"type": "node", "id": 1600551075, "lat": -33.7950543, "lon": 151.1517515}, {"type": "node", "id": 1600551076, "lat": -33.7953092, "lon": 151.1515003}, {"type": "node", "id": 1600551077, "lat": -33.7958169, "lon": 151.1493916}, {"type": "node", "id": 1600551078, "lat": -33.7959381, "lon": 151.1494632}, {"type": "node", "id": 1600551079, "lat": -33.795794, "lon": 151.1451717}, {"type": "node", "id": 1600551080, "lat": -33.7959445, "lon": 151.1461913}, {"type": "node", "id": 1600551081, "lat": -33.7960121, "lon": 151.1474583}, {"type": "node", "id": 1600551082, "lat": -33.7960783, "lon": 151.1462186}, {"type": "node", "id": 1600551083, "lat": -33.7961423, "lon": 151.1474979}, {"type": "node", "id": 1601960169, "lat": -33.7944936, "lon": 151.1379201, "tags": {"name": "North Ryde", "railway": "subway_entrance", "wheelchair": "yes"}}, {"type": "node", "id": 1601960229, "lat": -33.7835104, "lon": 151.1261918, "tags": {"railway": "switch", "railway:turnout_side": "left", "ref": "MQP11"}}, {"type": "node", "id": 1601960235, "lat": -33.784479, "lon": 151.1277048, "tags": {"railway": "switch", "railway:turnout_side": "left", "ref": "MQP21"}}, {"type": "node", "id": 1601960237, "lat": -33.7846025, "lon": 151.1278297}, {"type": "node", "id": 1601960239, "lat": -33.7846916, "lon": 151.1277351}, {"type": "node", "id": 1601960241, "lat": -33.7854674, "lon": 151.1290089}, {"type": "node", "id": 1601960242, "lat": -33.7855565, "lon": 151.1289143}, {"type": "node", "id": 1601960243, "lat": -33.7926028, "lon": 151.1560984}, {"type": "node", "id": 1601960246, "lat": -33.7920193, "lon": 151.1566362}, {"type": "node", "id": 1601960247, "lat": -33.793975, "lon": 151.1371734}, {"type": "node", "id": 1601960248, "lat": -33.7940697, "lon": 151.1371433}, {"type": "node", "id": 1601960249, "lat": -33.7943825, "lon": 151.1389165}, {"type": "node", "id": 1601960250, "lat": -33.7944822, "lon": 151.1388832}, {"type": "node", "id": 1627317677, "lat": -33.7955614, "lon": 151.1431218, "tags": {"bench": "yes", "bin": "yes", "bus": "yes", "gtfs:stop_id": "2113176", "highway": "bus_stop", "name": "Delhi Rd after Julius Av", "network": "Transport Buses", "network:wikidata": "Q5001345", "public_transport": "platform", "ref": "2113176", "shelter": "yes", "source:location": "survey", "tactile_paving": "no"}}, {"type": "node", "id": 1627708881, "lat": -33.7974912, "lon": 151.1811115, "tags": {"exit:carriages:forward": "no|no|no|escalator|no|stairs;lift|no|no", "local_ref": "1", "name": "Chatswood, Platform 1", "public_transport": "stop_position", "railway": "stop", "ref": "2067141", "side": "right", "train": "yes", "wheelchair": "yes"}}, {"type": "node", "id": 1855712324, "lat": -33.7678921, "lon": 151.1868807, "tags": {"bus": "yes", "gtfs:stop_id": "207070", "name": "East Lindfield Community Hall, Crana Av", "network": "Transport Buses", "public_transport": "stop_position", "ref": "207070"}}, {"type": "node", "id": 1872212022, "lat": -33.7799173, "lon": 151.1215134}, {"type": "node", "id": 1886240871, "lat": -33.7557991, "lon": 151.1543302, "tags": {"check_date": "2023-06-19", "ele": "116", "fare_gates": "no", "name": "Gordon", "network": "Sydney Trains", "network:wikidata": "Q7660181", "platforms": "3", "public_transport": "station", "railway": "station", "railway:ref": "GRD", "ref": "207210", "start_date": "1888", "toilets:wheelchair": "yes", "train": "yes", "wheelchair": "yes", "wikidata": "Q5586031", "wikipedia": "en:Gordon railway station, Sydney"}}, {"type": "node", "id": 1900396982, "lat": -33.7850431, "lon": 151.1279634, "tags": {"name": "Macquarie Park", "railway": "subway_entrance", "wheelchair": "yes"}}, {"type": "node", "id": 1921047320, "lat": -33.7787714, "lon": 151.1705599}, {"type": "node", "id": 1921047321, "lat": -33.7788732, "lon": 151.1707803}, {"type": "node", "id": 1921047322, "lat": -33.7793852, "lon": 151.1676569}, {"type": "node", "id": 1921047323, "lat": -33.7795399, "lon": 151.167587}, {"type": "node", "id": 1980631369, "lat": -33.7854693, "lon": 151.1290406, "tags": {"bench": "no", "bin": "no", "bus": "yes", "gtfs:stop_id": "2113187", "highway": "bus_stop", "lit": "yes", "local_ref": "E", "name": "Macquarie Park Station, Waterloo Rd, Stand E", "network": "Transport Buses", "network:wikidata": "Q5001345", "public_transport": "platform", "ref": "2113187", "shelter": "no", "source": "survey", "tactile_paving": "no"}}, {"type": "node", "id": 2085121357, "lat": -33.7909543, "lon": 151.1297786, "tags": {"bench": "yes", "bin": "yes", "bus": "yes", "departures_board": "timetable", "gtfs:stop_id": "2113205", "highway": "bus_stop", "lit": "yes", "name": "Epping Rd after Wicks Rd", "network": "Transport Buses", "network:wikidata": "Q5001345", "public_transport": "platform", "ref": "2113205", "shelter": "yes", "tactile_paving": "yes"}}, {"type": "node", "id": 2085121360, "lat": -33.7976385, "lon": 151.1387539, "tags": {"bench": "yes", "bin": "no", "bus": "yes", "check_date:shelter": "2023-03-03", "gtfs:stop_id": "211322", "highway": "bus_stop", "name": "Epping Rd at Rivett Rd", "network": "Transport Buses", "network:wikidata": "Q5001345", "public_transport": "platform", "ref": "211322", "shelter": "yes", "tactile_paving": "no"}}, {"type": "node", "id": 2085121364, "lat": -33.7908108, "lon": 151.1301505, "tags": {"bench": "yes", "bin": "yes", "bus": "yes", "gtfs:stop_id": "2113203", "highway": "bus_stop", "lit": "yes", "name": "Epping Rd before Wicks Rd", "network": "Transport Buses", "network:wikidata": "Q5001345", "public_transport": "platform", "ref": "2113203", "shelter": "yes", "tactile_paving": "no"}}, {"type": "node", "id": 2105155271, "lat": -33.7591516, "lon": 151.219305, "tags": {"bench": "yes", "bin": "no", "bus": "yes", "covered": "yes", "gtfs:stop_id": "208743", "highway": "bus_stop", "name": "Warringah Rd at Currie Rd", "network": "Transport Buses", "network:wikidata": "Q5001345", "public_transport": "platform", "ref": "208743", "tactile_paving": "no"}}, {"type": "node", "id": 2105155272, "lat": -33.7609159, "lon": 151.2170408, "tags": {"bench": "yes", "bin": "yes", "bus": "yes", "covered": "yes", "gtfs:stop_id": "208714", "highway": "bus_stop", "name": "Warringah Rd at Starkey St", "network": "Transport Buses", "network:wikidata": "Q5001345", "public_transport": "platform", "ref": "208714", "tactile_paving": "yes"}}, {"type": "node", "id": 2105156235, "lat": -33.753426, "lon": 151.2242972, "tags": {"bench": "yes", "bin": "no", "bus": "yes", "gtfs:stop_id": "208670", "highway": "bus_stop", "lit": "yes", "name": "Warringah Rd before Fitzpatrick Av", "network": "Transport Buses", "network:wikidata": "Q5001345", "public_transport": "platform", "ref": "208670", "shelter": "yes", "tactile_paving": "yes"}}, {"type": "node", "id": 2105156240, "lat": -33.7506975, "lon": 151.2260144, "tags": {"bench": "yes", "bin": "yes", "bus": "yes", "description": "Terminus: Route 166 Manly-Frenchs Forest", "gtfs:stop_id": "208663", "highway": "bus_stop", "lit": "yes", "name": "Forest Way opp Forestway Shopping Centre", "network": "Transport Buses", "network:wikidata": "Q5001345", "public_transport": "platform", "ref": "208663", "shelter": "yes", "tactile_paving": "yes"}}, {"type": "node", "id": 2105156242, "lat": -33.7499487, "lon": 151.225071, "tags": {"bench": "yes", "bin": "yes", "bus": "yes", "gtfs:stop_id": "208671", "highway": "bus_stop", "lit": "yes", "name": "Forestway Shopping Centre, Forest Way", "network": "Transport Buses", "network:wikidata": "Q5001345", "public_transport": "platform", "ref": "208671", "shelter": "yes", "tactile_paving": "yes"}}, {"type": "node", "id": 2105156382, "lat": -33.749718, "lon": 151.2324146, "tags": {"bench": "yes", "bin": "yes", "bus": "yes", "gtfs:stop_id": "208645", "highway": "bus_stop", "name": "Nth Beaches Hospital, Frenchs Forest Rd", "network": "Transport Buses", "network:wikidata": "Q5001345", "public_transport": "platform", "ref": "208645", "shelter": "yes", "tactile_paving": "yes"}}, {"type": "node", "id": 2105156383, "lat": -33.7495263, "lon": 151.2324549, "tags": {"bench": "yes", "bin": "yes", "bus": "yes", "gtfs:stop_id": "208636", "highway": "bus_stop", "name": "Frenchs Forest Rd opp Nth Beaches Hospital", "network": "Transport Buses", "network:wikidata": "Q5001345", "public_transport": "platform", "ref": "208636", "shelter": "yes", "tactile_paving": "yes"}},