{"version": 0.6, "generator": "Overpass API 0.7.62.8 e802775f", "osm3s": {"timestamp_osm_base": "2026-01-16T10:28:44Z", "copyright": "The data included in this document is from www.openstreetmap.org. The data is made available under ODbL."}, "elements": [{"type": "node", "id": 1119662266, "lat": 59.71821, "lon": 10.15128, "tags": {"bench": "yes", "highway": "bus_stop", "name": "Konnerudsenteret", "ref:nsrq": "29928", "shelter": "yes"}}, {"type": "node", "id": 1289230290, "lat": 59.7093, "lon": 10.1566, "tags": {"highway": "bus_stop", "name": "Vallersveien", "ref:nsrq": "29941"}}, {"type": "node", "id": 1289230973, "lat": 59.7188, "lon": 10.146, "tags": {"highway": "bus_stop", "name": "Jarlsbergsenteret", "ref:nsrq": "29932"}}, {"type": "node", "id": 1289231386, "lat": 59.68773, "lon": 10.125818, "tags": {"highway": "bus_stop", "name": "Andorsrud", "ref:nsrq": "29857"}}, {"type": "node", "id": 1289232050, "lat": 59.6915, "lon": 10.1464, "tags": {"highway": "bus_stop", "name": "Berget Skoger", "ref:nsrq": "29845"}}, {"type": "node", "id": 1289233639, "lat": 59.6907, "lon": 10.141, "tags": {"highway": "bus_stop", "name": "Gar\u00e5s", "ref:nsrq": "29848"}}, {"type": "node", "id": 1289235349, "lat": 59.7064, "lon": 10.1558, "tags": {"bench": "yes", "bin": "yes", "highway": "bus_stop", "lit": "no", "name": "S\u00f8rskogen", "ref:nsrq": "29947", "shelter": "yes", "tactile_paving": "no"}}, {"type": "node", "id": 1289236304, "lat": 59.6925, "lon": 10.1545, "tags": {"highway": "bus_stop", "name": "Imjelt", "ref:nsrq": "29840"}}, {"type": "node", "id": 1289237272, "lat": 59.6885, "lon": 10.1344, "tags": {"highway": "bus_stop", "name": "\u00c5serud", "ref:nsrq": "29852"}}, {"type": "node", "id": 1357052893, "lat": 59.719704, "lon": 10.141952, "tags": {"highway": "bus_stop", "name": "Gramsborg", "ref:nsrq": "29937", "shelter": "no"}}, {"type": "node", "id": 4824745172, "lat": 59.7181, "lon": 10.149728, "tags": {"highway": "bus_stop", "name": "Konnerudsenteret", "ref:nsrq": "29929"}}, {"type": "node", "id": 6372879088, "lat": 59.71974, "lon": 10.140791, "tags": {"highway": "bus_stop", "name": "Kirkelunden", "ref:nsrq": "29959"}}, {"type": "node", "id": 6372879090, "lat": 59.7092, "lon": 10.1572, "tags": {"bench": "yes", "bin": "yes", "highway": "bus_stop", "name": "Vallersveien", "ref:nsrq": "29940", "shelter": "yes"}}, {"type": "node", "id": 6372879091, "lat": 59.7065, "lon": 10.1547, "tags": {"bench": "no", "bin": "no", "highway": "bus_stop", "lit": "yes", "name": "S\u00f8rskogen", "ref:nsrq": "29949", "shelter": "no", "tactile_paving": "no"}}, {"type": "node", "id": 6372879092, "lat": 59.7187, "lon": 10.1466, "tags": {"highway": "bus_stop", "name": "Jarlsbergsenteret", "ref:nsrq": "29933"}}, {"type": "node", "id": 6372879176, "lat": 59.687687, "lon": 10.125884, "tags": {"highway": "bus_stop", "name": "Andorsrud", "ref:nsrq": "29856"}}, {"type": "node", "id": 6372879178, "lat": 59.6886, "lon": 10.1341, "tags": {"highway": "bus_stop", "name": "\u00c5serud", "ref:nsrq": "29853"}}, {"type": "node", "id": 6372879180, "lat": 59.6908, "lon": 10.1409, "tags": {"highway": "bus_stop", "name": "Gar\u00e5s", "ref:nsrq": "29849"}}, {"type": "node", "id": 6372879182, "lat": 59.6916, "lon": 10.1463, "tags": {"highway": "bus_stop", "name": "Berget Skoger", "ref:nsrq": "29844"}}, {"type": "node", "id": 6372879183, "lat": 59.6927, "lon": 10.1543, "tags": {"highway": "bus_stop", "name": "Imjelt", "ref:nsrq": "29841"}}, {"type": "node", "id": 11659116602, "lat": 59.7180874, "lon": 10.1509212}, {"type": "node", "id": 11659116603, "lat": 59.7182081, "lon": 10.1513053}, {"type": "way", "id": 1254255176, "nodes": [11659116603, 11659116602], "tags": {"bus": "yes", "public_transport": "platform"}}]}