{"version": 0.6, "generator": "Overpass API 0.7.62.8 e802775f", "osm3s": {"timestamp_osm_base": "2026-01-12T12:51:01Z", "copyright": "The data included in this document is from www.openstreetmap.org. The data is made available under ODbL."}, "elements": [{"type": "node", "id": 267214379, "lat": 12.9134182, "lon": 77.6774852, "tags": {"amenity": "hospital", "healthcare": "hospital", "name": "Clinic"}}, {"type": "node", "id": 1118656365, "lat": 12.8351469, "lon": 77.6799019}, {"type": "node", "id": 1437213383, "lat": 12.9111263, "lon": 77.7073377, "tags": {"amenity": "hospital", "name": "Karunalayam Hospital"}}, {"type": "node", "id": 2550433504, "lat": 12.8346225, "lon": 77.6800993}, {"type": "node", "id": 4440829279, "lat": 12.911533, "lon": 77.6764094, "tags": {"addr:city": "Bangalore", "addr:postcode": "560035", "addr:street": "Kasvanahalli Road, Behind State Bank of Mysore, Sarjapur Road, Kaikondrahalli", "amenity": "hospital", "emergency": "yes", "healthcare": "hospital", "name": "Stanford Speciality Hospital", "phone": "080 6566 6689"}}, {"type": "node", "id": 4440931106, "lat": 12.9124371, "lon": 77.6813917, "tags": {"addr:city": "Bangalore", "addr:housenumber": "No.7/1", "addr:postcode": "560035", "addr:street": "Sarjapur Road", "amenity": "hospital", "emergency": "yes", "name": "Dr Mohan Nursing Home", "phone": "+91-80-42119084"}}, {"type": "node", "id": 4440939217, "lat": 12.9072384, "lon": 77.6755805, "tags": {"addr:city": "Bengaluru", "addr:housenumber": "4/21", "addr:postcode": "560035", "addr:street": "Kasavanahalli Road", "amenity": "hospital", "healthcare": "hospital", "name": "Sparsh Clinic", "phone": "+91-99000 19567"}}, {"type": "node", "id": 4440946384, "lat": 12.9041502, "lon": 77.6741043, "tags": {"addr:city": "Bangalore", "addr:housenumber": "9 IAS layout", "addr:postcode": "560035", "addr:street": "Lake Shore HomesRoad, Amrita college road, off sarjapur road, Kasavanahalli", "amenity": "hospital", "healthcare": "hospital", "name": "Raksha Orthopaedic And Multi Speciality Centre", "phone": "+91-74115 27777"}}, {"type": "node", "id": 4441670838, "lat": 12.9121008, "lon": 77.6820003, "tags": {"addr:city": "Bangalore", "addr:housenumber": "No. 65/1, 1st Floor", "addr:postcode": "560035", "addr:street": "Doddakannelli,\u00a0Sarjapur Road", "amenity": "hospital", "healthcare:speciality": "general;dermatology;clinic", "name": "Naadi Ayurveda Center", "operator": "Kotakkal Arya Vaidyashala", "phone": "+91-9980016089"}}, {"type": "node", "id": 4441938603, "lat": 12.9122002, "lon": 77.6818637, "tags": {"addr:city": "bangaluru", "addr:housenumber": "65", "addr:postcode": "560035", "addr:street": "Sarjapur Main Rd, Kaikondrahalli", "amenity": "hospital", "name": "The Family Doctor & The Family Pharma", "phone": "+91-80 2574 6204", "website": "https://www.thefamilydoctor.co.in/"}}, {"type": "node", "id": 4474487215, "lat": 12.9157501, "lon": 77.6756114}, {"type": "node", "id": 4474487222, "lat": 12.9156378, "lon": 77.6754751}, {"type": "node", "id": 5804557878, "lat": 12.9138425, "lon": 77.6794486}, {"type": "node", "id": 5804557879, "lat": 12.9137262, "lon": 77.6798147}, {"type": "node", "id": 5804557880, "lat": 12.9133171, "lon": 77.6797302}, {"type": "node", "id": 5804557881, "lat": 12.9132765, "lon": 77.6797141}, {"type": "node", "id": 5804557882, "lat": 12.9133733, "lon": 77.6792957}, {"type": "node", "id": 6137643281, "lat": 12.8967728, "lon": 77.6947943}, {"type": "node", "id": 6137643282, "lat": 12.8963179, "lon": 77.6954783}, {"type": "node", "id": 6137643283, "lat": 12.8960538, "lon": 77.6953013}, {"type": "node", "id": 6137643284, "lat": 12.8965009, "lon": 77.6946495}, {"type": "node", "id": 7202724055, "lat": 12.922327, "lon": 77.736038, "tags": {"addr:district": "Bangalore", "addr:full": "Gunjur", "addr:postcode": "560087", "addr:state": "Karnataka", "addr:subdistrict": "Bangalore East", "amenity": "hospital", "name": "Government Hospital, Gunjur", "source": "OpenGovernmentData"}}, {"type": "node", "id": 8188036050, "lat": 12.8812376, "lon": 77.7516894, "tags": {"addr:full": "Bowring Hospital Rd, Dommasandra, Bengaluru, Karnataka", "addr:state": "Karnataka", "amenity": "hospital", "healthcare": "hospital", "name": "Sri Lakshmi Multi Speciality Hospital"}}, {"type": "node", "id": 9830902289, "lat": 12.9125713, "lon": 77.6764777}, {"type": "node", "id": 9830902290, "lat": 12.9124101, "lon": 77.6764687}, {"type": "node", "id": 9830902291, "lat": 12.9124013, "lon": 77.6766369}, {"type": "node", "id": 9830902292, "lat": 12.9125624, "lon": 77.6766458}, {"type": "node", "id": 9970369520, "lat": 12.9107968, "lon": 77.7077392}, {"type": "node", "id": 9970369521, "lat": 12.9111027, "lon": 77.7077928}, {"type": "node", "id": 9970369522, "lat": 12.9110034, "lon": 77.708281}, {"type": "node", "id": 9970369523, "lat": 12.9112596, "lon": 77.7083749}, {"type": "node", "id": 9970369524, "lat": 12.9117354, "lon": 77.7073476}, {"type": "node", "id": 9970369525, "lat": 12.9108125, "lon": 77.7075863}, {"type": "node", "id": 9970369526, "lat": 12.9109615, "lon": 77.7067924}, {"type": "node", "id": 10948384364, "lat": 12.9019638, "lon": 77.7164575}, {"type": "node", "id": 10948384379, "lat": 12.9021273, "lon": 77.714729}, {"type": "node", "id": 10948384383, "lat": 12.9020907, "lon": 77.7160674}, {"type": "node", "id": 10948384384, "lat": 12.9021038, "lon": 77.7164912}, {"type": "node", "id": 10948384385, "lat": 12.901058, "lon": 77.7162391}, {"type": "node", "id": 10948384386, "lat": 12.9015182, "lon": 77.714552}, {"type": "node", "id": 11075395440, "lat": 12.9153904, "lon": 77.675278}, {"type": "node", "id": 11075395441, "lat": 12.91564, "lon": 77.6747945}, {"type": "node", "id": 11075395442, "lat": 12.9159951, "lon": 77.6749527}, {"type": "node", "id": 11342710964, "lat": 12.8350455, "lon": 77.693987, "tags": {"amenity": "hospital", "name": "JJ Hospital"}}, {"type": "node", "id": 11395887644, "lat": 12.8349735, "lon": 77.6799672, "tags": {"access": "private", "barrier": "gate"}}, {"type": "node", "id": 11402351508, "lat": 12.8347322, "lon": 77.680058, "tags": {"access": "private", "barrier": "gate"}}, {"type": "node", "id": 11753319908, "lat": 12.9154066, "lon": 77.6752466}, {"type": "node", "id": 13046364776, "lat": 12.8345774, "lon": 77.6815341}, {"type": "node", "id": 13046402621, "lat": 12.8345742, "lon": 77.6816342}, {"type": "node", "id": 13046402622, "lat": 12.8351024, "lon": 77.6815313}, {"type": "node", "id": 13065353808, "lat": 12.9023198, "lon": 77.715214}, {"type": "node", "id": 13065353809, "lat": 12.9023985, "lon": 77.7150923}, {"type": "node", "id": 13173681435, "lat": 12.9007868, "lon": 77.6756594}, {"type": "node", "id": 13173681436, "lat": 12.9007563, "lon": 77.6759596}, {"type": "node", "id": 13173681437, "lat": 12.9003444, "lon": 77.6759112}, {"type": "node", "id": 13173681438, "lat": 12.9003764, "lon": 77.6756139}, {"type": "way", "id": 613474107, "nodes": [5804557878, 5804557879, 5804557880, 5804557881, 5804557882, 5804557878], "tags": {"addr:city": "Bengaluru", "addr:housenumber": "66", "addr:postcode": "560034", "addr:street": "Kaikondrahalli, Sarjapur Road", "amenity": "hospital", "emergency": "yes", "healthcare": "hospital", "name": "Suvarnamukhi", "name:kn": "\u0cb8\u0cc1\u0cb5\u0cb0\u0ccd\u0ca3\u0cae\u0cc1\u0c96\u0cbf \u0c86\u0cb8\u0ccd\u0caa\u0ca4\u0ccd\u0cb0\u0cc6", "phone": "+91 98451 26869"}}, {"type": "way", "id": 655045245, "nodes": [6137643281, 6137643282, 6137643283, 6137643284, 6137643281], "tags": {"addr:district": "Bengaluru Urban", "addr:full": "14/2,Chikkanayakanahalli Village, Off Sarjapur Road", "addr:postcode": "560035", "addr:state": "Karnataka", "amenity": "hospital", "healthcare": "hospital", "healthcare:speciality": "ayurveda", "name": "Punarjani Ayurvedic Multispeciality Hospital", "source": "OpenGovernmentData"}}, {"type": "way", "id": 1071257248, "nodes": [9830902289, 9830902290, 9830902291, 9830902292, 9830902289], "tags": {"amenity": "hospital", "healthcare": "hospital", "name": "BN Specialty Hospital"}}, {"type": "way", "id": 1088209015, "nodes": [9970369526, 9970369524, 9970369523, 9970369522, 9970369521, 9970369520, 9970369525, 9970369526], "tags": {"amenity": "hospital", "name": "Karunalayam Hospital", "name:kn": "\u0c95\u0cb0\u0cc1\u0ca3\u0cbe\u0cb2\u0caf\u0c82 \u0c86\u0cb8\u0ccd\u0caa\u0ca4\u0ccd\u0cb0\u0cc6"}}, {"type": "way", "id": 1178505994, "nodes": [10948384383, 13065353808, 13065353809, 10948384379, 10948384386, 10948384385, 10948384364, 10948384384, 10948384383], "tags": {"amenity": "hospital", "healthcare": "clinic", "name": "Snehadaan Hospital"}}, {"type": "way", "id": 1193177992, "nodes": [4474487215, 4474487222, 11075395440, 11753319908, 11075395441, 11075395442, 4474487215], "tags": {"amenity": "hospital", "emergency": "yes", "healthcare": "hospital", "name": "Cloud Nine", "note": "Emergency ward and lab open 24x7", "opening_hours": "Mo-Sa 08:00-20:00, Su 10:00-12:00, 16:00-18:00", "operator": "Cloud Nine Care", "operator:type": "private", "phone": "+91 99728 99728", "website": "https://www.cloudninecare.com/centre/sarjapur-road"}}, {"type": "way", "id": 1419688646, "nodes": [2550433504, 11402351508, 11395887644, 1118656365, 13046402622, 13046402621, 13046364776, 2550433504], "tags": {"addr:full": "Huskur Gate, Electronic City, Bengaluru", "addr:postcode": "560100", "addr:street": "Hosur Road", "amenity": "hospital", "check_date": "2025-07-04", "healthcare": "hospital", "name": "Vimalaya Hospital", "name:kn": "\u0cb5\u0cbf\u0cae\u0cb2\u0caf \u0c86\u0cb8\u0ccd\u0caa\u0ca4\u0ccd\u0cb0\u0cc6"}}, {"type": "way", "id": 1433363981, "nodes": [13173681435, 13173681436, 13173681437, 13173681438, 13173681435], "tags": {"amenity": "hospital", "healthcare": "hospital", "name": "Aarogya Hastha Hospital"}}]}