{"version": 0.6, "generator": "Overpass API 0.7.62.8 e802775f", "osm3s": {"timestamp_osm_base": "2026-01-12T02:37:36Z", "copyright": "The data included in this document is from www.openstreetmap.org. The data is made available under ODbL."}, "elements": [{"type": "node", "id": 29420693, "lat": -33.8388606, "lon": 151.2510732, "tags": {"bus": "yes", "gtfs:stop_id": "2088125", "name": "Clifton Gardens", "network": "Transport Buses", "public_transport": "stop_position", "ref": "2088125"}}, {"type": "node", "id": 31492673, "lat": -33.8382421, "lon": 151.256409, "tags": {"bus": "yes", "gtfs:stop_id": "2088240", "name": "Chowder Bay Rd opp Sydney Institute of Marine Science", "network": "Transport Buses", "public_transport": "stop_position", "ref": "2088240"}}, {"type": "node", "id": 82030648, "lat": -33.8407337, "lon": 151.2304646, "tags": {"ferry": "yes", "name": "Old Cremorne", "operator": "Sydney Ferries", "public_transport": "stop_position", "wheelchair": "no"}}, {"type": "node", "id": 89004517, "lat": -33.8244716, "lon": 151.2508778, "tags": {"bus": "yes", "gtfs:stop_id": "208888", "name": "The Esplanade opp Hunter Park", "network": "Transport Buses", "public_transport": "stop_position", "ref": "208888"}}, {"type": "node", "id": 277866721, "lat": -33.8432439, "lon": 151.2325622, "tags": {"ferry": "yes", "level": "0", "name": "South Mosman", "operator": "Sydney Ferries", "public_transport": "stop_position", "wheelchair": "no"}}, {"type": "node", "id": 277866747, "lat": -33.8384528, "lon": 151.2322395, "tags": {"ferry": "yes", "name": "Mosman Bay", "public_transport": "stop_position", "wheelchair": "yes", "wheelchair:description": "depending on the tide the ramp can be very steep"}}, {"type": "node", "id": 450475584, "lat": -33.8286341, "lon": 151.2260769, "tags": {"bench": "yes", "bus": "yes", "gtfs:stop_id": "209067", "highway": "bus_stop", "name": "Gerard St before Winnie St", "network": "Transport Buses", "network:wikidata": "Q5001345", "public_transport": "platform", "ref": "209067", "shelter": "yes", "source": "knowledge"}}, {"type": "node", "id": 497623847, "lat": -33.7994474, "lon": 151.2845739, "tags": {"bench": "yes", "bin": "no", "bus": "yes", "gtfs:stop_id": "209579", "highway": "bus_stop", "lit": "yes", "local_ref": "C", "name": "Manly Wharf, East Esplanade, Stand C", "network": "Transport Buses", "network:wikidata": "Q5001345", "public_transport": "platform", "ref": "209579", "shelter": "yes", "tactile_paving": "no"}}, {"type": "node", "id": 512735777, "lat": -33.7940656, "lon": 151.2601667, "tags": {"bench": "yes", "bus": "yes", "departures_board": "timetable", "gtfs:stop_id": "209331", "highway": "bus_stop", "name": "Sydney Rd at West St", "network": "Transport Buses", "network:wikidata": "Q5001345", "public_transport": "platform", "ref": "209331", "shelter": "yes"}}, {"type": "node", "id": 512735780, "lat": -33.7946139, "lon": 151.2582907, "tags": {"bench": "yes", "bin": "yes", "bus": "yes", "departures_board": "timetable", "gtfs:stop_id": "209332", "highway": "bus_stop", "name": "Sydney Rd at Wanganella St", "network": "Transport Buses", "network:wikidata": "Q5001345", "public_transport": "platform", "ref": "209332", "shelter": "yes", "tactile_paving": "no"}}, {"type": "node", "id": 512735783, "lat": -33.7953137, "lon": 151.2559189, "tags": {"bench": "yes", "bin": "yes", "bus": "yes", "departures_board": "timetable", "gtfs:stop_id": "209333", "highway": "bus_stop", "lit": "yes", "name": "Sydney Rd at Maretimo St", "network": "TfNSW", "not:network:wikidata": "Q5001345", "public_transport": "platform", "ref": "209333", "shelter": "yes", "tactile_paving": "no"}}, {"type": "node", "id": 512735785, "lat": -33.7958251, "lon": 151.2541715, "tags": {"bench": "yes", "bin": "yes", "bus": "yes", "departures_board": "timetable", "gtfs:stop_id": "209334", "highway": "bus_stop", "lit": "yes", "name": "Sydney Rd at Coral St", "network": "Transport Buses", "network:wikidata": "Q5001345", "public_transport": "platform", "ref": "209334", "shelter": "yes", "tactile_paving": "no"}}, {"type": "node", "id": 512735788, "lat": -33.798918, "lon": 151.2516021, "tags": {"bench": "yes", "bin": "no", "bus": "yes", "departures_board": "timetable", "gtfs:stop_id": "209335", "highway": "bus_stop", "lit": "yes", "name": "Manly Rd at Heaton Av", "network": "Transport Buses", "network:wikidata": "Q5001345", "public_transport": "platform", "ref": "209335", "shelter": "yes", "tactile_paving": "no"}}, {"type": "node", "id": 512735791, "lat": -33.7999338, "lon": 151.2488962, "tags": {"bench": "yes", "bin": "no", "bus": "yes", "departures_board": "timetable", "gtfs:stop_id": "209212", "highway": "bus_stop", "name": "Manly Rd at Avona Cres", "network": "Transport Buses", "network:wikidata": "Q5001345", "public_transport": "platform", "ref": "209212", "shelter": "yes", "tactile_paving": "no"}}, {"type": "node", "id": 512735797, "lat": -33.8128655, "lon": 151.2446498, "tags": {"bench": "yes", "bin": "no", "bus": "yes", "gtfs:stop_id": "2088186", "highway": "bus_stop", "lit": "yes", "name": "Spit Rd opp Medusa St", "network": "Transport Buses", "network:wikidata": "Q5001345", "public_transport": "platform", "ref": "2088186", "shelter": "yes", "tactile_paving": "yes"}}, {"type": "node", "id": 512735803, "lat": -33.81914, "lon": 151.2440338, "tags": {"bench": "yes", "bin": "no", "bus": "yes", "gtfs:stop_id": "2088188", "highway": "bus_stop", "lit": "yes", "name": "Spit Rd at Stanton Rd", "network": "Transport Buses", "network:wikidata": "Q5001345", "public_transport": "platform", "ref": "2088188", "shelter": "yes", "tactile_paving": "yes"}}, {"type": "node", "id": 512739551, "lat": -33.8217658, "lon": 151.2439296, "tags": {"bench": "yes", "bin": "no", "bus": "yes", "departures_board": "timetable", "gtfs:stop_id": "2088189", "highway": "bus_stop", "lit": "yes", "name": "Spit Rd after Awaba St", "network": "Transport Buses", "network:wikidata": "Q5001345", "public_transport": "platform", "ref": "2088189", "shelter": "yes", "tactile_paving": "yes"}}, {"type": "node", "id": 512739552, "lat": -33.824454, "lon": 151.2377599, "tags": {"bench": "yes", "bin": "no", "bus": "yes", "gtfs:stop_id": "2088192", "highway": "bus_stop", "name": "Military Rd at Wudgong St", "network": "Transport Buses", "network:wikidata": "Q5001345", "public_transport": "platform", "ref": "2088192", "shelter": "yes", "tactile_paving": "yes", "wheelchair": "yes"}}, {"type": "node", "id": 514097724, "lat": -33.8264131, "lon": 151.2322676, "tags": {"bench": "yes", "bin": "no", "bus": "yes", "departures_board": "timetable", "gtfs:stop_id": "2088176", "highway": "bus_stop", "name": "Military Rd at Prince St", "network": "Transport Buses", "network:wikidata": "Q5001345", "public_transport": "platform", "ref": "2088176", "shelter": "yes", "tactile_paving": "yes"}}, {"type": "node", "id": 514097726, "lat": -33.8242791, "lon": 151.2372188, "tags": {"bench": "yes", "bin": "no", "bus": "yes", "gtfs:stop_id": "2088178", "highway": "bus_stop", "name": "Military Rd at Bond St", "network": "Transport Buses", "network:wikidata": "Q5001345", "public_transport": "platform", "ref": "2088178", "shelter": "yes", "wheelchair": "limited", "wheelchair:description": "Most buses that pass this stop are accessible or a accessible one following within a few min, the ram onto the bus from this stop isn't too steep when the bus is lowered"}}, {"type": "node", "id": 514097728, "lat": -33.823932, "lon": 151.2415708, "tags": {"bench": "yes", "bin": "yes", "bus": "yes", "departures_board": "realtime", "gtfs:stop_id": "2088180", "highway": "bus_stop", "lit": "yes", "name": "Spit Junction B-Line, Spit Rd", "network": "Transport Buses", "network:wikidata": "Q5001345", "public_transport": "platform", "ref": "2088180", "shelter": "yes", "tactile_paving": "yes", "wheelchair": "yes"}}, {"type": "node", "id": 514097729, "lat": -33.8213454, "lon": 151.2437759, "tags": {"bench": "yes", "bin": "no", "bus": "yes", "departures_board": "timetable", "gtfs:stop_id": "2088181", "highway": "bus_stop", "lit": "yes", "name": "Spit Rd at Awaba St", "network": "Transport Buses", "network:wikidata": "Q5001345", "public_transport": "platform", "ref": "2088181", "shelter": "yes", "tactile_paving": "yes"}}, {"type": "node", "id": 514097731, "lat": -33.8172316, "lon": 151.2434194, "tags": {"bench": "yes", "bin": "yes", "bus": "yes", "gtfs:stop_id": "2088182", "highway": "bus_stop", "name": "Spit Rd opp Parriwi Rd", "network": "Transport Buses", "network:wikidata": "Q5001345", "public_transport": "platform", "ref": "2088182", "shelter": "yes", "tactile_paving": "yes"}}, {"type": "node", "id": 514097732, "lat": -33.8149007, "lon": 151.2432833, "tags": {"bench": "yes", "bin": "no", "bus": "yes", "highway": "bus_stop", "public_transport": "platform", "shelter": "yes"}}, {"type": "node", "id": 514097733, "lat": -33.8102018, "lon": 151.2449341, "tags": {"bench": "yes", "bin": "no", "bus": "yes", "gtfs:stop_id": "2088185", "highway": "bus_stop", "lit": "yes", "name": "Spit Rd at Pearl Bay Av", "network": "Transport Buses", "network:wikidata": "Q5001345", "public_transport": "platform", "ref": "2088185", "shelter": "yes", "tactile_paving": "yes"}}, {"type": "node", "id": 514097734, "lat": -33.8061796, "lon": 151.246433, "tags": {"bench": "yes", "bin": "yes", "bus": "yes", "gtfs:stop_id": "208811", "highway": "bus_stop", "lit": "yes", "name": "Spit West Reserve, Spit Rd", "network": "Transport Buses", "network:wikidata": "Q5001345", "public_transport": "platform", "ref": "208811", "shelter": "yes", "tactile_paving": "yes"}}, {"type": "node", "id": 514097735, "lat": -33.7995229, "lon": 151.2495644, "tags": {"bench": "yes", "bin": "no", "bus": "yes", "departures_board": "timetable", "gtfs:stop_id": "209211", "highway": "bus_stop", "name": "Manly Rd opp Avona Cres", "network": "Transport Buses", "network:wikidata": "Q5001345", "public_transport": "platform", "ref": "209211", "shelter": "yes", "tactile_paving": "no"}}, {"type": "node", "id": 514097736, "lat": -33.7956321, "lon": 151.2540729, "tags": {"bench": "yes", "bin": "yes", "bus": "yes", "departures_board": "timetable", "gtfs:stop_id": "209311", "highway": "bus_stop", "name": "Balgowlah Golf Club, Sydney Rd", "network": "Transport Buses", "network:wikidata": "Q5001345", "public_transport": "platform", "ref": "209311", "shelter": "yes", "tactile_paving": "no"}}, {"type": "node", "id": 514097737, "lat": -33.7946614, "lon": 151.2573978, "tags": {"bench": "yes", "bin": "yes", "bus": "yes", "departures_board": "timetable", "gtfs:stop_id": "209312", "highway": "bus_stop", "lit": "yes", "name": "Sydney Rd before Wanganella St", "network": "Transport Buses", "network:wikidata": "Q5001345", "public_transport": "platform", "ref": "209312", "shelter": "yes", "tactile_paving": "no"}}, {"type": "node", "id": 514097738, "lat": -33.7940498, "lon": 151.2594655, "tags": {"bench": "yes", "bin": "yes", "bus": "yes", "departures_board": "timetable", "gtfs:stop_id": "209313", "highway": "bus_stop", "name": "Sydney Rd at Rickard St", "network": "Transport Buses", "network:wikidata": "Q5001345", "public_transport": "platform", "ref": "209313", "shelter": "yes", "tactile_paving": "no"}}, {"type": "node", "id": 514097739, "lat": -33.7939479, "lon": 151.2622308, "tags": {"bench": "yes", "bin": "no", "bus": "yes", "departures_board": "no", "gtfs:stop_id": "209314", "highway": "bus_stop", "name": "Sydney Rd before Woodland St", "network": "Transport Buses", "network:wikidata": "Q5001345", "public_transport": "platform", "ref": "209314", "shelter": "no", "tactile_paving": "no"}}, {"type": "node", "id": 514097740, "lat": -33.794297, "lon": 151.26448, "tags": {"bench": "yes", "bin": "yes", "bus": "yes", "departures_board": "timetable", "gtfs:stop_id": "209315", "highway": "bus_stop", "lit": "yes", "name": "Sydney Rd at Condamine St", "network": "Transport Buses", "network:wikidata": "Q5001345", "public_transport": "platform", "ref": "209315", "shelter": "yes", "tactile_paving": "no"}}, {"type": "node", "id": 514097741, "lat": -33.7945998, "lon": 151.2656554, "tags": {"bench": "yes", "bin": "yes", "bus": "yes", "check_date:bench": "2023-12-30", "gtfs:stop_id": "2093142", "highway": "bus_stop", "lit": "yes", "name": "Sydney Rd before Condamine St", "network": "Transport Buses", "network:wikidata": "Q5001345", "public_transport": "platform", "ref": "2093142", "shelter": "yes", "tactile_paving": "no"}}, {"type": "node", "id": 514097742, "lat": -33.7949257, "lon": 151.2689556, "tags": {"bench": "yes", "bin": "no", "bus": "yes", "gtfs:stop_id": "2093144", "highway": "bus_stop", "lit": "yes", "name": "Sydney Rd at Hill St", "network": "Transport Buses", "network:wikidata": "Q5001345", "public_transport": "platform", "ref": "2093144", "shelter": "no", "tactile_paving": "no"}}, {"type": "node", "id": 514097743, "lat": -33.7949416, "lon": 151.2715162, "tags": {"bench": "no", "bin": "no", "bus": "yes", "departures_board": "no", "gtfs:stop_id": "209443", "highway": "bus_stop", "lit": "no", "name": "Sydney Rd at Austin St", "network": "TfNSW", "not:network:wikidata": "Q5001345", "public_transport": "platform", "ref": "209443", "shelter": "no", "tactile_paving": "no"}}, {"type": "node", "id": 514097744, "lat": -33.7950794, "lon": 151.2715111, "tags": {"bench": "yes", "bus": "yes", "gtfs:stop_id": "209442", "highway": "bus_stop", "name": "Sydney Rd at Austin St", "network": "Transport Buses", "network:wikidata": "Q5001345", "public_transport": "platform", "ref": "209442", "shelter": "yes"}}, {"type": "node", "id": 514097745, "lat": -33.7950454, "lon": 151.2737355, "tags": {"bench": "yes", "bin": "no", "bus": "yes", "check_date:bench": "2023-12-30", "departures_board": "timetable", "gtfs:stop_id": "209444", "highway": "bus_stop", "lit": "no", "name": "Sydney Rd at Brisbane St", "network": "Transport Buses", "network:wikidata": "Q5001345", "public_transport": "platform", "ref": "209444", "shelter": "yes", "tactile_paving": "no"}}, {"type": "node", "id": 514097748, "lat": -33.7956059, "lon": 151.2754532, "tags": {"bench": "yes", "bin": "no", "bus": "yes", "gtfs:stop_id": "209445", "highway": "bus_stop", "lit": "yes", "name": "Sydney Rd at Cohen St", "network": "Transport Buses", "network:wikidata": "Q5001345", "public_transport": "platform", "ref": "209445", "shelter": "yes", "tactile_paving": "no"}}, {"type": "node", "id": 514097749, "lat": -33.7958055, "lon": 151.2755865, "tags": {"bench": "yes", "bin": "no", "bus": "yes", "departures_board": "timetable", "gtfs:stop_id": "209440", "highway": "bus_stop", "lit": "yes", "name": "Sydney Rd opp Cohen St", "network": "Transport Buses", "network:wikidata": "Q5001345", "public_transport": "platform", "ref": "209440", "shelter": "yes", "tactile_paving": "no"}}, {"type": "node", "id": 514097750, "lat": -33.7958778, "lon": 151.2770118, "tags": {"bench": "yes", "bin": "no", "bus": "yes", "departures_board": "timetable", "gtfs:stop_id": "209446", "highway": "bus_stop", "lit": "yes", "name": "Sydney Rd at Thornton St", "network": "Transport Buses", "network:wikidata": "Q5001345", "public_transport": "platform", "ref": "209446", "shelter": "yes", "tactile_paving": "no"}}, {"type": "node", "id": 514335233, "lat": -33.7967423, "lon": 151.2649121, "tags": {"bench": "yes", "bin": "no", "bus": "yes", "covered": "yes", "departures_board": "timetable", "gtfs:stop_id": "2093140", "highway": "bus_stop", "name": "White St before Orchard St", "network": "Transport Buses", "network:wikidata": "Q5001345", "public_transport": "platform", "ref": "2093140", "shelter": "yes", "source": "survey", "tactile_paving": "no", "wheelchair": "yes"}}, {"type": "node", "id": 514335236, "lat": -33.796847, "lon": 151.2646959, "tags": {"bench": "yes", "bin": "no", "bus": "yes", "departures_board": "timetable", "gtfs:stop_id": "209374", "highway": "bus_stop", "lit": "yes", "name": "White St at Condamine St", "network": "Transport Buses", "network:wikidata": "Q5001345", "public_transport": "platform", "ref": "209374", "shelter": "yes", "source": "survey", "tactile_paving": "no"}}, {"type": "node", "id": 599454624, "lat": -33.8292506, "lon": 151.2498916}, {"type": "node", "id": 599454625, "lat": -33.8293781, "lon": 151.2495638}, {"type": "node", "id": 599454626, "lat": -33.8294782, "lon": 151.2494045}, {"type": "node", "id": 599454627, "lat": -33.8295738, "lon": 151.2493908}, {"type": "node", "id": 599454629, "lat": -33.8290229, "lon": 151.2507385}, {"type": "node", "id": 599454630, "lat": -33.8291322, "lon": 151.2505973}, {"type": "node", "id": 599454631, "lat": -33.8292051, "lon": 151.2504289}, {"type": "node", "id": 599454632, "lat": -33.8285403, "lon": 151.2509707}, {"type": "node", "id": 599454633, "lat": -33.8288909, "lon": 151.2508295}, {"type": "node", "id": 599454640, "lat": -33.8282763, "lon": 151.2510754}, {"type": "node", "id": 599454641, "lat": -33.8281463, "lon": 151.2513919}, {"type": "node", "id": 599454642, "lat": -33.8279827, "lon": 151.2522161, "tags": {"tourism": "information"}}, {"type": "node", "id": 599454643, "lat": -33.8281807, "lon": 151.2522181}, {"type": "node", "id": 599454644, "lat": -33.8281055, "lon": 151.2518267, "tags": {"tourism": "information"}}, {"type": "node", "id": 741839598, "lat": -33.8284843, "lon": 151.2301967, "tags": {"bench": "yes", "bin": "no", "bus": "yes", "gtfs:stop_id": "209057", "highway": "bus_stop", "lit": "no", "name": "Spofforth St at Military Rd", "network": "Transport Buses", "network:wikidata": "Q5001345", "public_transport": "platform", "ref": "209057", "shelter": "no", "tactile_paving": "yes"}}, {"type": "node", "id": 762068182, "lat": -33.7557886, "lon": 151.2965515, "tags": {"bench": "yes", "bus": "yes", "departures_board": "timetable", "gtfs:stop_id": "209955", "highway": "bus_stop", "name": "The Strand at Pacific Pde", "network": "Transport Buses", "network:wikidata": "Q5001345", "operator": "Transport NSW", "public_transport": "platform", "ref": "209955", "shelter": "yes", "tactile_paving": "yes"}}, {"type": "node", "id": 762068183, "lat": -33.7556017, "lon": 151.2937093, "tags": {"bench": "no", "bin": "no", "bus": "yes", "gtfs:stop_id": "209980", "highway": "bus_stop", "name": "Pacific Pde opp Wheeler Pde", "network": "Transport Buses", "network:wikidata": "Q5001345", "public_transport": "platform", "ref": "209980", "shelter": "no"}}, {"type": "node", "id": 762068293, "lat": -33.7562255, "lon": 151.293972, "tags": {"bench": "yes", "bin": "no", "bus": "yes", "departures_board": "no", "gtfs:stop_id": "209983", "highway": "bus_stop", "name": "Wheeler Pde after Pacific Pde", "network": "Transport Buses", "network:wikidata": "Q5001345", "public_transport": "platform", "ref": "209983", "shelter": "no", "tactile_paving": "yes"}}, {"type": "node", "id": 762068452, "lat": -33.7553012, "lon": 151.2915527, "tags": {"bench": "yes", "bus": "yes", "gtfs:stop_id": "209978", "highway": "bus_stop", "name": "Pacific Pde at Avon Rd", "network": "Transport Buses", "network:wikidata": "Q5001345", "public_transport": "platform", "ref": "209978", "shelter": "no"}}, {"type": "node", "id": 762068507, "lat": -33.7576361, "lon": 151.2962771, "tags": {"bench": "yes", "bus": "yes", "gtfs:stop_id": "209956", "highway": "bus_stop", "name": "Griffin Rd after Boronia St", "network": "Transport Buses", "network:wikidata": "Q5001345", "public_transport": "platform", "ref": "209956", "shelter": "yes"}}, {"type": "node", "id": 762068550, "lat": -33.7600225, "lon": 151.2958644, "tags": {"bench": "yes", "bus": "yes", "departures_board": "timetable", "gtfs:stop_id": "209957", "highway": "bus_stop", "name": "Griffin Rd at Tasman St", "network": "Transport NSW", "public_transport": "platform", "ref": "209957", "shelter": "yes"}}, {"type": "node", "id": 762068552, "lat": -33.7603304, "lon": 151.295667, "tags": {"bench": "yes", "bus": "yes", "departures_board": "timetable", "gtfs:stop_id": "209941", "highway": "bus_stop", "name": "Griffin Rd after Headland Rd", "network": "Transport NSW", "public_transport": "platform", "ref": "209941", "shelter": "yes"}}, {"type": "node", "id": 762068554, "lat": -33.7572934, "lon": 151.296199, "tags": {"bench": "yes", "bus": "yes", "departures_board": "timetable", "gtfs:stop_id": "209942", "highway": "bus_stop", "name": "Griffin Rd at Boronia St", "network": "Transport Buses", "network:wikidata": "Q5001345", "public_transport": "platform", "ref": "209942", "shelter": "yes"}}, {"type": "node", "id": 762068560, "lat": -33.7556266, "lon": 151.2963793, "tags": {"bench": "yes", "bus": "yes", "gtfs:stop_id": "209943", "highway": "bus_stop", "name": "The Strand after Pacific Pde", "network": "Transport Buses", "network:wikidata": "Q5001345", "public_transport": "platform", "ref": "209943", "shelter": "yes"}}, {"type": "node", "id": 762068686, "lat": -33.760174, "lon": 151.2934221, "tags": {"bench": "no", "bin": "no", "bus": "yes", "departures_board": "timetable", "gtfs:stop_id": "209985", "highway": "bus_stop", "name": "Wheeler Pde at Headland Rd", "network": "Transport Buses", "network:wikidata": "Q5001345", "operator": "Keolis Downer Northern Beaches", "operator:wikidata": "Q107410349", "public_transport": "platform", "ref": "209985", "shelter": "no"}}, {"type": "node", "id": 762068739, "lat": -33.7608438, "lon": 151.2892381, "tags": {"bench": "no", "bus": "yes", "departures_board": "timetable", "gtfs:stop_id": "209987", "highway": "bus_stop", "name": "Parr Av at Playfair Rd", "network": "Transport Buses", "network:wikidata": "Q5001345", "public_transport": "platform", "ref": "209987", "shelter": "no"}}, {"type": "node", "id": 762068740, "lat": -33.7641778, "lon": 151.2838697, "tags": {"bench": "yes", "bus": "yes", "departures_board": "timetable", "gtfs:stop_id": "209964", "highway": "bus_stop", "name": "Reub Hudson Oval, Abbott Rd", "network": "Transport Buses", "network:wikidata": "Q5001345", "public_transport": "platform", "ref": "209964", "shelter": "yes"}}, {"type": "node", "id": 762068803, "lat": -33.7592276, "lon": 151.2798726, "tags": {"bench": "yes", "bin": "no", "bus": "yes", "covered": "yes", "gtfs:stop_id": "210021", "highway": "bus_stop", "lit": "no", "name": "Pittwater Rd after Harbord Rd", "network": "Transport Buses", "network:wikidata": "Q5001345", "public_transport": "platform", "ref": "210021", "shelter": "yes", "tactile_paving": "yes"}}, {"type": "node", "id": 762068806, "lat": -33.7599906, "lon": 151.2783184, "tags": {"bench": "yes", "bin": "no", "bus": "yes", "covered": "yes", "gtfs:stop_id": "210018", "highway": "bus_stop", "name": "Manly Leagues Club, Pittwater Rd", "network": "Transport Buses", "network:wikidata": "Q5001345", "public_transport": "platform", "ref": "210018", "shelter": "yes"}}, {"type": "node", "id": 762068815, "lat": -33.7610409, "lon": 151.2737186, "tags": {"bench": "yes", "bin": "yes", "bus": "yes", "gtfs:stop_id": "210017", "highway": "bus_stop", "lit": "yes", "name": "Brookvale Oval, Pittwater Rd", "network": "Transport Buses", "network:wikidata": "Q5001345", "public_transport": "platform", "ref": "210017", "shelter": "yes", "tactile_paving": "no"}}, {"type": "node", "id": 762068819, "lat": -33.7612486, "lon": 151.2737928, "tags": {"bench": "yes", "bin": "yes", "bus": "yes", "departures_board": "timetable", "gtfs:stop_id": "210024", "highway": "bus_stop", "lit": "yes", "name": "Pittwater Rd opp Brookvale Oval", "network": "Transport Buses", "network:wikidata": "Q5001345", "public_transport": "platform", "ref": "210024", "shelter": "yes", "tactile_paving": "no"}}, {"type": "node", "id": 762068827, "lat": -33.7621904, "lon": 151.2715747, "tags": {"bench": "yes", "bin": "yes", "bus": "yes", "check_date:bench": "2023-12-28", "departures_board": "timetable", "gtfs:stop_id": "210016", "highway": "bus_stop", "lit": "no", "name": "Pittwater Rd at Old Pittwater Rd", "network": "Transport Buses", "network:wikidata": "Q5001345", "public_transport": "platform", "ref": "210016", "shelter": "no", "tactile_paving": "no"}}, {"type": "node", "id": 762068839, "lat": -33.7634459, "lon": 151.2716551, "tags": {"bus": "yes", "departures_board": "timetable", "gtfs:stop_id": "210025", "highway": "bus_stop", "name": "Pittwater Rd after Chard Rd", "network": "Transport Buses", "network:wikidata": "Q5001345", "public_transport": "platform", "ref": "210025", "shelter": "yes"}}, {"type": "node", "id": 762069119, "lat": -33.7649129, "lon": 151.2708401, "tags": {"bus": "yes", "highway": "bus_stop", "name": "Pittwater Rd at Orchard Rd", "public_transport": "platform"}}, {"type": "node", "id": 762069158, "lat": -33.7650824, "lon": 151.270089, "tags": {"bus": "yes", "highway": "bus_stop", "name": "Pittwater Rd opp Orchard Rd", "public_transport": "platform"}}, {"type": "node", "id": 762069159, "lat": -33.7673926, "lon": 151.2687832, "tags": {"bench": "yes", "bin": "yes", "bus": "yes", "check_date:shelter": "2023-08-21", "description": "145; 154X; 172X; 173X; 176X; 177X; 180X; 181X; 280; B1; BN1", "gtfs:stop_id": "2100145", "highway": "bus_stop", "lit": "yes", "name": "Warringah Mall, Pittwater Rd, Stand B", "network": "Transport Buses", "network:wikidata": "Q5001345", "public_transport": "platform", "ref": "2100145", "shelter": "yes", "tactile_paving": "yes"}}, {"type": "node", "id": 762069268, "lat": -33.767124, "lon": 151.2686834, "tags": {"bench": "yes", "bin": "yes", "bus": "yes", "departures_board": "realtime", "gtfs:stop_id": "210012", "highway": "bus_stop", "lit": "yes", "name": "Warringah Mall, Pittwater Rd, Stand C", "network": "Transport Buses", "network:wikidata": "Q5001345", "public_transport": "platform", "ref": "210012", "shelter": "yes", "tactile_paving": "yes"}}, {"type": "node", "id": 762069580, "lat": -33.76982, "lon": 151.2787066, "tags": {"bus": "yes", "gtfs:stop_id": "209690", "highway": "bus_stop", "name": "Harbord Rd at William St", "network": "Transport Buses", "network:wikidata": "Q5001345", "public_transport": "platform", "ref": "209690"}}, {"type": "node", "id": 762069699, "lat": -33.7701043, "lon": 151.2789354, "tags": {"bus": "yes", "gtfs:stop_id": "209612", "highway": "bus_stop", "name": "Harbord Rd opp William St", "network": "Transport Buses", "network:wikidata": "Q5001345", "public_transport": "platform", "ref": "209612", "shelter": "no"}}, {"type": "node", "id": 762069847, "lat": -33.7734161, "lon": 151.2790338, "tags": {"bus": "yes", "gtfs:stop_id": "209689", "highway": "bus_stop", "name": "Harbord Rd at Wyuna Av", "network": "Transport Buses", "network:wikidata": "Q5001345", "public_transport": "platform", "ref": "209689"}}, {"type": "node", "id": 762070024, "lat": -33.7737223, "lon": 151.2840674, "tags": {"bus": "yes", "gtfs:stop_id": "209654", "highway": "bus_stop", "name": "Wyuna Av at Oliver St", "network": "Transport Buses", "network:wikidata": "Q5001345", "public_transport": "platform", "ref": "209654"}}, {"type": "node", "id": 762749896, "lat": -33.7752553, "lon": 151.2791573, "tags": {"bus": "yes", "gtfs:stop_id": "209688", "highway": "bus_stop", "name": "Harbord Rd at Coles Rd", "network": "Transport Buses", "network:wikidata": "Q5001345", "public_transport": "platform", "ref": "209688"}}, {"type": "node", "id": 762750524, "lat": -33.7784684, "lon": 151.2809452, "tags": {"bench": "yes", "bin": "no", "bus": "yes", "gtfs:stop_id": "209686", "highway": "bus_stop", "name": "Lawrence St before Harbord Rd", "network": "Transport Buses", "network:wikidata": "Q5001345", "public_transport": "platform", "ref": "209686", "shelter": "no", "tactile_paving": "no"}}, {"type": "node", "id": 762750869, "lat": -33.7774612, "lon": 151.2800239, "tags": {"bus": "yes", "highway": "bus_stop", "public_transport": "platform"}}, {"type": "node", "id": 762750975, "lat": -33.7784016, "lon": 151.2815324, "tags": {"bus": "yes", "gtfs:stop_id": "2096103", "highway": "bus_stop", "name": "Lawrence St opp Cavill St", "network": "Transport Buses", "network:wikidata": "Q5001345", "public_transport": "platform", "ref": "2096103"}}, {"type": "node", "id": 762751152, "lat": -33.7791179, "lon": 151.282296, "tags": {"bus": "yes", "gtfs:stop_id": "209685", "highway": "bus_stop", "name": "Cavill St after Oliver St", "network": "Transport Buses", "network:wikidata": "Q5001345", "public_transport": "platform", "ref": "209685"}}, {"type": "node", "id": 762751598, "lat": -33.7810616, "lon": 151.2819914, "tags": {"bus": "yes", "gtfs:stop_id": "2096110", "highway": "bus_stop", "name": "Cavill St before Dalley St", "network": "Transport Buses", "network:wikidata": "Q5001345", "public_transport": "platform", "ref": "2096110"}}, {"type": "node", "id": 762751742, "lat": -33.7811036, "lon": 151.2818043, "tags": {"bus": "yes", "gtfs:stop_id": "209683", "highway": "bus_stop", "name": "Cavill St opp Crown Rd", "network": "Transport Buses", "network:wikidata": "Q5001345", "public_transport": "platform", "ref": "209683"}}, {"type": "node", "id": 762751892, "lat": -33.7831057, "lon": 151.2852656, "tags": {"bus": "yes", "gtfs:stop_id": "209681", "highway": "bus_stop", "name": "Queenscliff Rd at Greycliffe St", "network": "Transport Buses", "network:wikidata": "Q5001345", "public_transport": "platform", "ref": "209681"}}, {"type": "node", "id": 762752079, "lat": -33.7829628, "lon": 151.2853292, "tags": {"bus": "yes", "gtfs:stop_id": "2096112", "highway": "bus_stop", "name": "Queenscliff Rd opp Greycliffe St", "network": "Transport Buses", "network:wikidata": "Q5001345", "public_transport": "platform", "ref": "2096112"}}, {"type": "node", "id": 762752346, "lat": -33.785745, "lon": 151.2875772, "tags": {"bench": "yes", "bus": "yes", "gtfs:stop_id": "209558", "highway": "bus_stop", "name": "Queenscliff SLSC, North Steyne", "network": "Transport Buses", "network:wikidata": "Q5001345", "public_transport": "platform", "ref": "209558", "shelter": "yes"}}, {"type": "node", "id": 762752440, "lat": -33.7863388, "lon": 151.2875621, "tags": {"bench": "yes", "bus": "yes", "departures_board": "timetable", "gtfs:stop_id": "209557", "highway": "bus_stop", "name": "North Steyne opp Queenscliff SLSC", "network": "Transport Buses", "network:wikidata": "Q5001345", "public_transport": "platform", "ref": "209557", "shelter": "no", "tactile_paving": "no"}}, {"type": "node", "id": 762752729, "lat": -33.7826371, "lon": 151.28003, "tags": {"bench": "yes", "bin": "no", "bus": "yes", "gtfs:stop_id": "210047", "highway": "bus_stop", "lit": "no", "name": "Pittwater Rd opp Mill Park", "network": "Transport Buses", "network:wikidata": "Q5001345", "public_transport": "platform", "ref": "210047", "shelter": "yes", "tactile_paving": "yes"}}, {"type": "node", "id": 762753034, "lat": -33.7852308, "lon": 151.2811995, "tags": {"bench": "yes", "bin": "yes", "bus": "yes", "departures_board": "timetable", "gtfs:stop_id": "209547", "highway": "bus_stop", "name": "Pittwater Rd opp Keirle Park", "network": "Transport Buses", "network:wikidata": "Q5001345", "public_transport": "platform", "ref": "209547", "shelter": "yes"}}, {"type": "node", "id": 762753213, "lat": -33.7852813, "lon": 151.2809738, "tags": {"bench": "yes", "bin": "no", "bus": "yes", "gtfs:stop_id": "209546", "highway": "bus_stop", "name": "Keirle Park, Pittwater Rd", "network": "Transport Buses", "network:wikidata": "Q5001345", "public_transport": "platform", "ref": "209546", "shelter": "yes"}}, {"type": "node", "id": 762753412, "lat": -33.7884228, "lon": 151.2847346, "tags": {"bench": "yes", "bus": "yes", "departures_board": "timetable", "gtfs:stop_id": "209549", "highway": "bus_stop", "name": "Pittwater Rd after Collingwood St", "network": "Transport Buses", "network:wikidata": "Q5001345", "public_transport": "platform", "ref": "209549", "shelter": "no"}}, {"type": "node", "id": 762753504, "lat": -33.7883691, "lon": 151.2845525, "tags": {"bench": "no", "bin": "no", "bus": "yes", "gtfs:stop_id": "209544", "highway": "bus_stop", "lit": "no", "name": "Pittwater Rd opp Collingwood St", "network": "Transport Buses", "network:wikidata": "Q5001345", "public_transport": "platform", "ref": "209544", "shelter": "no", "tactile_paving": "no"}}, {"type": "node", "id": 762754454, "lat": -33.7869786, "lon": 151.2823709, "tags": {"bench": "yes", "bin": "no", "bus": "yes", "gtfs:stop_id": "209545", "highway": "bus_stop", "lit": "no", "name": "Pittwater Rd before Balgowlah Rd", "network": "Transport Buses", "network:wikidata": "Q5001345", "public_transport": "platform", "ref": "209545", "shelter": "no", "tactile_paving": "yes"}}, {"type": "node", "id": 762754631, "lat": -33.7869466, "lon": 151.2832409, "tags": {"bench": "no", "bin": "no", "bus": "yes", "gtfs:stop_id": "209548", "highway": "bus_stop", "lit": "no", "name": "Pittwater Rd after Balgowlah Rd", "network": "Transport Buses", "network:wikidata": "Q5001345", "public_transport": "platform", "ref": "209548", "shelter": "no", "tactile_paving": "yes"}}, {"type": "node", "id": 762755078, "lat": -33.7925206, "lon": 151.2869321, "tags": {"bench": "yes", "bin": "no", "bus": "yes", "departures_board": "timetable", "gtfs:stop_id": "209561", "highway": "bus_stop", "lit": "no", "name": "North Steyne at Carlton St", "network": "Transport Buses", "network:wikidata": "Q5001345", "public_transport": "platform", "ref": "209561", "shelter": "no", "tactile_paving": "no"}}, {"type": "node", "id": 762755330, "lat": -33.7990087, "lon": 151.2841748, "tags": {"bench": "yes", "bin": "yes", "bus": "yes", "departures_board": "no", "description": "Arrivals only", "gtfs:stop_id": "209581", "highway": "bus_stop", "lit": "no", "local_ref": "D", "name": "Manly Wharf, West Esplanade, Stand D", "network": "Transport Buses", "network:wikidata": "Q5001345", "public_transport": "platform", "ref": "209581", "shelter": "yes", "tactile_paving": "no"}}, {"type": "node", "id": 762762225, "lat": -33.7718839, "lon": 151.2783588, "tags": {"bus": "yes", "gtfs:stop_id": "210055", "highway": "bus_stop", "name": "Wyadra Av before Harbord Rd", "network": "Transport Buses", "network:wikidata": "Q5001345", "public_transport": "platform", "ref": "210055"}}, {"type": "node", "id": 762762353, "lat": -33.7711828, "lon": 151.2748634, "tags": {"bus": "yes", "highway": "bus_stop", "public_transport": "platform"}}, {"type": "node", "id": 762762461, "lat": -33.7708336, "lon": 151.2716425, "tags": {"bus": "yes", "gtfs:stop_id": "210053", "highway": "bus_stop", "name": "Wyadra Av at Nicholson St", "network": "Transport Buses", "network:wikidata": "Q5001345", "public_transport": "platform", "ref": "210053"}}, {"type": "node", "id": 762762522, "lat": -33.7709188, "lon": 151.2716276, "tags": {"bus": "yes", "highway": "bus_stop", "name": "Wyadra Av opp Nicholson St", "network": "Transport Buses", "network:wikidata": "Q5001345", "public_transport": "platform", "ref": "210050"}}, {"type": "node", "id": 762762615, "lat": -33.7724941, "lon": 151.2847315, "tags": {"bench": "yes", "bin": "no", "bus": "yes", "gtfs:stop_id": "209642", "highway": "bus_stop", "lit": "no", "name": "Harbord Public School, Oliver St", "network": "Transport Buses", "network:wikidata": "Q5001345", "public_transport": "platform", "ref": "209642", "shelter": "yes", "tactile_paving": "yes"}}, {"type": "node", "id": 762762682, "lat": -33.7730691, "lon": 151.2844777, "tags": {"bus": "yes", "gtfs:stop_id": "2096115", "highway": "bus_stop", "name": "Oliver St at Wyadra Av", "public_transport": "platform", "ref": "2096115"}}, {"type": "node", "id": 762762799, "lat": -33.7702655, "lon": 151.2850009, "tags": {"bus": "yes", "gtfs:stop_id": "209659", "highway": "bus_stop", "name": "Oliver St at Brighton St", "network": "Transport Buses", "network:wikidata": "Q5001345", "public_transport": "platform", "ref": "209659"}}, {"type": "node", "id": 762762951, "lat": -33.7705127, "lon": 151.2851048, "tags": {"bus": "yes", "gtfs:stop_id": "209640", "highway": "bus_stop", "name": "Oliver St after Brighton St", "network": "Transport Buses", "network:wikidata": "Q5001345", "public_transport": "platform", "ref": "209640"}}, {"type": "node", "id": 762763223, "lat": -33.765161, "lon": 151.2950659, "tags": {"bench": "yes", "bus": "yes", "gtfs:stop_id": "209995", "highway": "bus_stop", "name": "Griffin Rd after Abbott Rd", "network": "Transport Buses", "network:wikidata": "Q5001345", "public_transport": "platform", "ref": "209995", "shelter": "yes"}}, {"type": "node", "id": 762763468, "lat": -33.7624721, "lon": 151.2956187, "tags": {"bench": "yes", "bus": "yes", "departures_board": "timetable", "gtfs:stop_id": "209958", "highway": "bus_stop", "name": "Griffin Rd at Pitt Rd", "network": "Transport Buses", "network:wikidata": "Q5001345", "public_transport": "platform", "ref": "209958", "shelter": "yes"}}, {"type": "node", "id": 762763515, "lat": -33.7628675, "lon": 151.2953566, "tags": {"bench": "yes", "bus": "yes", "gtfs:stop_id": "209994", "highway": "bus_stop", "name": "Griffin Rd at Pitt Rd", "network": "Transport Buses", "network:wikidata": "Q5001345", "public_transport": "platform", "ref": "209994", "shelter": "yes"}}, {"type": "node", "id": 762763843, "lat": -33.7694838, "lon": 151.2884306, "tags": {"bus": "yes", "gtfs:stop_id": "209638", "highway": "bus_stop", "name": "Adams St at Park St", "network": "Transport Buses", "network:wikidata": "Q5001345", "public_transport": "platform", "ref": "209638"}}, {"type": "node", "id": 762764090, "lat": -33.770792, "lon": 151.2687181, "tags": {"bench": "yes", "bus": "yes", "departures_board": "timetable", "gtfs:stop_id": "210041", "highway": "bus_stop", "name": "Pittwater Rd at Sterland Av", "network": "Transport Buses", "network:wikidata": "Q5001345", "public_transport": "platform", "ref": "210041", "shelter": "yes"}}, {"type": "node", "id": 762764319, "lat": -33.7708083, "lon": 151.2684368, "tags": {"bus": "yes", "highway": "bus_stop", "public_transport": "platform"}}, {"type": "node", "id": 762764663, "lat": -33.7743572, "lon": 151.2701417, "tags": {"bench": "yes", "bin": "no", "bus": "yes", "departures_board": "timetable", "gtfs:stop_id": "210042", "highway": "bus_stop", "name": "Pittwater Rd opp Warringah Recreation Centre", "network": "Transport Buses", "network:wikidata": "Q5001345", "public_transport": "platform", "ref": "210042", "shelter": "yes"}}, {"type": "node", "id": 762764892, "lat": -33.7751749, "lon": 151.2703668, "tags": {"bench": "yes", "bus": "yes", "gtfs:stop_id": "210036", "highway": "bus_stop", "name": "Warringah Recreation Centre, Pittwater Rd", "network": "Transport Buses", "network:wikidata": "Q5001345", "public_transport": "platform", "ref": "210036", "shelter": "yes"}}, {"type": "node", "id": 762765066, "lat": -33.7763061, "lon": 151.2723693, "tags": {"bench": "yes", "bus": "yes", "departures_board": "timetable", "gtfs:stop_id": "210043", "highway": "bus_stop", "name": "Pittwater Rd opp North Manly Bowling and Recreation Club", "network": "Transport Buses", "network:wikidata": "Q5001345", "public_transport": "platform", "ref": "210043", "shelter": "yes"}}, {"type": "node", "id": 762765145, "lat": -33.7766163, "lon": 151.2725286, "tags": {"bench": "yes", "bin": "no", "bus": "yes", "gtfs:stop_id": "210035", "highway": "bus_stop", "lit": "no", "name": "Pittwater Rd opp Wakefield St", "network": "Transport Buses", "network:wikidata": "Q5001345", "public_transport": "platform", "ref": "210035", "shelter": "yes", "tactile_paving": "no"}}, {"type": "node", "id": 762765391, "lat": -33.7812621, "lon": 151.2781409, "tags": {"bench": "yes", "bin": "no", "bus": "yes", "departures_board": "timetable", "gtfs:stop_id": "210046", "highway": "bus_stop", "name": "Pittwater Rd at Oliver St", "network": "Transport Buses", "network:wikidata": "Q5001345", "public_transport": "platform", "ref": "210046", "shelter": "yes", "tactile_paving": "yes"}}, {"type": "node", "id": 762765447, "lat": -33.7812936, "lon": 151.2777689, "tags": {"bench": "yes", "bus": "yes", "departures_board": "timetable", "gtfs:stop_id": "210032", "highway": "bus_stop", "name": "Pittwater Rd opp Girard St", "network": "Transport Buses", "network:wikidata": "Q5001345", "public_transport": "platform", "ref": "210032", "shelter": "yes"}}, {"type": "node", "id": 762765614, "lat": -33.780056, "lon": 151.2764147, "tags": {"bench": "yes", "bin": "no", "bus": "yes", "gtfs:stop_id": "210045", "highway": "bus_stop", "name": "Pittwater Rd opp Riverview Pde", "network": "Transport Buses", "network:wikidata": "Q5001345", "public_transport": "platform", "ref": "210045", "shelter": "yes"}}, {"type": "node", "id": 878260117, "lat": -33.8371365, "lon": 151.226115, "tags": {"bench": "yes", "bus": "yes", "highway": "bus_stop", "name": "Cricketers", "public_transport": "platform", "shelter": "yes", "source": "nearmap; local_knowledge"}}, {"type": "node", "id": 1027959395, "lat": -33.7915731, "lon": 151.2790073, "tags": {"bus": "yes", "gtfs:stop_id": "209414", "highway": "bus_stop", "name": "Arthur St at Francis St", "network": "Transport Buses", "network:wikidata": "Q5001345", "public_transport": "platform", "ref": "209414", "shelter": "yes"}}, {"type": "node", "id": 1027959473, "lat": -33.7922852, "lon": 151.2812323, "tags": {"bus": "yes", "gtfs:stop_id": "209524", "highway": "bus_stop", "name": "Birkley Rd opp Arthur St", "network": "Transport Buses", "network:wikidata": "Q5001345", "public_transport": "platform", "ref": "209524"}}, {"type": "node", "id": 1027959594, "lat": -33.7921915, "lon": 151.2811089, "tags": {"bus": "yes", "gtfs:stop_id": "209415", "highway": "bus_stop", "name": "Birkley Rd at Arthur St", "network": "Transport Buses", "network:wikidata": "Q5001345", "public_transport": "platform", "ref": "209415"}}, {"type": "node", "id": 1027960590, "lat": -33.7931327, "lon": 151.2817304, "tags": {"bus": "yes", "gtfs:stop_id": "209530", "highway": "bus_stop", "name": "Augusta Rd at Quinton Rd", "network": "Transport Buses", "network:wikidata": "Q5001345", "public_transport": "platform", "ref": "209530"}}, {"type": "node", "id": 1064532423, "lat": -33.7916069, "lon": 151.2411707, "tags": {"bench": "yes", "bus": "yes", "gtfs:stop_id": "209233", "highway": "bus_stop", "name": "Clontarf St opp Callicoma Rd", "network": "Transport Buses", "network:wikidata": "Q5001345", "public_transport": "platform", "ref": "209233", "shelter": "yes"}}, {"type": "node", "id": 1129230424, "lat": -33.7971732, "lon": 151.2512536, "tags": {"bench": "yes", "bin": "yes", "bus": "yes", "gtfs:stop_id": "209250", "highway": "bus_stop", "lit": "no", "name": "Sydney Rd opp Kempbridge Av", "network": "Transport Buses", "network:wikidata": "Q5001345", "public_transport": "platform", "ref": "209250", "shelter": "yes", "tactile_paving": "no"}}, {"type": "node", "id": 1264487051, "lat": -33.8285741, "lon": 151.2295158, "tags": {"bench": "yes", "bin": "yes", "bus": "yes", "departures_board": "timetable", "gtfs:stop_id": "209059", "highway": "bus_stop", "lit": "yes", "name": "Military Rd before Cabramatta Rd", "network": "Transport Buses", "network:wikidata": "Q5001345", "public_transport": "platform", "ref": "209059", "shelter": "yes", "tactile_paving": "yes"}}, {"type": "node", "id": 1332233343, "lat": -33.796073, "lon": 151.2777397, "tags": {"bench": "yes", "bin": "no", "bus": "yes", "departures_board": "timetable", "gtfs:stop_id": "209438", "highway": "bus_stop", "lit": "no", "name": "Sydney Rd opp Crescent St", "network": "Transport Buses", "network:wikidata": "Q5001345", "public_transport": "platform", "ref": "209438", "shelter": "yes", "tactile_paving": "no"}}, {"type": "node", "id": 1332277855, "lat": -33.7670585, "lon": 151.267089, "tags": {"bench": "yes", "bus": "yes", "departures_board": "timetable", "gtfs:stop_id": "2100112", "highway": "bus_stop", "name": "Warringah Mall, Green St", "network": "Transport Buses", "network:wikidata": "Q5001345", "public_transport": "platform", "ref": "210039", "shelter": "yes"}}, {"type": "node", "id": 1344542736, "lat": -33.838218, "lon": 151.256389, "tags": {"bus": "yes", "capacity": "2", "gtfs:stop_id": "2088240", "highway": "bus_stop", "name": "Chowder Bay Rd opp Sydney Institute of Marine Science", "network": "Transport Buses", "network:wikidata": "Q5001345", "public_transport": "platform", "ref": "2088240"}}, {"type": "node", "id": 1344545893, "lat": -33.8388375, "lon": 151.2510413, "tags": {"bus": "yes", "gtfs:stop_id": "2088125", "highway": "bus_stop", "name": "Clifton Gardens", "network": "Transport Buses", "network:wikidata": "Q5001345", "public_transport": "platform", "public_transport:version": "2", "ref": "2088125", "shelter": "no", "wheelchair": "no"}}, {"type": "node", "id": 1349082841, "lat": -33.7970606, "lon": 151.2461991, "tags": {"bus": "yes", "highway": "bus_stop", "public_transport": "platform"}}, {"type": "node", "id": 1643885065, "lat": -33.7927466, "lon": 151.2445074, "tags": {"bench": "yes", "bus": "yes", "gtfs:stop_id": "209234", "highway": "bus_stop", "name": "Frenchs Forest Rd at Montauban Av", "network": "Transport Buses", "network:wikidata": "Q5001345", "public_transport": "platform", "ref": "209234", "shelter": "yes"}}, {"type": "node", "id": 1643885113, "lat": -33.79278, "lon": 151.2440484, "tags": {"bench": "yes", "bin": "no", "bus": "yes", "gtfs:stop_id": "209237", "highway": "bus_stop", "name": "Frenchs Forest Rd at Redman St", "network": "Transport Buses", "network:wikidata": "Q5001345", "public_transport": "platform", "ref": "209237", "shelter": "yes", "tactile_paving": "no"}}, {"type": "node", "id": 1659648486, "lat": -33.805241, "lon": 151.2934751, "tags": {"bench": "yes", "bin": "no", "bus": "yes", "departures_board": "timetable", "gtfs:stop_id": "209584", "highway": "bus_stop", "lit": "no", "name": "Darley Rd opp Manly Hospital", "network": "Transport Buses", "network:wikidata": "Q5001345", "public_transport": "platform", "ref": "209584", "shelter": "yes", "tactile_paving": "no"}}, {"type": "node", "id": 1659648497, "lat": -33.8122478, "lon": 151.294324, "tags": {"bus": "yes", "gtfs:stop_id": "209515", "highway": "bus_stop", "name": "Quarantine Station, North Head Scenic Dr", "network": "Transport Buses", "network:wikidata": "Q5001345", "public_transport": "platform", "ref": "209515", "source": "survey"}}, {"type": "node", "id": 1693987775, "lat": -33.7977588, "lon": 151.2842705, "tags": {"bench": "no", "bin": "no", "bus": "yes", "departures_board": "no", "description": "Arrivals only", "gtfs:stop_id": "209519", "highway": "bus_stop", "lit": "no", "local_ref": "J", "name": "Manly Wharf, West Promenade, Stand J", "network": "Transport Buses", "network:wikidata": "Q5001345", "public_transport": "platform", "ref": "209519", "shelter": "no", "tactile_paving": "no"}}, {"type": "node", "id": 1693987776, "lat": -33.7977166, "lon": 151.2847117, "tags": {"bench": "yes", "bin": "yes", "bus": "yes", "departures_board": "timetable", "gtfs:stop_id": "209513", "highway": "bus_stop", "lit": "no", "local_ref": "F", "name": "Manly Wharf, Belgrave St, Stand F", "network": "Transport Buses", "network:wikidata": "Q5001345", "public_transport": "platform", "ref": "209513", "shelter": "yes", "tactile_paving": "no"}}, {"type": "node", "id": 1693987781, "lat": -33.7935392, "lon": 151.2854145, "tags": {"bench": "yes", "bin": "no", "bus": "yes", "gtfs:stop_id": "209542", "highway": "bus_stop", "lit": "no", "name": "Pittwater Rd opp Steinton St", "network": "Transport Buses", "network:wikidata": "Q5001345", "public_transport": "platform", "ref": "209542", "shelter": "no", "tactile_paving": "no"}}, {"type": "node", "id": 1821431518, "lat": -33.824753, "lon": 151.2415437, "tags": {"bench": "yes", "bin": "yes", "bus": "yes", "gtfs:stop_id": "208871", "highway": "bus_stop", "lit": "no", "name": "Spit Junction, Military Rd", "network": "Transport Buses", "network:wikidata": "Q5001345", "public_transport": "platform", "ref": "208818", "shelter": "yes", "tactile_paving": "no", "waste_basket": "yes"}}, {"type": "node", "id": 1821532410, "lat": -33.786082, "lon": 151.266632, "tags": {"bench": "yes", "bin": "yes", "bus": "yes", "check_date:tactile_paving": "2023-08-21", "departures_board": "realtime", "gtfs:stop_id": "209326", "highway": "bus_stop", "lit": "yes", "name": "Manly Vale B-Line, Condamine St", "network": "Transport Buses", "network:wikidata": "Q5001345", "public_transport": "platform", "ref": "209326", "shelter": "yes", "tactile_paving": "yes"}}, {"type": "node", "id": 1821598664, "lat": -33.7980145, "lon": 151.2847593, "tags": {"bus": "yes", "gtfs:stop_id": "209516", "name": "Manly Wharf, Belgrave St, Stand G", "network": "Transport Buses", "public_transport": "stop_position", "ref": "209516"}}, {"type": "node", "id": 1899117414, "lat": -33.7950452, "lon": 151.268632, "tags": {"bench": "yes", "bin": "no", "bus": "yes", "departures_board": "timetable", "gtfs:stop_id": "2093141", "highway": "bus_stop", "lit": "yes", "name": "Sydney Rd after Hill St", "network": "Transport Buses", "network:wikidata": "Q5001345", "public_transport": "platform", "ref": "2093141", "shelter": "yes", "tactile_paving": "no"}}, {"type": "node", "id": 1899120094, "lat": -33.7947895, "lon": 151.2504543, "tags": {"bench": "no", "bus": "yes", "gtfs:stop_id": "209257", "highway": "bus_stop", "name": "Seaforth Public School, Frenchs Forest Rd", "network": "Transport Buses", "network:wikidata": "Q5001345", "public_transport": "platform", "ref": "209257", "shelter": "no"}}, {"type": "node", "id": 2097392267, "lat": -33.8322045, "lon": 151.2375138, "tags": {"bus": "yes", "gtfs:stop_id": "2088173", "highway": "bus_stop", "name": "Avenue Rd after Cowles Rd", "network": "Transport Buses", "network:wikidata": "Q5001345", "public_transport": "platform", "ref": "2088173", "shelter": "no"}}, {"type": "node", "id": 2134553567, "lat": -33.7834565, "lon": 151.2860159, "tags": {"bus": "yes", "highway": "bus_stop", "public_transport": "platform", "route_ref": "139"}}, {"type": "node", "id": 2134553607, "lat": -33.7833526, "lon": 151.2861002, "tags": {"bench": "no", "bus": "yes", "highway": "bus_stop", "name": "Queenscliff Rd opp Greycliffe St", "network": "Transport Buses", "network:wikidata": "Q5001345", "public_transport": "platform", "ref": "209617", "route_ref": "139", "shelter": "no"}}, {"type": "node", "id": 2155595437, "lat": -33.8313592, "lon": 151.2442088, "tags": {"bench": "yes", "bin": "yes", "bus": "yes", "departures_board": "timetable", "description": "Routes Servicing This Stop: All Day Frequent Network (ADFN) Route 100 111, 228, Limited 230 Services 590N, 609N, 709N, 688W School Services", "gtfs:stop_id": "208863", "highway": "bus_stop", "name": "Military Rd at Raglan St", "network": "Transport Buses", "network:wikidata": "Q5001345", "public_transport": "platform", "ref": "208863", "shelter": "yes"}}, {"type": "node", "id": 2156913010, "lat": -33.8296733, "lon": 151.2493747, "tags": {"highway": "turning_circle"}}, {"type": "node", "id": 2156951255, "lat": -33.8381304, "lon": 151.232978, "tags": {"bench": "yes", "bus": "yes", "gtfs:stop_id": "2088170", "highway": "bus_stop", "name": "Mosman Bay Wharf, Avenue Rd", "network": "Transport Buses", "network:wikidata": "Q5001345", "public_transport": "platform", "ref": "2088170", "shelter": "yes"}}, {"type": "node", "id": 2254682944, "lat": -33.7886733, "lon": 151.2788429, "tags": {"bus": "yes", "gtfs:stop_id": "209512", "highway": "bus_stop", "name": "Manly Aquatic Centre, Kenneth Rd", "network": "Transport Buses", "network:wikidata": "Q5001345", "public_transport": "platform", "ref": "209512"}}, {"type": "node", "id": 2254696807, "lat": -33.7875262, "lon": 151.2734887, "tags": {"bus": "yes", "gtfs:stop_id": "2093147", "highway": "bus_stop", "name": "Kenneth Rd before Burchmore Rd", "network": "Transport Buses", "network:wikidata": "Q5001345", "public_transport": "platform", "ref": "2093147", "wheelchair": "yes"}}, {"type": "node", "id": 2254731198, "lat": -33.7875161, "lon": 151.2743084, "tags": {"bench": "no", "bin": "no", "bus": "yes", "gtfs:stop_id": "2093146", "highway": "bus_stop", "lit": "yes", "name": "Kenneth Rd at Addiscombe Rd", "network": "Transport Buses", "network:wikidata": "Q5001345", "public_transport": "platform", "ref": "2093146", "tactile_paving": "no"}}, {"type": "node", "id": 2254740619, "lat": -33.7885847, "lon": 151.2789115, "tags": {"bus": "yes", "gtfs:stop_id": "209569", "highway": "bus_stop", "name": "Kenneth Rd opp Manly Aquatic Centre", "network": "Transport Buses", "network:wikidata": "Q5001345", "public_transport": "platform", "ref": "209569"}}, {"type": "node", "id": 2611981773, "lat": -33.7856879, "lon": 151.2394215, "tags": {"bench": "yes", "bin": "no", "bus": "yes", "departures_board": "timetable", "gtfs:stop_id": "209241", "highway": "bus_stop", "name": "Wakehurst Pkwy opp Armstrong St", "operator": "Forest Coach Lines", "public_transport": "platform", "ref": "209241", "shelter": "yes", "source": "survey", "source:location": "gps", "tactile_paving": "no"}}, {"type": "node", "id": 2611981829, "lat": -33.8052446, "lon": 151.2464555, "tags": {"bench": "yes", "bin": "no", "bus": "yes", "gtfs:stop_id": "208812", "highway": "bus_stop", "name": "Spit East Reserve, Spit Rd", "network": "Transport Buses", "network:wikidata": "Q5001345", "public_transport": "platform", "ref": "208812", "shelter": "yes", "source": "survey", "source:location": "gps"}}, {"type": "node", "id": 2821710250, "lat": -33.824478, "lon": 151.2509722, "tags": {"bus": "yes", "gtfs:stop_id": "208888", "highway": "bus_stop", "name": "The Esplanade opp Hunter Park", "network": "Transport Buses", "network:wikidata": "Q5001345", "public_transport": "platform", "ref": "208888"}}, {"type": "node", "id": 3099957451, "lat": -33.7942228, "lon": 151.2630959, "tags": {"bench": "yes", "bin": "yes", "bus": "yes", "departures_board": "timetable", "gtfs:stop_id": "209330", "highway": "bus_stop", "lit": "yes", "name": "Sydney Rd at Woodland St", "network": "Transport Buses", "network:wikidata": "Q5001345", "public_transport": "platform", "ref": "209330", "shelter": "yes", "tactile_paving": "no"}}, {"type": "node", "id": 3253507570, "lat": -33.7829355, "lon": 151.2383609, "tags": {"bench": "yes", "bin": "no", "bus": "yes", "departures_board": "timetable", "gtfs:stop_id": "209246", "highway": "bus_stop", "name": "Wakehurst Pkwy opp Seaforth Oval", "operator": "Forest Coach Lines", "public_transport": "platform", "ref": "209246", "shelter": "yes", "tactile_paving": "no"}}, {"type": "node", "id": 3253507571, "lat": -33.7824127, "lon": 151.2378768, "tags": {"bench": "yes", "bus": "yes", "departures_board": "timetable", "gtfs:stop_id": "209242", "highway": "bus_stop", "name": "Seaforth Oval, Wakehurst Pkwy", "operator": "Forest Coach Lines", "public_transport": "platform", "ref": "209242", "shelter": "yes"}}, {"type": "node", "id": 3253507572, "lat": -33.7857344, "lon": 151.239614, "tags": {"bench": "yes", "bus": "yes", "departures_board": "timetable", "gtfs:stop_id": "209247", "highway": "bus_stop", "name": "Wakehurst Pkwy at Armstrong St", "operator": "Forest Coach Lines", "public_transport": "platform", "ref": "209247", "shelter": "yes"}}, {"type": "node", "id": 3286630090, "lat": -33.78898, "lon": 151.2410978, "tags": {"bench": "yes", "bin": "no", "bus": "yes", "gtfs:stop_id": "209232", "highway": "bus_stop", "name": "Wakehurst Pkwy opp Castle Cct", "network": "Transport Buses", "network:wikidata": "Q5001345", "public_transport": "platform", "ref": "209232", "shelter": "yes", "tactile_paving": "no"}}, {"type": "node", "id": 3286630091, "lat": -33.7892724, "lon": 151.240997, "tags": {"bench": "yes", "bin": "no", "bus": "yes", "gtfs:stop_id": "209239", "highway": "bus_stop", "name": "Wakehurst Pkwy before Castle Cct", "network": "Transport Buses", "network:wikidata": "Q5001345", "public_transport": "platform", "ref": "209239", "shelter": "yes", "tactile_paving": "no"}}, {"type": "node", "id": 3286630092, "lat": -33.7871954, "lon": 151.2400998, "tags": {"bench": "yes", "bin": "no", "bus": "yes", "gtfs:stop_id": "209240", "highway": "bus_stop", "name": "Wakehurst Pkwy opp Lister Av", "network": "Transport Buses", "network:wikidata": "Q5001345", "public_transport": "platform", "ref": "209240", "shelter": "yes"}}, {"type": "node", "id": 3286630093, "lat": -33.7874598, "lon": 151.2403756, "tags": {"bench": "yes", "bin": "no", "bus": "yes", "gtfs:stop_id": "209231", "highway": "bus_stop", "name": "Wakehurst Pkwy after Lister Av", "network": "Transport Buses", "network:wikidata": "Q5001345", "public_transport": "platform", "ref": "209231", "shelter": "yes"}}, {"type": "node", "id": 3609977159, "lat": -33.7977929, "lon": 151.2554711, "tags": {"bench": "yes", "bus": "yes", "check_date:shelter": "2021-02-06", "gtfs:stop_id": "2093121", "highway": "bus_stop", "name": "Upper Beach St after Maretimo St", "network": "Transport Buses", "network:wikidata": "Q5001345", "public_transport": "platform", "ref": "2093121", "shelter": "yes", "tactile_paving": "no"}}, {"type": "node", "id": 3609977160, "lat": -33.7983908, "lon": 151.2579937, "tags": {"bus": "yes", "gtfs:stop_id": "2093114", "highway": "bus_stop", "name": "Seaview St at Upper Beach St", "network": "Transport Buses", "network:wikidata": "Q5001345", "public_transport": "platform", "ref": "2093114"}}, {"type": "node", "id": 3610026393, "lat": -33.7955522, "lon": 151.255454, "tags": {"bench": "no", "bin": "no", "bus": "yes", "highway": "bus_stop", "name": "Maretimo St at Sydney Rd", "public_transport": "platform", "ref": "2093136", "shelter": "no", "tactile_paving": "no"}}, {"type": "node", "id": 3947706201, "lat": -33.8435261, "lon": 151.2809765, "tags": {"amenity": "ferry_terminal", "ferry": "yes", "name": "Watsons Bay Wharf", "network": "Sydney Ferries", "network:wikidata": "Q3162795", "operator": "Transdev Sydney Ferries", "operator:wikidata": "Q16927194", "public_transport": "stop_position", "ref": "20301", "website": "https://transportnsw.info/stop?q=20301", "wheelchair": "no", "wikidata": "Q20861562"}}, {"type": "node", "id": 4146795594, "lat": -33.8005639, "lon": 151.2841043, "tags": {"amenity": "ferry_terminal", "ferry": "yes", "local_ref": "2", "name": "Manly Fast Ferry terminal (Circular Quay)", "public_transport": "stop_position", "ref": "209525"}}, {"type": "node", "id": 4272342421, "lat": -33.8007433, "lon": 151.2846363, "tags": {"amenity": "ferry_terminal", "ferry": "yes", "local_ref": "3", "name": "Manly Wharf 3", "operator": "Matilda Cruises", "public_transport": "station", "ref": "209593"}}, {"type": "node", "id": 4555217274, "lat": -33.7961878, "lon": 151.280475, "tags": {"bench": "no", "bin": "no", "bus": "yes", "departures_board": "no", "gtfs:stop_id": "209538", "highway": "bus_stop", "name": "Sydney Rd opp Birkley Rd", "network": "Transport Buses", "network:wikidata": "Q5001345", "public_transport": "platform", "ref": "209538", "shelter": "no"}}, {"type": "node", "id": 4555217275, "lat": -33.7959378, "lon": 151.2798618, "tags": {"bench": "no", "bus": "yes", "departures_board": "no", "gtfs:stop_id": "209539", "highway": "bus_stop", "name": "Sydney Rd opp George St", "network": "Transport Buses", "network:wikidata": "Q5001345", "public_transport": "platform", "ref": "209539", "shelter": "no"}}, {"type": "node", "id": 4585371702, "lat": -33.7964202, "lon": 151.2827052, "tags": {"bench": "no", "bus": "yes", "departures_board": "no", "gtfs:stop_id": "209540", "highway": "bus_stop", "name": "Ivanhoe Park, Sydney Rd", "network": "Transport Buses", "network:wikidata": "Q5001345", "public_transport": "platform", "ref": "209540", "shelter": "no"}}, {"type": "node", "id": 4731336921, "lat": -33.8280471, "lon": 151.2605842, "tags": {"bench": "yes", "bin": "no", "bus": "yes", "gtfs:stop_id": "2088104", "highway": "bus_stop", "lit": "no", "name": "Middle Head Rd opp Balmoral Naval Hospital", "network": "Transport Buses", "network:wikidata": "Q5001345", "public_transport": "platform", "ref": "2088104", "shelter": "yes", "tactile_paving": "no"}}, {"type": "node", "id": 4755031633, "lat": -33.8436836, "lon": 151.2840419, "tags": {"bus": "yes", "gtfs:stop_id": "203069", "highway": "bus_stop", "name": "Robertson Park, Military Rd", "network": "Transport Buses", "network:wikidata": "Q5001345", "public_transport": "platform", "ref": "203069", "shelter": "no"}}, {"type": "node", "id": 4934130173, "lat": -33.8434688, "lon": 151.2841855, "tags": {"bench": "yes", "bin": "no", "bus": "yes", "check_date": "2025-12-08", "check_date:bin": "2025-12-08", "check_date:lit": "2025-12-08", "check_date:tactile_paving": "2025-12-08", "gtfs:stop_id": "203070", "highway": "bus_stop", "lit": "no", "name": "Military Rd opp Robertson Park", "network": "Transport Buses", "network:wikidata": "Q5001345", "public_transport": "platform", "ref": "203070", "shelter": "yes", "tactile_paving": "no"}}, {"type": "node", "id": 5263027142, "lat": -33.7975246, "lon": 151.2848631, "tags": {"bus": "yes", "gtfs:stop_id": "209511", "name": "Manly Wharf, Belgrave St, Stand E", "network": "Transport Buses", "public_transport": "stop_position", "ref": "209511"}}, {"type": "node", "id": 5718041924, "lat": -33.824106, "lon": 151.2417243, "tags": {"bench": "yes", "bin": "no", "bus": "yes", "departures_board": "realtime", "gtfs:stop_id": "2088243", "highway": "bus_stop", "lit": "yes", "name": "Spit Junction B-Line, Spit Rd", "network": "Transport Buses", "network:wikidata": "Q5001345", "public_transport": "platform", "ref": "2088243", "shelter": "yes", "tactile_paving": "yes"}}, {"type": "node", "id": 5822671894, "lat": -33.8004511, "lon": 151.2837119, "tags": {"amenity": "ferry_terminal", "ferry": "yes", "local_ref": "1", "name": "Manly Wharf", "public_transport": "stop_position", "ref": "20951"}}, {"type": "node", "id": 6139558537, "lat": -33.7862222, "lon": 151.2669164}, {"type": "node", "id": 6139558553, "lat": -33.7862131, "lon": 151.2668655}, {"type": "node", "id": 6139558554, "lat": -33.7863201, "lon": 151.2668346}, {"type": "node", "id": 6139558555, "lat": -33.7863296, "lon": 151.2668842}, {"type": "node", "id": 6250577873, "lat": -33.8344704, "lon": 151.245811, "tags": {"bench": "yes", "bin": "no", "bus": "yes", "gtfs:stop_id": "208849", "highway": "bus_stop", "name": "Bradleys Head Rd at King Max St", "network": "Transport Buses", "network:wikidata": "Q5001345", "public_transport": "platform", "ref": "208849", "shelter": "yes"}}, {"type": "node", "id": 6250579045, "lat": -33.8351644, "lon": 151.2460975, "tags": {"bench": "yes", "bus": "yes", "gtfs:stop_id": "208861", "highway": "bus_stop", "name": "Bradleys Head Rd at Queen St", "network": "Transport Buses", "network:wikidata": "Q5001345", "public_transport": "platform", "ref": "208861", "shelter": "no"}}, {"type": "node", "id": 6332226044, "lat": -33.7785378, "lon": 151.2384033, "tags": {"bench": "no", "bin": "no", "bus": "yes", "gtfs:stop_id": "208713", "highway": "bus_stop", "name": "Wakehurst Pwy at Kirkwood St", "public_transport": "platform", "ref": "208713", "shelter": "no", "tactile_paving": "no"}}, {"type": "node", "id": 6388477486, "lat": -33.798861, "lon": 151.2835032, "tags": {"bench": "yes", "bin": "no", "bus": "yes", "gtfs:stop_id": "209523", "highway": "bus_stop", "lit": "yes", "local_ref": "A", "name": "Manly Wharf, West Esplanade, Stand A", "network": "Transport Buses", "network:wikidata": "Q5001345", "public_transport": "platform", "ref": "209523", "shelter": "yes", "tactile_paving": "yes"}}, {"type": "node", "id": 6388478985, "lat": -33.7989238, "lon": 151.2836342, "tags": {"bench": "yes", "bin": "no", "bus": "yes", "gtfs:stop_id": "209578", "highway": "bus_stop", "lit": "yes", "local_ref": "B", "name": "Manly Wharf, West Esplanade, Stand B", "network": "Transport Buses", "network:wikidata": "Q5001345", "public_transport": "platform", "ref": "209578", "shelter": "yes", "tactile_paving": "yes"}}, {"type": "node", "id": 6388479785, "lat": -33.7980076, "lon": 151.284653, "tags": {"bench": "yes", "bin": "yes", "bus": "yes", "departures_board": "timetable", "gtfs:stop_id": "209516", "highway": "bus_stop", "lit": "no", "local_ref": "G", "name": "Manly Wharf, Belgrave St, Stand G", "network": "Transport Buses", "network:wikidata": "Q5001345", "public_transport": "platform", "ref": "209516", "shelter": "yes", "tactile_paving": "no"}}, {"type": "node", "id": 6939068174, "lat": -33.7604698, "lon": 151.2781333, "tags": {"bench": "yes", "bin": "no", "bus": "yes", "covered": "yes", "gtfs:stop_id": "210022", "highway": "bus_stop", "name": "Pittwater Rd opp Manly Leagues Club", "network": "Transport Buses", "network:wikidata": "Q5001345", "public_transport": "platform", "ref": "210022", "shelter": "yes", "tactile_paving": "yes"}}, {"type": "node", "id": 6939068184, "lat": -33.7589006, "lon": 151.2798605, "tags": {"bench": "yes", "bin": "no", "bus": "yes", "covered": "yes", "gtfs:stop_id": "210019", "highway": "bus_stop", "name": "Pittwater Rd at Warringah Rd", "network": "Transport Buses", "network:wikidata": "Q5001345", "public_transport": "platform", "ref": "210019", "shelter": "yes", "tactile_paving": "no"}}, {"type": "node", "id": 6978783482, "lat": -33.7552752, "lon": 151.2902459, "tags": {"bench": "yes", "bus": "yes", "departures_board": "no", "gtfs:stop_id": "209972", "highway": "bus_stop", "name": "Pacific Pde at The Crescent", "network": "Transport Buses", "network:wikidata": "Q5001345", "public_transport": "platform", "ref": "209972", "shelter": "no", "tactile_paving": "yes"}}, {"type": "node", "id": 6978783483, "lat": -33.7576715, "lon": 151.2936924, "tags": {"bench": "yes", "bin": "no", "bus": "yes", "gtfs:stop_id": "209984", "highway": "bus_stop", "name": "Wheeler Pde opp The Crescent", "network": "Transport Buses", "network:wikidata": "Q5001345", "public_transport": "platform", "ref": "209984", "shelter": "yes", "tactile_paving": "yes"}}, {"type": "node", "id": 6978842070, "lat": -33.7640857, "lon": 151.2718969, "tags": {"bench": "no", "bus": "yes", "gtfs:stop_id": "210061", "highway": "bus_stop", "name": "Sydenham Rd at Pittwater Rd", "network": "Transport Buses", "network:wikidata": "Q5001345", "public_transport": "platform", "ref": "210061", "shelter": "yes", "tactile_paving": "yes"}}, {"type": "node", "id": 6978926150, "lat": -33.7630834, "lon": 151.2881345, "tags": {"bench": "yes", "bus": "yes", "departures_board": "timetable", "gtfs:stop_id": "209937", "highway": "bus_stop", "name": "Pitt Rd before Playfair Rd", "network": "Transport Buses", "network:wikidata": "Q5001345", "public_transport": "platform", "ref": "209937", "shelter": "no"}}, {"type": "node", "id": 6981969164, "lat": -33.7559831, "lon": 151.2954581, "tags": {"bench": "no", "bus": "yes", "departures_board": "no", "highway": "bus_stop", "name": "Pacific Pde at Cassia St", "public_transport": "platform", "shelter": "no", "tactile_paving": "yes"}}, {"type": "node", "id": 6981969166, "lat": -33.7558992, "lon": 151.2957387, "tags": {"bench": "yes", "bus": "yes", "departures_board": "no", "highway": "bus_stop", "name": "Pacific Pde at The Strand", "public_transport": "platform", "shelter": "no", "tactile_paving": "yes"}}, {"type": "node", "id": 6981969167, "lat": -33.7603213, "lon": 151.2929484, "tags": {"bench": "no", "bin": "no", "bus": "yes", "departures_board": "timetable", "gtfs:stop_id": "209968", "highway": "bus_stop", "name": "Headland Rd at Wheeler Pde", "network": "Transport NSW", "operator": "Keolis Downer Northern Beaches", "operator:wikidata": "Q107410349", "public_transport": "platform", "ref": "209968", "shelter": "no"}}, {"type": "node", "id": 6981969168, "lat": -33.7604283, "lon": 151.2917562, "tags": {"bench": "yes", "bus": "yes", "departures_board": "timetable", "gtfs:stop_id": "209986", "highway": "bus_stop", "name": "Headland Rd at Parr Av", "network": "Transport Buses", "network:wikidata": "Q5001345", "operator": "Keolis Downer Northern Beaches", "operator:wikidata": "Q107410349", "public_transport": "platform", "ref": "209986", "shelter": "yes"}}, {"type": "node", "id": 6981969169, "lat": -33.7607584, "lon": 151.2893961, "tags": {"bench": "no", "bus": "yes", "departures_board": "timetable", "gtfs:stop_id": "209966", "highway": "bus_stop", "name": "Parr Av at Playfair Rd", "network": "Transport NSW", "operator": "Keolis Downer Northern Beaches", "operator:wikidata": "Q107410349", "public_transport": "platform", "ref": "209966", "shelter": "no"}}, {"type": "node", "id": 6981969170, "lat": -33.7623641, "lon": 151.28878, "tags": {"bench": "no", "bus": "yes", "departures_board": "no", "gtfs:stop_id": "209988", "highway": "bus_stop", "name": "Playfair Rd before Pitt Rd", "network": "Transport Buses", "network:wikidata": "Q5001345", "public_transport": "platform", "ref": "209988", "shelter": "no"}}, {"type": "node", "id": 6981993315, "lat": -33.7626772, "lon": 151.289977, "tags": {"bench": "no", "bin": "no", "bus": "yes", "departures_board": "no", "gtfs:stop_id": "209938", "highway": "bus_stop", "name": "Pitt Rd at Reid Av", "network": "Transport Buses", "network:wikidata": "Q5001345", "public_transport": "platform", "ref": "209938", "shelter": "no", "tactile_paving": "no"}}, {"type": "node", "id": 6981993316, "lat": -33.7628194, "lon": 151.2899961, "tags": {"bench": "yes", "bin": "no", "bus": "yes", "gtfs:stop_id": "209961", "highway": "bus_stop", "name": "Pitt Rd at Ross St", "network": "Transport Buses", "network:wikidata": "Q5001345", "public_transport": "platform", "ref": "209961", "shelter": "yes", "tactile_paving": "yes"}}, {"type": "node", "id": 6981993317, "lat": -33.7623666, "lon": 151.2920659, "tags": {"bench": "no", "bus": "yes", "departures_board": "no", "gtfs:stop_id": "209939", "highway": "bus_stop", "name": "Pitt Rd opp Granger Av", "network": "Transport Buses", "network:wikidata": "Q5001345", "public_transport": "platform", "ref": "209939", "shelter": "no"}}, {"type": "node", "id": 6984135677, "lat": -33.769394, "lon": 151.2924511, "tags": {"bench": "yes", "bus": "yes", "departures_board": "timetable", "gtfs:stop_id": "209634", "highway": "bus_stop", "name": "Adams St at Farnell St", "network": "Transport Buses", "network:wikidata": "Q5001345", "public_transport": "platform", "ref": "209634", "shelter": "yes"}}, {"type": "node", "id": 6984135678, "lat": -33.7692295, "lon": 151.2926707, "tags": {"bench": "yes", "bus": "yes", "gtfs:stop_id": "209663", "highway": "bus_stop", "name": "Adams St after Lalchere St", "network": "Transport Buses", "network:wikidata": "Q5001345", "public_transport": "platform", "ref": "209663", "shelter": "yes"}}, {"type": "node", "id": 6984135679, "lat": -33.7643218, "lon": 151.2950779, "tags": {"bench": "yes", "bus": "yes", "departures_board": "no", "highway": "bus_stop", "public_transport": "platform", "shelter": "no"}}, {"type": "node", "id": 6984135680, "lat": -33.7626418, "lon": 151.2950552, "tags": {"bench": "no;yes", "bin": "no", "bus": "yes", "departures_board": "no", "gtfs:stop_id": "209959", "highway": "bus_stop", "name": "Pitt Rd at Griffin Rd", "network": "Transport Buses", "network:wikidata": "Q5001345", "public_transport": "platform", "ref": "209959", "shelter": "no;yes", "tactile_paving": "yes"}}, {"type": "node", "id": 6986353507, "lat": -33.7565412, "lon": 151.2822719, "tags": {"bench": "no", "bin": "no", "bus": "yes", "check_date:bench": "2024-01-14", "departures_board": "no", "gtfs:stop_id": "209911", "highway": "bus_stop", "name": "Pittwater Rd at May Rd", "network": "Transport Buses", "network:wikidata": "Q5001345", "public_transport": "platform", "ref": "209911", "shelter": "no", "tactile_paving": "no"}}, {"type": "node", "id": 7039975571, "lat": -33.757686, "lon": 151.2935439, "tags": {"bench": "no", "bin": "no", "bus": "yes", "departures_board": "no", "gtfs:stop_id": "209969", "highway": "bus_stop", "name": "Wheeler Pde at The Crescent", "network": "Transport Buses", "network:wikidata": "Q5001345", "public_transport": "platform", "ref": "209969", "shelter": "no"}}, {"type": "node", "id": 7040359987, "lat": -33.805876, "lon": 151.2619462, "tags": {"bus": "yes", "gtfs:stop_id": "209388", "highway": "bus_stop", "name": "Bareena Park, Curban St", "network": "Transport Buses", "network:wikidata": "Q5001345", "public_transport": "platform", "ref": "209388", "shelter": "yes"}}, {"type": "node", "id": 7040359991, "lat": -33.7950881, "lon": 151.2731717, "tags": {"bench": "yes", "bus": "yes", "departures_board": "timetable", "gtfs:stop_id": "209441", "highway": "bus_stop", "name": "Sydney Rd at Bellevue St", "network": "Transport Buses", "network:wikidata": "Q5001345", "public_transport": "platform", "ref": "209441", "shelter": "yes"}}, {"type": "node", "id": 7040365685, "lat": -33.8057904, "lon": 151.2621523, "tags": {"bus": "yes", "gtfs:stop_id": "2093128", "highway": "bus_stop", "name": "Curban St opp Bareena Park", "network": "Transport Buses", "network:wikidata": "Q5001345", "public_transport": "platform", "ref": "2093128"}}, {"type": "node", "id": 7045971206, "lat": -33.763884, "lon": 151.2819992, "tags": {"bench": "no", "bus": "yes", "departures_board": "no", "gtfs:stop_id": "209965", "highway": "bus_stop", "name": "Denzil Joyce Oval, Abbott Rd", "network": "Transport Buses", "network:wikidata": "Q5001345", "public_transport": "platform", "ref": "209965", "shelter": "no"}}, {"type": "node", "id": 7068594889, "lat": -33.7958648, "lon": 151.2851163, "tags": {"bench": "yes", "bin": "yes", "bus": "yes", "gtfs:stop_id": "209541", "highway": "bus_stop", "local_ref": "E", "name": "Manly Tennis Club, Belgrave St", "network": "Transport Buses", "network:wikidata": "Q5001345", "public_transport": "platform", "ref": "209541", "shelter": "yes"}}, {"type": "node", "id": 7068601545, "lat": -33.790705, "lon": 151.2870867, "tags": {"bench": "no", "bin": "no", "bus": "yes", "gtfs:stop_id": "209560", "highway": "bus_stop", "name": "North Steyne SLSC, Pine St", "network": "Transport Buses", "network:wikidata": "Q5001345", "public_transport": "platform", "ref": "209560", "shelter": "no", "tactile_paving": "no"}}, {"type": "node", "id": 7068601546, "lat": -33.7883036, "lon": 151.2874396, "tags": {"bench": "no", "bin": "yes", "bus": "yes", "check_date:shelter": "2023-09-07", "gtfs:stop_id": "209559", "highway": "bus_stop", "name": "North Steyne opp Ceramic Lane", "network": "Transport Buses", "network:wikidata": "Q5001345", "public_transport": "platform", "ref": "209559", "shelter": "no"}}, {"type": "node", "id": 7068601549, "lat": -33.7818558, "lon": 151.2861681, "tags": {"bench": "yes", "bus": "yes", "gtfs:stop_id": "209676", "highway": "bus_stop", "name": "Crown Rd at Highview Av", "network": "Transport Buses", "network:wikidata": "Q5001345", "public_transport": "platform", "ref": "209676", "shelter": "yes"}}, {"type": "node", "id": 7068601550, "lat": -33.7819426, "lon": 151.2860442, "tags": {"bench": "yes", "bus": "yes", "highway": "bus_stop", "name": "Crown Rd opp Highview Ave", "network": "Transport Buses", "network:wikidata": "Q5001345", "public_transport": "platform", "ref": "209620", "shelter": "no"}}, {"type": "node", "id": 7068901723, "lat": -33.7828744, "lon": 151.2881245, "tags": {"bus": "yes", "highway": "bus_stop", "name": "Crown Rd at Bridge St", "network": "Transport Buses", "network:wikidata": "Q5001345", "public_transport": "platform", "ref": "209619", "shelter": "no"}}, {"type": "node", "id": 7068901724, "lat": -33.7825776, "lon": 151.287785, "tags": {"bus": "yes", "gtfs:stop_id": "209677", "highway": "bus_stop", "name": "Crown Rd before Bridge St", "network": "Transport Buses", "network:wikidata": "Q5001345", "public_transport": "platform", "ref": "209677", "shelter": "no"}}, {"type": "node", "id": 7071507815, "lat": -33.8001367, "lon": 151.2467423, "tags": {"bench": "yes", "bin": "no", "bus": "yes", "departures_board": "timetable", "gtfs:stop_id": "209213", "highway": "bus_stop", "name": "Battle Bvd at Manly Rd", "network": "Transport Buses", "network:wikidata": "Q5001345", "public_transport": "platform", "ref": "209213", "shelter": "yes", "tactile_paving": "no"}}, {"type": "node", "id": 7071507816, "lat": -33.8135964, "lon": 151.2438527, "tags": {"bench": "yes", "bin": "no", "bus": "yes", "gtfs:stop_id": "2088184", "highway": "bus_stop", "lit": "no", "name": "Spit Rd before Medusa St", "network": "Transport Buses", "network:wikidata": "Q5001345", "public_transport": "platform", "ref": "2088184", "shelter": "no", "tactile_paving": "no"}}, {"type": "node", "id": 7074071271, "lat": -33.7866759, "lon": 151.2672282, "tags": {"bus": "yes", "highway": "bus_stop", "public_transport": "platform"}}, {"type": "node", "id": 7083467747, "lat": -33.7553942, "lon": 151.2847715, "tags": {"bench": "no", "bus": "yes", "departures_board": "timetable", "gtfs:stop_id": "2099224", "highway": "bus_stop", "name": "Sturdee Pde after Pittwater Rd", "network": "Transport Buses", "network:wikidata": "Q5001345", "public_transport": "platform", "ref": "2099224", "shelter": "no"}}, {"type": "node", "id": 7083467750, "lat": -33.7559227, "lon": 151.2938932, "tags": {"bench": "yes", "bin": "no", "bus": "yes", "departures_board": "no", "gtfs:stop_id": "209970", "highway": "bus_stop", "name": "Wheeler Pde at Pacific Pde", "network": "Transport Buses", "network:wikidata": "Q5001345", "public_transport": "platform", "ref": "209970", "shelter": "no"}}, {"type": "node", "id": 7083599695, "lat": -33.7632105, "lon": 151.2881926, "tags": {"bench": "yes", "bus": "yes", "gtfs:stop_id": "209962", "highway": "bus_stop", "name": "Pitt Rd at Playfair Rd", "network": "Transport Buses", "network:wikidata": "Q5001345", "public_transport": "platform", "ref": "209962", "shelter": "yes"}}, {"type": "node", "id": 7083599696, "lat": -33.7634178, "lon": 151.2860701, "tags": {"bench": "yes", "bus": "yes", "departures_board": "no", "gtfs:stop_id": "209936", "highway": "bus_stop", "name": "Pitt Rd at Fairport St", "network": "Transport Buses", "network:wikidata": "Q5001345", "public_transport": "platform", "ref": "209936", "shelter": "no"}}, {"type": "node", "id": 7083599697, "lat": -33.7628991, "lon": 151.2793463, "tags": {"bench": "no", "bin": "no", "bus": "yes", "departures_board": "no", "gtfs:stop_id": "210064", "highway": "bus_stop", "name": "Winbourne Rd before Harbord Rd", "network": "Transport Buses", "network:wikidata": "Q5001345", "public_transport": "platform", "ref": "210064", "shelter": "no"}}, {"type": "node", "id": 7083599698, "lat": -33.7626004, "lon": 151.2770546, "tags": {"bench": "no", "bus": "yes", "departures_board": "no", "gtfs:stop_id": "210063", "highway": "bus_stop", "name": "Winbourne Rd before Carter Rd", "network": "Transport Buses", "network:wikidata": "Q5001345", "public_transport": "platform", "ref": "210063", "shelter": "no"}}, {"type": "node", "id": 7083599699, "lat": -33.7623187, "lon": 151.2742412, "tags": {"bench": "no", "bin": "no", "bus": "yes", "gtfs:stop_id": "210062", "highway": "bus_stop", "name": "Winbourne Rd after Mitchell Rd", "network": "Transport Buses", "network:wikidata": "Q5001345", "public_transport": "platform", "ref": "210062", "shelter": "no"}}, {"type": "node", "id": 7085560817, "lat": -33.7652403, "lon": 151.2948687, "tags": {"bench": "yes", "bin": "no", "bus": "yes", "gtfs:stop_id": "209928", "highway": "bus_stop", "name": "Griffin Rd at Abbott Rd", "network": "Transport Buses", "network:wikidata": "Q5001345", "public_transport": "platform", "ref": "209928", "shelter": "yes"}}, {"type": "node", "id": 7085966916, "lat": -33.8183377, "lon": 151.2951111, "tags": {"bus": "yes", "gtfs:stop_id": "209577", "highway": "bus_stop", "name": "North Head Scenic Dr opp North Head Sanctuary", "network": "Transport Buses", "network:wikidata": "Q5001345", "passenger_information_display": "yes", "public_transport": "platform", "ref": "209577", "shelter": "no"}}, {"type": "node", "id": 7087267515, "lat": -33.7777585, "lon": 151.2742828, "tags": {"bench": "yes", "bus": "yes", "gtfs:stop_id": "210044", "highway": "bus_stop", "name": "Pittwater Rd after Western Av", "network": "Transport Buses", "network:wikidata": "Q5001345", "public_transport": "platform", "ref": "210044", "shelter": "yes"}}, {"type": "node", "id": 7087267516, "lat": -33.7778775, "lon": 151.2740744, "tags": {"addr:street": "Pittwater Road", "bench": "yes", "bus": "yes", "description": "lines 146,158,159,169,199", "gtfs:stop_id": "210034", "highway": "bus_stop", "name": "Pittwater Rd opp Western Av", "network": "Transport Buses", "network:wikidata": "Q5001345", "public_transport": "platform", "ref": "210034", "shelter": "yes", "website": "https://transportnsw.info/210034"}}, {"type": "node", "id": 7087267517, "lat": -33.7800269, "lon": 151.2759698, "tags": {"bench": "yes", "bin": "no", "bus": "yes", "departures_board": "timetable", "gtfs:stop_id": "210033", "highway": "bus_stop", "name": "Pittwater Rd at Riverview Pde", "network": "Transport Buses", "network:wikidata": "Q5001345", "public_transport": "platform", "ref": "210033", "shelter": "yes"}}, {"type": "node", "id": 7087267518, "lat": -33.7825541, "lon": 151.2796322, "tags": {"bench": "no", "bin": "no", "bus": "yes", "departures_board": "no", "gtfs:stop_id": "210030", "highway": "bus_stop", "lit": "no", "name": "Mill Park, Pittwater Rd", "network": "TfNSW", "not:network:wikidata": "Q5001345", "public_transport": "platform", "ref": "210030", "shelter": "no", "tactile_paving": "no"}}, {"type": "node", "id": 7087267519, "lat": -33.7904055, "lon": 151.2851841, "tags": {"bench": "no", "bin": "no", "bus": "yes", "gtfs:stop_id": "209550", "highway": "bus_stop", "name": "Pittwater Rd at Pine St", "network": "Transport Buses", "network:wikidata": "Q5001345", "public_transport": "platform", "ref": "209550", "shelter": "no", "tactile_paving": "no"}}, {"type": "node", "id": 7087267520, "lat": -33.7908786, "lon": 151.2851176, "tags": {"bench": "yes", "bin": "yes", "bus": "yes", "check_date:shelter": "2022-12-19", "departures_board": "timetable", "gtfs:stop_id": "209543", "highway": "bus_stop", "lit": "no", "name": "Pittwater Rd at Pine St", "network": "Transport Buses", "network:wikidata": "Q5001345", "public_transport": "platform", "ref": "209543", "shelter": "yes", "tactile_paving": "no"}}, {"type": "node", "id": 7087267521, "lat": -33.7924649, "lon": 151.2856358, "tags": {"bus": "yes", "departures_board": "no", "gtfs:stop_id": "209551", "highway": "bus_stop", "name": "Pittwater Rd at Carlton St", "network": "Transport Buses", "network:wikidata": "Q5001345", "public_transport": "platform", "ref": "209551", "shelter": "no"}}, {"type": "node", "id": 7087267522, "lat": -33.7953501, "lon": 151.2852905, "tags": {"bus": "yes", "gtfs:stop_id": "209552", "highway": "bus_stop", "name": "Pittwater Rd at Raglan St", "network": "Transport Buses", "network:wikidata": "Q5001345", "public_transport": "platform", "ref": "209552", "shelter": "no"}}, {"type": "node", "id": 7089772240, "lat": -33.7982238, "lon": 151.2818738, "tags": {"bench": "no", "bin": "no", "bus": "yes", "gtfs:stop_id": "209528", "highway": "bus_stop", "lit": "no", "name": "West Esplanade opp Manly Art Gallery", "network": "Transport Buses", "network:wikidata": "Q5001345", "public_transport": "platform", "ref": "209528", "shelter": "no", "tactile_paving": "no"}}, {"type": "node", "id": 7089772241, "lat": -33.798813, "lon": 151.2777927, "tags": {"bench": "yes", "bin": "no", "bus": "yes", "check_date:bench": "2023-12-29", "departures_board": "no", "gtfs:stop_id": "209526", "highway": "bus_stop", "name": "The Crescent at Laurence St", "network": "Transport Buses", "network:wikidata": "Q5001345", "public_transport": "platform", "ref": "209526", "shelter": "no", "tactile_paving": "no"}}, {"type": "node", "id": 7089772242, "lat": -33.7993676, "lon": 151.2770512, "tags": {"bench": "yes", "bin": "no", "bus": "yes", "check_date:bench": "2023-12-29", "gtfs:stop_id": "209527", "highway": "bus_stop", "name": "The Crescent at Margaret St", "network": "Transport Buses", "network:wikidata": "Q5001345", "public_transport": "platform", "ref": "209527", "shelter": "no"}}, {"type": "node", "id": 7089772243, "lat": -33.7990924, "lon": 151.275527, "tags": {"bench": "yes", "bin": "no", "bus": "yes", "gtfs:stop_id": "209428", "highway": "bus_stop", "name": "Lauderdale Av at Woods Pde", "network": "Transport Buses", "network:wikidata": "Q5001345", "public_transport": "platform", "ref": "209428", "tactile_paving": "no"}}, {"type": "node", "id": 7089772244, "lat": -33.7990626, "lon": 151.275129, "tags": {"bench": "yes", "bin": "no", "bus": "yes", "check_date:bench": "2024-01-09", "gtfs:stop_id": "209420", "highway": "bus_stop", "name": "Lauderdale Av opp Woods Pde", "network": "Transport Buses", "network:wikidata": "Q5001345", "public_transport": "platform", "ref": "209420", "tactile_paving": "no"}}, {"type": "node", "id": 7089772245, "lat": -33.7986505, "lon": 151.2735519, "tags": {"bench": "yes", "bin": "no", "bus": "yes", "check_date:bench": "2023-12-29", "departures_board": "timetable", "gtfs:stop_id": "209427", "highway": "bus_stop", "name": "Lauderdale Av opp Bolingbroke Pde", "network": "Transport Buses", "network:wikidata": "Q5001345", "public_transport": "platform", "ref": "209427", "shelter": "yes", "tactile_paving": "no"}}, {"type": "node", "id": 7089772246, "lat": -33.7987821, "lon": 151.2734875, "tags": {"bench": "yes", "bin": "no", "bus": "yes", "gtfs:stop_id": "209421", "highway": "bus_stop", "name": "Lauderdale Av at Bolingbroke Pde", "network": "Transport Buses", "network:wikidata": "Q5001345", "public_transport": "platform", "ref": "209421", "tactile_paving": "no"}}, {"type": "node", "id": 7110914276, "lat": -33.7977271, "lon": 151.2848196, "tags": {"bus": "yes", "gtfs:stop_id": "209513", "name": "Manly Wharf, Belgrave St, Stand F", "network": "Transport Buses", "public_transport": "stop_position", "ref": "209513"}}, {"type": "node", "id": 7144777883, "lat": -33.7554632, "lon": 151.284749, "tags": {"bus": "yes", "gtfs:stop_id": "2099224", "name": "Sturdee Pde after Pittwater Rd", "network": "Transport Buses", "public_transport": "stop_position", "ref": "2099224"}}, {"type": "node", "id": 7203312721, "lat": -33.7561069, "lon": 151.2355922, "tags": {"bench": "yes", "bus": "yes", "highway": "bus_stop", "public_transport": "platform", "shelter": "yes"}}, {"type": "node", "id": 7263100712, "lat": -33.827108, "lon": 151.2440754, "tags": {"bench": "yes", "bin": "yes", "bus": "yes", "departures_board": "no", "description": "Routes servicing this stop: 227, 228, 230, 236, 244, 245, 247, 257, 430", "gtfs:stop_id": "208846", "highway": "bus_stop", "lit": "no", "name": "Military Rd at Almora St", "network": "Transport Buses", "network:wikidata": "Q5001345", "operator": "State Transit Authority, Transit Systems West", "public_transport": "platform", "ref": "208846", "shelter": "yes", "tactile_paving": "no"}}, {"type": "node", "id": 7263100713, "lat": -33.8287667, "lon": 151.244139, "tags": {"bench": "yes", "bin": "yes", "bus": "yes", "departures_board": "no", "description": "Routes servicing this stop: All Day Frequent Network (ADFN) Route 100 114, 228, 230 Services Various School Services", "gtfs:stop_id": "208847", "highway": "bus_stop", "lit": "no", "name": "Military Rd opp Mosman High School", "network": "Transport Buses", "network:wikidata": "Q5001345", "operator": "Keolis Downer Northern Beaches and Lower North Shore and Busways North West", "public_transport": "platform", "ref": "208847", "shelter": "yes", "tactile_paving": "no"}}, {"type": "node", "id": 7263100714, "lat": -33.8312864, "lon": 151.244002, "tags": {"bench": "yes", "bin": "yes", "bus": "yes", "departures_board": "timetable", "description": "Routes servicing this stop: 562N, 708N School Services", "gtfs:stop_id": "2088141", "highway": "bus_stop", "name": "Raglan St after Military Rd", "network": "Transport Buses", "network:wikidata": "Q5001345", "operator": "Keolis Downer Northern Beaches and Lower North Shore", "public_transport": "platform", "ref": "2088141", "shelter": "yes"}}, {"type": "node", "id": 7263100715, "lat": -33.8321043, "lon": 151.2426268, "tags": {"bench": "no", "bin": "no", "bus": "yes", "departures_board": "timetable", "description": "Routes servicing this stop: 111 Services School Services", "gtfs:stop_id": "2088142", "highway": "bus_stop", "name": "Raglan St opp Hamlet Lane", "network": "Transport Buses", "network:wikidata": "Q5001345", "public_transport": "platform", "ref": "2088142", "shelter": "no", "wheelchair": "yes"}}, {"type": "node", "id": 7263100716, "lat": -33.8328877, "lon": 151.2413222, "tags": {"bench": "no", "bin": "no", "bus": "yes", "departures_board": "no", "description": "Route servicing this stop: 111 Services School Services", "gtfs:stop_id": "2088143", "highway": "bus_stop", "name": "Raglan St opp Mosman Preparatory School", "network": "Transport Buses", "network:wikidata": "Q5001345", "public_transport": "platform", "ref": "2088143", "shelter": "no"}}, {"type": "node", "id": 7293746443, "lat": -33.7554546, "lon": 151.2393946, "tags": {"bench": "yes", "bus": "yes", "gtfs:stop_id": "208612", "highway": "bus_stop", "name": "Aquatic Dr at Madison Way", "network": "Transport Buses", "network:wikidata": "Q5001345", "public_transport": "platform", "ref": "208612", "shelter": "yes", "tactile_paving": "no"}}, {"type": "node", "id": 7367859846, "lat": -33.8377009, "lon": 151.2428721, "tags": {"bus": "yes", "gtfs:stop_id": "2088134", "highway": "bus_stop", "name": "Prince Albert St at Elfrida St", "network": "Transport Buses", "network:wikidata": "Q5001345", "public_transport": "platform", "ref": "2088134", "source": "streetlevel imagery"}}, {"type": "node", "id": 7367859847, "lat": -33.8341497, "lon": 151.2435727, "tags": {"bus": "yes", "gtfs:stop_id": "2088136", "highway": "bus_stop", "name": "Prince Albert St at Queen St", "network": "Transport Buses", "network:wikidata": "Q5001345", "public_transport": "platform", "ref": "2088136", "shelter": "no", "source": "streetlevel imagery"}}, {"type": "node", "id": 8398633110, "lat": -33.797959, "lon": 151.2559139, "tags": {"bus": "yes", "gtfs:stop_id": "2093115", "highway": "bus_stop", "name": "Upper Beach St at Kareema St", "network": "Transport Buses", "network:wikidata": "Q5001345", "public_transport": "platform", "ref": "2093115", "shelter": "yes", "shelter_type": "yes"}}, {"type": "node", "id": 8398675661, "lat": -33.800744, "lon": 151.257306, "tags": {"bus": "yes", "gtfs:stop_id": "2093113", "highway": "bus_stop", "name": "Beatrice St at New St", "network": "Transport Buses", "network:wikidata": "Q5001345", "public_transport": "platform", "ref": "2093113"}}, {"type": "node", "id": 8940668646, "lat": -33.8428361, "lon": 151.2329681, "tags": {"bench": "yes", "bin": "no", "bus": "yes", "departures_board": "timetable", "description": "Routes Serviced By This Stop: 111 Services School Services", "gtfs:stop_id": "2088152", "highway": "bus_stop", "lit": "no", "name": "South Mosman Wharf, Musgrave St", "network": "Transport Buses", "network:wikidata": "Q5001345", "operator": "Keolis Downer Northern Beaches and Lower North Shore", "public_transport": "platform", "ref": "2088152", "shelter": "no"}}, {"type": "node", "id": 9263230429, "lat": -33.8243025, "lon": 151.2508533, "tags": {"bus": "yes", "gtfs:stop_id": "2088244", "name": "Hunter Park, The Esplanade", "network": "Transport Buses", "public_transport": "stop_position", "ref": "2088244"}}, {"type": "node", "id": 9503931487, "lat": -33.7592676, "lon": 151.232714, "tags": {"bench": "no", "bin": "no", "bus": "yes", "gtfs:stop_id": "208630", "highway": "bus_stop", "lit": "no", "name": "Wakehurst Pwy at Yarraman Av Walkway", "network": "Transport Buses", "network:wikidata": "Q5001345", "public_transport": "platform", "ref": "208630", "shelter": "no", "tactile_paving": "no"}}, {"type": "node", "id": 9503932429, "lat": -33.7592935, "lon": 151.2328736, "tags": {"bench": "yes", "bin": "no", "bus": "yes", "gtfs:stop_id": "208655", "highway": "bus_stop", "name": "Wakehurst Pwy opp Yarraman Av Walkway", "network": "Transport Buses", "network:wikidata": "Q5001345", "public_transport": "platform", "ref": "208655", "shelter": "yes", "tactile_paving": "no"}}, {"type": "node", "id": 9512511495, "lat": -33.8121514, "lon": 151.2947583, "tags": {"bench": "no", "bin": "no", "bus": "yes", "gtfs:stop_id": "2095100", "highway": "bus_stop", "lit": "yes", "name": "North Head Scenic Dr opp Quarantine Station", "network": "Transport Buses", "network:wikidata": "Q5001345", "public_transport": "platform", "ref": "2095100", "shelter": "no", "tactile_paving": "no"}}, {"type": "node", "id": 9512539890, "lat": -33.8085643, "lon": 151.2966777, "tags": {"bus": "yes", "gtfs:stop_id": "209587", "highway": "bus_stop", "name": "North Head Scenic Rd opp Collins Beach Rd", "network": "Transport Buses", "network:wikidata": "Q5001345", "public_transport": "platform", "ref": "209587"}}, {"type": "node", "id": 9521060040, "lat": -33.7698639, "lon": 151.2352803, "tags": {"bench": "no", "bin": "no", "bus": "yes", "gtfs:stop_id": "208712", "highway": "bus_stop", "lit": "no", "name": "Manly Warringah War Memorial Park, Wakehurst Pwy", "network": "Transport Buses", "network:wikidata": "Q5001345", "public_transport": "platform", "ref": "208712", "shelter": "no", "tactile_paving": "no"}}, {"type": "node", "id": 9521060041, "lat": -33.7698961, "lon": 151.2351308, "tags": {"bench": "no", "bin": "no", "bus": "yes", "gtfs:stop_id": "208711", "highway": "bus_stop", "lit": "no", "name": "Wakehurst Pwy opp Manly Warringah War Memorial Park", "network": "Transport Buses", "network:wikidata": "Q5001345", "public_transport": "platform", "ref": "208711", "shelter": "no", "tactile_paving": "no"}}, {"type": "node", "id": 9910675263, "lat": -33.843461, "lon": 151.2841234, "tags": {"bus": "yes", "gtfs:stop_id": "203070", "name": "Military Rd opp Robertson Park", "network": "Transport Buses", "public_transport": "stop_position", "ref": "203070"}}, {"type": "node", "id": 9921851762, "lat": -33.8313239, "lon": 151.2444112, "tags": {"bench": "no", "bin": "yes", "bus": "yes", "departures_board": "timetable", "description": "Routes Servicing This Stop: All Day Frequent Network (ADFN) Route 100 111, 228, Limited 114 Services 561N, 564N, 568N, 569N, 580N, 586N, 792N, 688W School Services", "gtfs:stop_id": "208848", "highway": "bus_stop", "lit": "no", "name": "Military Rd after Raglan St", "network": "Transport Buses", "network:wikidata": "Q5001345", "public_transport": "platform", "ref": "208848", "shelter": "yes", "tactile_paving": "no", "website": "https://transportnsw.info"}}, {"type": "node", "id": 9921851763, "lat": -33.8311582, "lon": 151.2439647, "tags": {"bench": "yes", "bus": "yes", "departures_board": "timetable", "description": "Routes servicing this stop: \nLimited 114 Services\n564N, 607N, 580N School Services", "highway": "bus_stop", "name": "Raglan St at Military Rd", "network": "Transport Buses", "network:wikidata": "Q5001345", "operator": "Keolis Downer Northern Beaches and Lower North Shore", "public_transport": "platform", "ref": "2088161", "shelter": "yes"}}, {"type": "node", "id": 9921851764, "lat": -33.8309752, "lon": 151.2445731, "tags": {"bench": "yes", "bin": "yes", "bus": "yes", "departures_board": "timetable", "description": "Routes servicing this stop: 114 580N, 607N, 662N School Services", "gtfs:stop_id": "208893", "highway": "bus_stop", "name": "Raglan St at Military Rd", "network": "Transport Buses", "network:wikidata": "Q5001345", "operator": "Keolis Downer Northern Beaches and Lower North Shore", "public_transport": "platform", "ref": "208893", "shelter": "yes"}}, {"type": "node", "id": 9921851765, "lat": -33.8308585, "lon": 151.2445607, "tags": {"bench": "yes", "bus": "yes", "departures_board": "yes", "description": "Routes servicing this stop: 114 567N, 579N, 751W School Services", "gtfs:stop_id": "208872", "highway": "bus_stop", "name": "Raglan St opp Martens Lane", "network": "Transport Buses", "network:wikidata": "Q5001345", "operator": "Keolis Downer Northern Beaches and Lower North Shore and Busways North West", "public_transport": "platform", "ref": "208872", "shelter": "yes"}}, {"type": "node", "id": 9921856921, "lat": -33.8400209, "lon": 151.2333722, "tags": {"bench": "yes", "bus": "yes", "departures_board": "timetable", "description": "Route Serviced By This Stop: 111 Services", "gtfs:stop_id": "2088153", "highway": "bus_stop", "name": "Musgrave St at McLeod St", "network": "Transport Buses", "network:wikidata": "Q5001345", "public_transport": "platform", "ref": "2088153", "shelter": "no"}}, {"type": "node", "id": 9997715434, "lat": -33.8249106, "lon": 151.2415861, "tags": {"bench": "no", "bin": "yes", "bus": "yes", "departures_board": "timetable", "gtfs:stop_id": "208818", "highway": "bus_stop", "lit": "no", "name": "Spit Junction, Military Rd", "network": "Transport Buses", "network:wikidata": "Q5001345", "public_transport": "platform", "ref": "208871", "shelter": "no", "tactile_paving": "yes"}}, {"type": "node", "id": 9997715436, "lat": -33.826725, "lon": 151.2438015, "tags": {"bus": "yes", "gtfs:stop_id": "208870", "highway": "bus_stop", "name": "Military Rd opp Almora St", "network": "Transport Buses", "network:wikidata": "Q5001345", "public_transport": "platform", "ref": "208870"}}, {"type": "node", "id": 9997715437, "lat": -33.8280513, "lon": 151.2439661, "tags": {"bus": "yes", "gtfs:stop_id": "208869", "highway": "bus_stop", "name": "Military Rd at Gouldsbury St", "network": "Transport Buses", "network:wikidata": "Q5001345", "public_transport": "platform", "ref": "208869"}}, {"type": "node", "id": 9997715438, "lat": -33.8294142, "lon": 151.244054, "tags": {"bus": "yes", "gtfs:stop_id": "208864", "highway": "bus_stop", "name": "Mosman High School, Military Rd", "network": "Transport Buses", "network:wikidata": "Q5001345", "public_transport": "platform", "ref": "208864", "shelter": "yes"}}, {"type": "node", "id": 9997715440, "lat": -33.8265439, "lon": 151.2510565, "tags": {"bus": "yes", "gtfs:stop_id": "208889", "highway": "bus_stop", "name": "Raglan St at The Esplanade", "network": "Transport Buses", "network:wikidata": "Q5001345", "public_transport": "platform", "ref": "208889"}}, {"type": "node", "id": 9997715441, "lat": -33.8243039, "lon": 151.2507931, "tags": {"bus": "yes", "gtfs:stop_id": "2088244", "highway": "bus_stop", "name": "Hunter Park, The Esplanade", "network": "Transport Buses", "network:wikidata": "Q5001345", "public_transport": "platform", "ref": "2088244"}}, {"type": "node", "id": 9997715442, "lat": -33.8320071, "lon": 151.2425454, "tags": {"bus": "yes", "gtfs:stop_id": "2088160", "highway": "bus_stop", "name": "Raglan St at Hamlet Lane", "network": "Transport Buses", "network:wikidata": "Q5001345", "public_transport": "platform", "ref": "2088160", "shelter": "no"}}, {"type": "node", "id": 9997715443, "lat": -33.8330407, "lon": 151.2408274, "tags": {"bus": "yes", "gtfs:stop_id": "2088159", "highway": "bus_stop", "name": "Mosman Preparatory School, Raglan St", "network": "Transport Buses", "network:wikidata": "Q5001345", "public_transport": "platform", "ref": "2088159", "shelter": "no"}}, {"type": "node", "id": 9997715444, "lat": -33.8341921, "lon": 151.2393255, "tags": {"bus": "yes", "gtfs:stop_id": "2088145", "highway": "bus_stop", "name": "Raglan St after Queen St", "network": "Transport Buses", "network:wikidata": "Q5001345", "public_transport": "platform", "ref": "2088145"}}, {"type": "node", "id": 9997715445, "lat": -33.834072, "lon": 151.2392544, "tags": {"bus": "yes", "gtfs:stop_id": "2088158", "highway": "bus_stop", "name": "Raglan St before Canrobert St", "network": "Transport Buses", "network:wikidata": "Q5001345", "public_transport": "platform", "ref": "2088158"}}, {"type": "node", "id": 9997715446, "lat": -33.8351005, "lon": 151.2386132, "tags": {"bus": "yes", "gtfs:stop_id": "2088146", "highway": "bus_stop", "name": "Raglan St at Calypso Av", "network": "Transport Buses", "network:wikidata": "Q5001345", "public_transport": "platform", "ref": "2088146"}},