{"version": 0.6, "generator": "Overpass API 0.7.62.8 e802775f", "osm3s": {"timestamp_osm_base": "2026-01-11T11:50:38Z", "copyright": "The data included in this document is from www.openstreetmap.org. The data is made available under ODbL."}, "elements": [{"type": "node", "id": 8099480, "lat": -33.8605384, "lon": 151.210615, "tags": {"amenity": "ferry_terminal", "fare_gates": "yes", "ferry": "yes", "local_ref": "5A", "name": "Circular Quay 5A", "public_transport": "stop_position", "wheelchair": "yes"}}, {"type": "node", "id": 8099501, "lat": -33.8568299, "lon": 151.1962419, "tags": {"amenity": "ferry_terminal", "fare_gates": "no", "ferry": "yes", "name": "Balmain East Wharf", "public_transport": "station", "wheelchair": "yes"}}, {"type": "node", "id": 8408936, "lat": -33.860582, "lon": 151.2109195, "tags": {"amenity": "ferry_terminal", "fare_gates": "yes", "ferry": "yes", "local_ref": "4B", "name": "Circular Quay 4B", "public_transport": "stop_position", "wheelchair": "yes"}}, {"type": "node", "id": 8530018, "lat": -33.8493116, "lon": 151.2104494, "tags": {"fare_gates": "no", "ferry": "yes", "local_ref": "A", "name": "Milsons Point Wharf", "network": "Sydney Ferries", "network:wikidata": "Q3162795", "operator": "Transdev Sydney Ferries", "operator:wikidata": "Q16927194", "public_transport": "stop_position", "ref": "206122"}}, {"type": "node", "id": 8590354, "lat": -33.8606896, "lon": 151.2114007, "tags": {"amenity": "ferry_terminal", "fare_gates": "yes", "ferry": "yes", "local_ref": "3B", "name": "Circular Quay 3B", "public_transport": "stop_position", "wheelchair": "yes"}}, {"type": "node", "id": 8779269, "lat": -33.8433982, "lon": 151.2217027, "tags": {"amenity": "ferry_terminal", "bicycle": "yes", "ferry": "yes", "foot": "yes", "name": "Kurraba Point", "network": "Sydney Ferries", "network:wikidata": "Q3162795", "operator": "Transdev Sydney Ferries", "operator:wikidata": "Q16927194", "public_transport": "stop_position", "ref": "20892", "website": "https://transportnsw.info/stop?q=20892", "wikidata": "Q20065287"}}, {"type": "node", "id": 13100744, "lat": -33.8745517, "lon": 151.1939808}, {"type": "node", "id": 13100748, "lat": -33.8744895, "lon": 151.1938857}, {"type": "node", "id": 13100768, "lat": -33.8744894, "lon": 151.19399, "tags": {"light_rail": "yes", "local_ref": "2", "name": "Wentworth Park", "public_transport": "stop_position", "railway": "stop", "ref": "200936", "side": "left"}}, {"type": "node", "id": 13104636, "lat": -33.8772304, "lon": 151.1874341, "tags": {"light_rail": "yes", "local_ref": "2", "name": "Glebe", "public_transport": "stop_position", "railway": "stop", "ref": "203782", "side": "left"}}, {"type": "node", "id": 13757737, "lat": -33.8707284, "lon": 151.2103955, "tags": {"entrance": "yes", "level": "0", "name": "St James", "railway": "subway_entrance", "wheelchair": "yes"}}, {"type": "node", "id": 13767767, "lat": -33.8798094, "lon": 151.2056094, "tags": {"electrified": "contact_line", "light_rail": "yes", "local_ref": "2", "name": "Capitol Square", "public_transport": "stop_position", "railway": "stop", "ref": "2000256", "side": "left"}}, {"type": "node", "id": 15194910, "lat": -33.9139638, "lon": 151.1536185, "tags": {"fare_gates": "no", "name": "Marrickville", "network": "Sydney Metro", "network:wikidata": "Q14774571", "operator": "Metro Trains Sydney", "operator:wikidata": "Q20861549", "platforms": "2", "public_transport": "station", "railway": "station", "railway:ref": "MKV", "ref": "220410", "station": "subway", "subway": "yes", "wheelchair": "yes", "wikidata": "Q6772915"}}, {"type": "node", "id": 15445736, "lat": -33.9061988, "lon": 151.2024361, "tags": {"fare_gates": "yes", "location": "underground", "name": "Green Square", "network": "Sydney Trains", "network:wikidata": "Q7660181", "operator": "Sydney Trains", "platforms": "2", "public_transport": "station", "railway": "station", "ref": "201710", "train": "yes", "wheelchair": "yes", "wikidata": "Q5603235", "wikipedia": "en:Green Square railway station"}}, {"type": "node", "id": 15451636, "lat": -33.86946, "lon": 151.1975871, "tags": {"electrified": "contact_line", "light_rail": "yes", "local_ref": "2", "name": "Pyrmont Bay", "public_transport": "stop_position", "railway": "stop", "ref": "200944", "side": "left", "wheelchair": "yes"}}, {"type": "node", "id": 18248204, "lat": -33.8792745, "lon": 151.2028851}, {"type": "node", "id": 18319676, "lat": -33.9250927, "lon": 151.2272369, "tags": {"bus": "yes", "gtfs:stop_id": "203228", "name": "Dacey Gardens, Gardeners Rd", "network": "Transport Buses", "public_transport": "stop_position", "ref": "203228"}}, {"type": "node", "id": 18372990, "lat": -33.8792403, "lon": 151.2361365, "tags": {"defibrillator": "yes", "fare_gates": "yes", "internet_access": "no", "level": "-1", "name": "Edgecliff", "network": "Sydney Trains", "network:wikidata": "Q7660181", "platforms": "2", "public_transport": "station", "railway": "station", "railway:ref": "EDG", "ref": "202710", "train": "yes", "wheelchair": "yes", "wikidata": "Q5337745", "wikipedia": "en:Edgecliff railway station"}}, {"type": "node", "id": 18840881, "lat": -33.9147079, "lon": 151.2666871, "tags": {"bus": "yes", "highway": "bus_stop", "name": "Clovelly Road Terminus", "network": "Transport Buses", "network:wikidata": "Q5001345", "public_transport": "platform", "ref": "203190"}}, {"type": "node", "id": 18866114, "lat": -33.904571, "lon": 151.2670349, "tags": {"bus": "yes", "gtfs:stop_id": "202436", "name": "Bronte Beach Terminus, Bronte Rd", "network": "Transport Buses", "public_transport": "stop_position", "ref": "202436", "wheelchair": "yes"}}, {"type": "node", "id": 20930157, "lat": -33.878341, "lon": 151.2095125, "tags": {"bench": "yes", "bin": "no", "bus": "yes", "covered": "yes", "highway": "bus_stop", "note": "302;303", "public_transport": "platform", "ref": "200049", "shelter": "yes", "source": "survey", "source:name": "2005/6 survey", "tactile_paving": "no"}}, {"type": "node", "id": 20955155, "lat": -33.8912429, "lon": 151.248455, "tags": {"changing_table": "yes", "fare_gates": "yes", "location": "underground", "name": "Bondi Junction", "network": "Sydney Trains", "network:wikidata": "Q7660181", "platforms": "2", "public_transport": "station", "railway": "station", "railway:ref": "BJN", "ref": "202210", "survey:date": "2022-02-10", "toilets": "yes", "toilets:access": "customers", "train": "yes", "wheelchair": "yes", "wikidata": "Q2737350", "wikipedia": "en:Bondi Junction railway station"}}, {"type": "node", "id": 20959048, "lat": -33.860504, "lon": 151.2101153, "tags": {"amenity": "ferry_terminal", "fare_gates": "no", "ferry": "yes", "local_ref": "6A", "name": "Circular Quay 6A", "not:network:wikidata": "Q3162795", "public_transport": "stop_position", "ref": "2000234", "website": "https://transportnsw.info/stop?q=2000234", "wheelchair": "yes"}}, {"type": "node", "id": 20959049, "lat": -33.8606782, "lon": 151.2119493, "tags": {"amenity": "ferry_terminal", "fare_gates": "yes", "ferry": "yes", "local_ref": "2B", "name": "Circular Quay 2B", "public_transport": "stop_position", "wheelchair": "yes"}}, {"type": "node", "id": 20979721, "lat": -33.8913288, "lon": 151.249376, "tags": {"amenity": "bus_station", "bus": "yes", "name": "Bondi Junction Interchange", "name:en": "Bondi Junction Interchange", "public_transport": "station", "wheelchair": "yes"}}, {"type": "node", "id": 26363128, "lat": -33.8840177, "lon": 151.1451408, "tags": {"light_rail": "yes", "local_ref": "2", "name": "Marion", "public_transport": "stop_position", "railway": "stop", "ref": "2040110", "side": "left"}}, {"type": "node", "id": 26364221, "lat": -33.8754423, "lon": 151.1787051, "tags": {"light_rail": "yes", "local_ref": "2", "name": "Jubilee Park", "public_transport": "stop_position", "railway": "stop", "ref": "203780", "side": "left", "wheelchair": "yes"}}, {"type": "node", "id": 26627263, "lat": -33.8676898, "lon": 151.1952736, "tags": {"light_rail": "yes", "local_ref": "2", "name": "The Star", "public_transport": "stop_position", "railway": "stop", "ref": "200942", "side": "left", "wheelchair": "yes"}}, {"type": "node", "id": 29420693, "lat": -33.8388606, "lon": 151.2510732, "tags": {"bus": "yes", "gtfs:stop_id": "2088125", "name": "Clifton Gardens", "network": "Transport Buses", "public_transport": "stop_position", "ref": "2088125"}}, {"type": "node", "id": 31492673, "lat": -33.8382421, "lon": 151.256409, "tags": {"bus": "yes", "gtfs:stop_id": "2088240", "name": "Chowder Bay Rd opp Sydney Institute of Marine Science", "network": "Transport Buses", "public_transport": "stop_position", "ref": "2088240"}}, {"type": "node", "id": 31641789, "lat": -33.9100495, "lon": 151.1620232, "tags": {"bus": "yes", "gtfs:stop_id": "220449", "highway": "bus_stop", "loc_ref": "423,L23,426", "name": "Victoria Rd after Sydenham Rd", "network": "Transport Buses", "network:wikidata": "Q5001345", "public_transport": "platform", "ref": "220449"}}, {"type": "node", "id": 32845365, "lat": -33.8742597, "lon": 151.2222339}, {"type": "node", "id": 43077657, "lat": -33.8398385, "lon": 151.2076974, "tags": {"bus": "yes", "gtfs:stop_id": "206027", "name": "Greenwood Plaza, Pacific Hwy", "network": "Transport Buses", "public_transport": "stop_position", "ref": "206027"}}, {"type": "node", "id": 82009167, "lat": -33.8480228, "lon": 151.2309883, "tags": {"ferry": "yes", "name": "Cremorne Point", "operator": "Sydney Ferries", "public_transport": "stop_position", "wheelchair": "yes"}}, {"type": "node", "id": 82030648, "lat": -33.8407337, "lon": 151.2304646, "tags": {"ferry": "yes", "name": "Old Cremorne", "operator": "Sydney Ferries", "public_transport": "stop_position", "wheelchair": "no"}}, {"type": "node", "id": 173139337, "lat": -33.8827156, "lon": 151.2056011}, {"type": "node", "id": 173139338, "lat": -33.8823008, "lon": 151.2060048}, {"type": "node", "id": 173139344, "lat": -33.882252, "lon": 151.206264}, {"type": "node", "id": 173139348, "lat": -33.8827122, "lon": 151.2071081}, {"type": "node", "id": 173139350, "lat": -33.8827706, "lon": 151.2072141}, {"type": "node", "id": 173139351, "lat": -33.8828151, "lon": 151.2072625}, {"type": "node", "id": 173139352, "lat": -33.8828343, "lon": 151.2072556}, {"type": "node", "id": 173139353, "lat": -33.8832883, "lon": 151.2068694}, {"type": "node", "id": 173139357, "lat": -33.8825859, "lon": 151.205891}, {"type": "node", "id": 173139358, "lat": -33.8828386, "lon": 151.2057032}, {"type": "node", "id": 173186507, "lat": -33.8805256, "lon": 151.2002868, "tags": {"bench": "yes", "bin": "no", "bus": "yes", "gtfs:stop_id": "200713", "highway": "bus_stop", "loc_ref": "501", "name": "Harris St at Mary Ann St", "network": "Transport Buses", "network:wikidata": "Q5001345", "public_transport": "platform", "ref": "200713", "route_ref": "501", "shelter": "no", "tactile_paving": "yes"}}, {"type": "node", "id": 173189044, "lat": -33.8810146, "lon": 151.2003598, "tags": {"bench": "yes", "bin": "no", "bus": "yes", "departures_board": "timetable", "gtfs:stop_id": "200717", "highway": "bus_stop", "lit": "yes", "loc_ref": "501", "name": "Harris St at Mary Ann St", "network": "Transport Buses", "network:wikidata": "Q5001345", "public_transport": "platform", "ref": "200717", "shelter": "yes", "tactile_paving": "yes"}}, {"type": "node", "id": 173201889, "lat": -33.8782925, "lon": 151.1988062, "tags": {"bench": "no", "bin": "no", "bus": "yes", "gtfs:stop_id": "200719", "highway": "bus_stop", "lit": "no", "loc_ref": "501", "name": "Harris St opp Powerhouse Museum", "network": "Transport Buses", "network:wikidata": "Q5001345", "public_transport": "platform", "ref": "200719", "shelter": "no", "tactile_paving": "yes"}}, {"type": "node", "id": 173243090, "lat": -33.8789196, "lon": 151.1993556, "tags": {"bench": "yes", "bin": "no", "bus": "yes", "gtfs:stop_id": "200712", "highway": "bus_stop", "lit": "yes", "loc_ref": "501", "name": "Powerhouse Museum, Harris St", "network": "Transport Buses", "network:wikidata": "Q5001345", "public_transport": "platform", "ref": "200712", "route_ref": "501", "shelter": "yes", "tactile_paving": "yes", "wheelchair": "limited"}}, {"type": "node", "id": 187593157, "lat": -33.9118939, "lon": 151.1605461, "tags": {"bench": "yes", "bus": "yes", "gtfs:stop_id": "220418", "highway": "bus_stop", "loc_ref": "423,426,L23", "name": "Victoria Rd before Marrickville Rd", "network": "Transport Buses", "network:wikidata": "Q5001345", "public_transport": "platform", "ref": "220418", "shelter": "yes"}}, {"type": "node", "id": 187593729, "lat": -33.9120619, "lon": 151.1597669, "tags": {"bench": "no", "bin": "yes", "bus": "yes", "gtfs:stop_id": "220466", "highway": "bus_stop", "loc_ref": "423,425,426,L23", "name": "Marrickville Rd at Victoria Rd", "network": "Transport Buses", "network:wikidata": "Q5001345", "public_transport": "platform", "ref": "220466", "shelter": "yes;no", "shelter_type": "shop awning", "tactile_paving": "yes"}}, {"type": "node", "id": 187593954, "lat": -33.9099937, "lon": 151.1619018, "tags": {"advertising": "poster_box", "advertising:operator": "JC Decaux", "advertising:phone": "+61 2 9557 6555", "amenity": "shelter", "bench": "yes", "board_type": "public_transport", "bus": "yes", "gtfs:stop_id": "220467", "highway": "bus_stop", "information": "board", "loc_ref": "423,L23,426", "name": "Victoria Rd before Sydenham Rd", "network": "Transport Buses", "phone:AU": "13 15 00", "public_transport": "platform", "ref": "220467", "shelter": "yes", "tourism": "information"}}, {"type": "node", "id": 202403347, "lat": -33.9167173, "lon": 151.2257539, "tags": {"bench": "yes", "bin": "yes", "bus": "yes", "gtfs:stop_id": "203351", "highway": "bus_stop", "lit": "yes", "name": "NIDA, Anzac Pde", "network": "Transport Buses", "network:wikidata": "Q5001345", "public_transport": "platform", "ref": "203351", "shelter": "yes", "tactile_paving": "yes", "wheelchair": "yes"}}, {"type": "node", "id": 202403616, "lat": -33.9179777, "lon": 151.2263894, "tags": {"bench": "yes", "bin": "no", "bus": "yes", "check_date": "2020-08-10", "gtfs:stop_id": "203311", "highway": "bus_stop", "name": "UNSW Mall Entrance, Anzac Pde", "network": "Transport Buses", "network:wikidata": "Q5001345", "note": "M10;410;L94", "public_transport": "platform", "ref": "203311", "shelter": "yes", "source": "survey", "tactile_paving": "yes", "wheelchair": "yes"}}, {"type": "node", "id": 202404049, "lat": -33.9150924, "lon": 151.2277566, "tags": {"bench": "no", "bin": "no", "bus": "yes", "covered": "no", "gtfs:stop_id": "2031163", "highway": "bus_stop", "lit": "no", "name": "High St opp UNSW Gate 2", "network": "Transport Buses", "network:wikidata": "Q5001345", "public_transport": "platform", "ref": "2031163", "shelter": "no", "source": "nearmap", "source:location": "survey", "source:name": "survey", "source:ref": "survey", "tactile_paving": "yes"}}, {"type": "node", "id": 202404352, "lat": -33.9158971, "lon": 151.2336676, "tags": {"bench": "no", "bin": "no", "bus": "yes", "covered": "no", "gtfs:stop_id": "2031164", "highway": "bus_stop", "name": "High St opp UNSW Gate 8", "network": "Transport Buses", "network:wikidata": "Q5001345", "public_transport": "platform", "ref": "2031164", "route_ref": "348;370;M50", "shelter": "no", "source:name": "survey", "source:ref": "survey", "tactile_paving": "yes"}}, {"type": "node", "id": 202406958, "lat": -33.9235287, "lon": 151.2274054, "tags": {"bus": "yes", "highway": "bus_stop", "local_ref": "C", "name": "Kingsford Nine Ways, Anzac Pde, Stand C", "note": "M10;341;391;392;X92;393;394;L94;X94;395;396;X96;397;399;X99;400;410;Except 393,395,400,410 Mon-Fri 07:00-10:00", "public_transport": "platform", "ref": "203214", "shelter": "yes", "source": "survey"}}, {"type": "node", "id": 202407159, "lat": -33.923916, "lon": 151.2279318, "tags": {"bench": "yes", "bin": "no", "bus": "yes", "highway": "bus_stop", "local_ref": "D", "name": "Kingsford Nine Ways, Anzac Pde, Stand D", "note": "400;410", "public_transport": "platform", "ref": "203217", "shelter": "yes", "source": "survey"}}, {"type": "node", "id": 252058553, "lat": -33.8499757, "lon": 151.2139988, "tags": {"amenity": "ferry_terminal", "fare_gates": "no", "ferry": "yes", "name": "Jefferys Street", "public_transport": "station"}}, {"type": "node", "id": 252058576, "lat": -33.8518201, "lon": 151.2170734, "tags": {"amenity": "ferry_terminal", "ferry": "yes", "name": "Beulah Street Wharf", "public_transport": "station"}}, {"type": "node", "id": 253116051, "lat": -33.8420697, "lon": 151.2126087, "tags": {"bench": "yes", "bus": "yes", "gtfs:stop_id": "206059", "highway": "bus_stop", "name": "High St after Clark Rd", "network": "Transport Buses", "network:wikidata": "Q5001345", "public_transport": "platform", "ref": "206059", "shelter": "yes"}}, {"type": "node", "id": 253116373, "lat": -33.8423155, "lon": 151.2135864, "tags": {"bench": "yes", "bus": "yes", "gtfs:stop_id": "206060", "highway": "bus_stop", "name": "High St at Clark Rd", "network": "Transport Buses", "network:wikidata": "Q5001345", "public_transport": "platform", "ref": "206060", "shelter": "yes", "source": "survey"}}, {"type": "node", "id": 258740957, "lat": -33.9110448, "lon": 151.1576266, "tags": {"bench": "no", "bin": "yes", "bus": "yes", "gtfs:stop_id": "220465", "highway": "bus_stop", "lit": "no", "loc_ref": "423,425,426,L23", "name": "Marrickville Rd at Garners Av", "network": "Transport Buses", "network:wikidata": "Q5001345", "public_transport": "platform", "ref": "220465", "shelter": "yes", "tactile_paving": "yes"}}, {"type": "node", "id": 260202810, "lat": -33.8487281, "lon": 151.2061209, "tags": {"bus": "yes", "name": "McMahons Point Wharf, Henry Lawson Av", "network": "Transport Buses", "public_transport": "stop_position", "ref": "206036"}}, {"type": "node", "id": 262241878, "lat": -33.8726035, "lon": 151.1980489, "tags": {"light_rail": "yes", "local_ref": "2", "name": "Convention", "public_transport": "stop_position", "railway": "stop", "ref": "2000263", "side": "left"}}, {"type": "node", "id": 265860053, "lat": -33.8928564, "lon": 151.2040998, "tags": {"bench": "yes", "bin": "yes", "bus": "yes", "gtfs:stop_id": "201619", "highway": "bus_stop", "name": "Redfern St at Pitt St", "network": "Transport Buses", "network:wikidata": "Q5001345", "public_transport": "platform", "ref": "201619", "shelter": "no"}}, {"type": "node", "id": 267485550, "lat": -33.8268227, "lon": 151.2230617, "tags": {"bench": "yes", "bus": "yes", "gtfs:stop_id": "209014", "highway": "bus_stop", "name": "Grasmere Rd opp Grasmere Children's Park", "network": "Transport Buses", "network:wikidata": "Q5001345", "public_transport": "platform", "ref": "209014", "shelter": "yes", "source": "nearmap"}}, {"type": "node", "id": 277866721, "lat": -33.8432439, "lon": 151.2325622, "tags": {"ferry": "yes", "level": "0", "name": "South Mosman", "operator": "Sydney Ferries", "public_transport": "stop_position", "wheelchair": "no"}}, {"type": "node", "id": 277866747, "lat": -33.8384528, "lon": 151.2322395, "tags": {"ferry": "yes", "name": "Mosman Bay", "public_transport": "stop_position", "wheelchair": "yes", "wheelchair:description": "depending on the tide the ramp can be very steep"}}, {"type": "node", "id": 282600657, "lat": -33.9327506, "lon": 151.2369966, "tags": {"bench": "yes", "bin": "no", "bus": "yes", "gtfs:stop_id": "203251", "highway": "bus_stop", "name": "Anzac Pde at Fischer St", "network": "Transport Buses", "network:wikidata": "Q5001345", "public_transport": "platform", "ref": "203251", "shelter": "yes", "tactile_paving": "no"}}, {"type": "node", "id": 282600728, "lat": -33.9326859, "lon": 151.2375698, "tags": {"bus": "yes", "gtfs:stop_id": "203250", "highway": "bus_stop", "name": "Anzac Pde at Avoca St", "network": "Transport Buses", "network:wikidata": "Q5001345", "public_transport": "platform", "ref": "203250", "shelter": "yes"}}, {"type": "node", "id": 293134357, "lat": -33.8549888, "lon": 151.1685498, "tags": {"alt_name": "Elliott Street Wharf", "amenity": "ferry_terminal", "end_date": "2013", "ferry": "yes", "name": "Balmain West", "network": "Sydney Ferries", "network:wikidata": "Q3162795", "operator": "Transdev Sydney Ferries", "operator:wikidata": "Q16927194", "public_transport": "stop_position", "start_date": "2025", "wikidata": "Q4852348", "wikipedia": "en:Balmain West ferry wharf"}}, {"type": "node", "id": 296813548, "lat": -33.9069152, "lon": 151.1643758, "tags": {"bench": "yes", "bin": "no", "bus": "yes", "gtfs:stop_id": "220473", "highway": "bus_stop", "lit": "yes", "loc_ref": "423,L23,426", "name": "Victoria Rd at Chapel St", "network": "Transport Buses", "network:wikidata": "Q5001345", "public_transport": "platform", "ref": "220473", "shelter": "yes", "tactile_paving": "yes"}}, {"type": "node", "id": 296813674, "lat": -33.9068228, "lon": 151.1647025, "tags": {"bus": "yes", "highway": "bus_stop", "loc_ref": "423,L23,426", "public_transport": "platform"}}, {"type": "node", "id": 296814153, "lat": -33.9056495, "lon": 151.1664779, "tags": {"bench": "yes", "bin": "no", "bus": "yes", "gtfs:stop_id": "220474", "highway": "bus_stop", "loc_ref": "423,L23,426", "name": "Victoria Rd at Cook Rd", "network": "Transport Buses", "network:wikidata": "Q5001345", "public_transport": "platform", "ref": "220474", "shelter": "yes", "tactile_paving": "yes"}}, {"type": "node", "id": 296814447, "lat": -33.9053124, "lon": 151.1677957, "tags": {"bench": "yes", "bus": "yes", "covered": "no", "gtfs:stop_id": "220447", "highway": "bus_stop", "loc_ref": "423,L23,426,355", "name": "Enmore Rd at Victoria Rd", "network": "Transport Buses", "network:wikidata": "Q5001345", "public_transport": "platform", "ref": "220447", "shelter": "yes"}}, {"type": "node", "id": 296814763, "lat": -33.9036609, "lon": 151.1685261, "tags": {"bench": "yes", "bin": "yes", "bus": "yes", "gtfs:stop_id": "2204100", "highway": "bus_stop", "lit": "no", "loc_ref": "423,L23,426,355", "name": "Enmore Park, Enmore Rd, Stand A", "network": "Transport Buses", "network:wikidata": "Q5001345", "public_transport": "platform", "ref": "2204100", "shelter": "no", "source": "survey", "tactile_paving": "yes"}}, {"type": "node", "id": 296816031, "lat": -33.9138939, "lon": 151.16279, "tags": {"bus": "yes", "gtfs:stop_id": "220482", "highway": "bus_stop", "loc_ref": "425", "name": "Marrickville Rd at Barclay St", "network": "Transport Buses", "network:wikidata": "Q5001345", "public_transport": "platform", "ref": "220482"}}, {"type": "node", "id": 296816168, "lat": -33.9141213, "lon": 151.1629065, "tags": {"bus": "yes", "gtfs:stop_id": "220485", "highway": "bus_stop", "name": "Marrickville Rd opp Barclay St", "network": "Transport Buses", "network:wikidata": "Q5001345", "public_transport": "platform", "ref": "220485", "shelter": "yes", "source": "survey"}}, {"type": "node", "id": 296816324, "lat": -33.9129131, "lon": 151.1652947, "tags": {"bus": "yes", "highway": "bus_stop", "loc_ref": "425", "public_transport": "platform"}}, {"type": "node", "id": 332522882, "lat": -33.8454206, "lon": 151.1572043, "tags": {"amenity": "ferry_terminal", "fare_gates": "no", "ferry": "yes", "name": "Drummoyne Ferry Wharf", "network": "Sydney Ferries", "network:wikidata": "Q3162795", "operator": "Transdev Sydney Ferries", "operator:wikidata": "Q16927194", "public_transport": "station", "wikidata": "Q5309259", "wikipedia": "en:Drummoyne ferry wharf"}}, {"type": "node", "id": 343293572, "lat": -33.8991189, "lon": 151.1451597, "tags": {"bench": "yes", "bus": "yes", "gtfs:stop_id": "220352", "highway": "bus_stop", "name": "New Canterbury Rd at Eltham St", "network": "Transport Buses", "network:wikidata": "Q5001345", "public_transport": "platform", "ref": "220352", "shelter": "yes"}}, {"type": "node", "id": 355847154, "lat": -33.8261147, "lon": 151.2096868, "tags": {"bench": "yes", "bus": "yes", "gtfs:stop_id": "206215", "highway": "bus_stop", "name": "Miller St before Ernest St", "network": "Transport Buses", "network:wikidata": "Q5001345", "public_transport": "platform", "ref": "206215", "shelter": "yes"}}, {"type": "node", "id": 355847178, "lat": -33.8350153, "lon": 151.2075643, "tags": {"bench": "yes", "bin": "yes", "bus": "yes", "highway": "bus_stop", "lit": "no", "name": "Miller St at McLaren St", "network": "Transport Buses", "network:wikidata": "Q5001345", "old_name": "Monte", "public_transport": "platform", "ref": "206047", "shelter": "yes", "source": "survey", "survey:date": "2022-02-05", "tactile_paving": "no"}}, {"type": "node", "id": 356186928, "lat": -33.8310408, "lon": 151.2084128, "tags": {"bench": "yes", "bin": "yes", "bus": "yes", "gtfs:stop_id": "206049", "highway": "bus_stop", "lit": "no", "name": "Marist Catholic College North Shore, Miller St", "network": "Transport Buses", "network:wikidata": "Q5001345", "public_transport": "platform", "ref": "206049", "shelter": "yes", "source": "survey", "tactile_paving": "no"}}, {"type": "node", "id": 356186953, "lat": -33.8353971, "lon": 151.2076466, "tags": {"bench": "yes", "bin": "no", "bus": "yes", "highway": "bus_stop", "lit": "no", "name": "Miller St after McLaren St", "network": "Transport Buses", "network:wikidata": "Q5001345", "old_name": "McLaren", "public_transport": "platform", "ref": "206019", "shelter": "yes", "source": "survey", "survey:date": "2022-02-05", "tactile_paving": "no", "wheelchair": "yes"}}, {"type": "node", "id": 361039743, "lat": -33.8290821, "lon": 151.2091631, "tags": {"bench": "yes", "bin": "yes", "bus": "yes", "departures_board": "timetable", "gtfs:stop_id": "206073", "highway": "bus_stop", "lit": "yes", "name": "St Leonards Park, Falcon St", "network": "Transport Buses", "network:wikidata": "Q5001345", "public_transport": "platform", "ref": "206073", "shelter": "yes", "source": "survey", "tactile_paving": "no"}}, {"type": "node", "id": 361039745, "lat": -33.8292918, "lon": 151.2091552, "tags": {"bench": "yes", "bin": "no", "bus": "yes", "departures_board": "timetable", "gtfs:stop_id": "206072", "highway": "bus_stop", "lit": "no", "name": "Falcon St at Miller St", "network": "Transport Buses", "network:wikidata": "Q5001345", "public_transport": "platform", "ref": "206072", "shelter": "yes", "source": "survey", "tactile_paving": "no"}}, {"type": "node", "id": 361039750, "lat": -33.830737, "lon": 151.2086709, "tags": {"bench": "yes", "bin": "no", "bus": "yes", "gtfs:stop_id": "206017", "highway": "bus_stop", "lit": "no", "name": "Miller St opp Marist Catholic College North Shore", "network": "Transport Buses", "network:wikidata": "Q5001345", "public_transport": "platform", "ref": "206017", "shelter": "yes", "source": "survey", "tactile_paving": "no"}}, {"type": "node", "id": 361039758, "lat": -33.8331148, "lon": 151.2079569, "tags": {"bench": "yes", "bin": "yes", "bus": "yes", "check_date": "2025-08-20", "check_date:bin": "2025-08-20", "check_date:lit": "2025-08-20", "check_date:tactile_paving": "2025-08-20", "gtfs:stop_id": "206048", "highway": "bus_stop", "lit": "no", "name": "Miller St opp North Sydney Oval", "network": "Transport Buses", "network:wikidata": "Q5001345", "public_transport": "platform", "ref": "206048", "shelter": "no", "source": "survey", "tactile_paving": "no"}}, {"type": "node", "id": 361039764, "lat": -33.8327057, "lon": 151.208238, "tags": {"bench": "yes", "bin": "no", "bus": "yes", "gtfs:stop_id": "206018", "highway": "bus_stop", "lit": "yes", "name": "North Sydney Oval, Miller St", "network": "Transport Buses", "network:wikidata": "Q5001345", "public_transport": "platform", "ref": "206018", "shelter": "yes", "source": "survey", "tactile_paving": "no"}}, {"type": "node", "id": 361039774, "lat": -33.8371816, "lon": 151.2071417, "tags": {"bench": "no", "bus": "yes", "gtfs:stop_id": "206046", "highway": "bus_stop", "local_ref": "C", "name": "Victoria Cross Station, Miller St, Stand C", "network": "Transport Buses", "network:wikidata": "Q5001345", "public_transport": "platform", "ref": "206046", "shelter": "no", "source": "survey", "survey:date": "2022-02-05", "wheelchair": "yes"}}, {"type": "node", "id": 361039778, "lat": -33.8384271, "lon": 151.2070606, "tags": {"bench": "yes", "bin": "no", "bus": "yes", "gtfs:stop_id": "206052", "highway": "bus_stop", "lit": "yes", "local_ref": "E", "name": "Victoria Cross Station, Miller St, Stand E", "network": "Transport Buses", "network:wikidata": "Q5001345", "public_transport": "platform", "ref": "206052", "shelter": "yes", "source": "survey", "tactile_paving": "yes"}}, {"type": "node", "id": 362167964, "lat": -33.8265901, "lon": 151.2065297, "tags": {"bench": "yes", "bin": "no", "bus": "yes", "check_date:shelter": "2021-05-10", "gtfs:stop_id": "2065106", "highway": "bus_stop", "lit": "no", "name": "Ernest St at West St", "network": "Transport Buses", "network:wikidata": "Q5001345", "public_transport": "platform", "ref": "2065106", "shelter": "yes", "source": "survey", "tactile_paving": "no"}}, {"type": "node", "id": 365490801, "lat": -33.8311863, "lon": 151.1917093}, {"type": "node", "id": 368405417, "lat": -33.8339294, "lon": 151.2077706, "tags": {"access": "no", "bench": "no", "bus": "yes", "highway": "bus_stop", "name": "Civic Park", "network": "Transport Buses", "network:wikidata": "Q5001345", "public_transport": "platform", "ref": "206082", "school_bus": "designated", "shelter": "no", "source": "survey", "tactile_paving": "no"}}, {"type": "node", "id": 384729958, "lat": -33.873623, "lon": 151.1960909, "tags": {"bus": "yes", "highway": "bus_stop", "loc_ref": "443, 501", "name": "Harris St at Allen St", "network": "Transport Buses", "network:wikidata": "Q5001345", "public_transport": "platform", "ref": "200926", "wheelchair": "yes"}}, {"type": "node", "id": 384730660, "lat": -33.8732105, "lon": 151.1960161, "tags": {"bench": "yes", "bin": "yes", "bus": "yes", "gtfs:stop_id": "200933", "highway": "bus_stop", "lit": "yes", "loc_ref": "443 (inbound), 501 (inbound)", "name": "Harris St at Allen St", "network": "Transport Buses", "network:wikidata": "Q5001345", "public_transport": "platform", "ref": "200933", "route_ref": "443;501", "tactile_paving": "yes"}}, {"type": "node", "id": 384730721, "lat": -33.8710768, "lon": 151.1948368, "tags": {"bench": "yes", "bin": "yes", "bus": "yes", "gtfs:stop_id": "200916", "highway": "bus_stop", "name": "Harris St at Pyrmont Bridge Rd", "network": "Transport Buses", "network:wikidata": "Q5001345", "public_transport": "platform", "ref": "200916", "route_ref": "501", "shelter": "no", "tactile_paving": "yes", "wheelchair": "yes"}}, {"type": "node", "id": 384730727, "lat": -33.8709387, "lon": 151.1945973, "tags": {"bench": "yes", "bus": "yes", "gtfs:stop_id": "200928", "highway": "bus_stop", "name": "Harris St after Pyrmont Bridge Rd", "network": "Transport Buses", "network:wikidata": "Q5001345", "public_transport": "platform", "ref": "200928", "route_ref": "443;501", "shelter": "no", "wheelchair": "yes"}}, {"type": "node", "id": 385200177, "lat": -33.8770389, "lon": 151.1982574, "tags": {"bench": "yes", "bin": "yes", "bus": "yes", "gtfs:stop_id": "200711", "highway": "bus_stop", "lit": "yes", "loc_ref": "501", "name": "Harris St after Quarry St", "network": "Transport Buses", "network:wikidata": "Q5001345", "public_transport": "platform", "ref": "200711", "route_ref": "501", "shelter": "no", "tactile_paving": "yes", "wheelchair": "limited"}}, {"type": "node", "id": 385200178, "lat": -33.869505, "lon": 151.1937567, "tags": {"bench": "yes", "bin": "no", "bus": "yes", "covered": "yes", "gtfs:stop_id": "200913", "highway": "bus_stop", "loc_ref": "443", "name": "Harris St opp Union Square", "network": "Transport Buses", "network:wikidata": "Q5001345", "public_transport": "platform", "ref": "200913", "route_ref": "389", "tactile_paving": "yes", "wheelchair": "yes"}}, {"type": "node", "id": 385200712, "lat": -33.8751826, "lon": 151.1971857, "tags": {"bench": "yes", "bus": "yes", "gtfs:stop_id": "200726", "highway": "bus_stop", "loc_ref": "501", "name": "Harris St after Fig St", "network": "Transport Buses", "network:wikidata": "Q5001345", "public_transport": "platform", "ref": "200726", "route_ref": "501", "shelter": "no"}}, {"type": "node", "id": 386586147, "lat": -33.8271716, "lon": 151.2000779, "tags": {"bench": "yes", "bin": "yes", "bus": "yes", "gtfs:stop_id": "206524", "highway": "bus_stop", "lit": "no", "name": "Pacific Hwy after Shirley Rd", "network": "Transport Buses", "network:wikidata": "Q5001345", "public_transport": "platform", "ref": "206524", "shelter": "no", "tactile_paving": "no"}}, {"type": "node", "id": 387222126, "lat": -33.828987, "lon": 151.2099911, "tags": {"bench": "yes", "bin": "yes", "bus": "yes", "gtfs:stop_id": "206074", "highway": "bus_stop", "name": "Falcon St at Bardsley Gdns", "network": "Transport Buses", "network:wikidata": "Q5001345", "public_transport": "platform", "ref": "206074", "shelter": "yes", "source": "survey", "tactile_paving": "no"}}, {"type": "node", "id": 387222129, "lat": -33.8274109, "lon": 151.2091975, "tags": {"bench": "no", "bus": "yes", "gtfs:stop_id": "206216", "highway": "bus_stop", "name": "Miller St before Ernest St", "network": "Transport Buses", "network:wikidata": "Q5001345", "public_transport": "platform", "ref": "206216", "shelter": "no"}}, {"type": "node", "id": 387222131, "lat": -33.8287026, "lon": 151.2069956, "tags": {"bench": "yes", "bin": "no", "bus": "yes", "gtfs:stop_id": "2065108", "highway": "bus_stop", "name": "North Sydney Boys High School, Falcon St", "network": "Transport Buses", "network:wikidata": "Q5001345", "public_transport": "platform", "ref": "2065108", "shelter": "no", "source": "survey"}}, {"type": "node", "id": 387222138, "lat": -33.8354706, "lon": 151.2051907, "tags": {"bench": "yes", "bin": "yes", "bus": "yes", "gtfs:stop_id": "206028", "highway": "bus_stop", "lit": "no", "name": "Pacific Hwy before Bay Rd", "network": "Transport Buses", "network:wikidata": "Q5001345", "public_transport": "platform", "ref": "206028", "shelter": "yes", "source": "survey", "tactile_paving": "no", "wheelchair": "yes"}}, {"type": "node", "id": 390231613, "lat": -33.8293806, "lon": 151.2087849, "tags": {"bench": "yes", "bin": "no", "bus": "yes", "gtfs:stop_id": "206050", "highway": "bus_stop", "lit": "no", "name": "Miller St before Falcon St", "network": "Transport Buses", "network:wikidata": "Q5001345", "public_transport": "platform", "ref": "206050", "shelter": "yes", "source": "survey", "tactile_paving": "no"}}, {"type": "node", "id": 393726877, "lat": -33.8291946, "lon": 151.2090363, "tags": {"bench": "yes", "bin": "yes", "bus": "yes", "departures_board": "no", "gtfs:stop_id": "206016", "highway": "bus_stop", "lit": "no", "name": "Miller St at Falcon St", "network": "Transport Buses", "network:wikidata": "Q5001345", "public_transport": "platform", "ref": "206016", "shelter": "no", "source": "survey", "tactile_paving": "no"}}, {"type": "node", "id": 395260477, "lat": -33.8335882, "lon": 151.2046131, "tags": {"bench": "no", "bin": "yes", "bus": "yes", "gtfs:stop_id": "206029", "highway": "bus_stop", "lit": "no", "name": "Pacific Hwy opp West St", "network": "Transport Buses", "network:wikidata": "Q5001345", "public_transport": "platform", "ref": "206029", "shelter": "yes", "tactile_paving": "no"}}, {"type": "node", "id": 395260480, "lat": -33.8334509, "lon": 151.2047792, "tags": {"bench": "no", "bin": "no", "bus": "yes", "gtfs:stop_id": "206025", "highway": "bus_stop", "lit": "no", "name": "Pacific Hwy at West St", "network": "Transport Buses", "network:wikidata": "Q5001345", "public_transport": "platform", "ref": "206025", "shelter": "no", "tactile_paving": "no"}}, {"type": "node", "id": 395260518, "lat": -33.8397827, "lon": 151.206589, "tags": {"bench": "yes", "bus": "yes", "highway": "bus_stop", "public_transport": "platform", "shelter": "no", "source": "survey"}}, {"type": "node", "id": 395260519, "lat": -33.8399699, "lon": 151.2065539, "tags": {"bus": "yes", "highway": "bus_stop", "public_transport": "platform", "shelter": "no", "source": "survey"}}, {"type": "node", "id": 395260520, "lat": -33.8401247, "lon": 151.2066738, "tags": {"bench": "no", "bus": "yes", "gtfs:stop_id": "206024", "highway": "bus_stop", "name": "Miller St before Blue St", "network": "Transport Buses", "network:wikidata": "Q5001345", "public_transport": "platform", "ref": "206024", "shelter": "no", "source": "survey"}}, {"type": "node", "id": 395260521, "lat": -33.8409109, "lon": 151.2066355, "tags": {"bench": "no", "bin": "no", "bus": "yes", "covered": "yes", "departures_board": "yes", "flag": "yes", "gtfs:stop_id": "206011", "highway": "bus_stop", "kerb": "raised", "lit": "yes", "local_ref": "A", "name": "North Sydney Station, Blue St, Stand A", "network": "Transport Buses", "network:wikidata": "Q5001345", "phone": "+61 2 9379 4432", "pole": "yes", "public_transport": "platform", "ref": "206011", "route_ref": "115;261;263", "shelter": "no", "source": "survey", "survey:date": "2022-09-28", "tactile_paving": "yes", "website": "https://transportnsw.info/stop?q=206010#/", "wheelchair": "limited"}}, {"type": "node", "id": 395260522, "lat": -33.840942, "lon": 151.2068813, "tags": {"bench": "yes", "bin": "no", "bus": "yes", "covered": "yes", "departures_board": "yes", "flag": "yes", "gtfs:stop_id": "206012", "highway": "bus_stop", "kerb": "raised", "lit": "yes", "local_ref": "B", "name": "North Sydney Station, Blue St, Stand B", "network": "Transport Buses", "network:wikidata": "Q5001345", "phone": "+61 2 9379 4432", "pole": "yes", "public_transport": "platform", "ref": "206012", "route_ref": "252;286;287;290;320;622", "shelter": "no", "source": "survey", "survey:date": "2022-09-28", "tactile_paving": "yes", "website": "https://transportnsw.info/stop?q=206010#/", "wheelchair": "limited"}}, {"type": "node", "id": 395260523, "lat": -33.8408726, "lon": 151.2072942, "tags": {"bench": "yes", "bin": "yes", "bus": "yes", "covered": "yes", "departures_board": "yes", "flag": "yes", "gtfs:stop_id": "206015", "highway": "bus_stop", "kerb": "raised", "lit": "yes", "local_ref": "F", "name": "North Sydney Station, Blue St, Stand F", "network": "Transport Buses", "network:wikidata": "Q5001345", "phone": "+61 2 9379 4432", "pole": "yes", "public_transport": "platform", "ref": "206015", "route_ref": "254;260;265;269", "shelter": "no", "source": "survey", "survey:date": "2022-09-28", "tactile_paving": "yes", "website": "https://transportnsw.info/stop?q=206010#/", "wheelchair": "limited"}}, {"type": "node", "id": 395260524, "lat": -33.8409716, "lon": 151.2070981, "tags": {"bench": "yes", "bin": "yes", "bus": "yes", "covered": "yes", "departures_board": "yes", "flag": "yes", "gtfs:stop_id": "206092", "highway": "bus_stop", "kerb": "raised", "lit": "yes", "local_ref": "C", "name": "North Sydney Station, Blue St, Stand C", "network": "Transport Buses", "network:wikidata": "Q5001345", "phone": "+61 2 9379 4432", "pole": "yes", "public_transport": "platform", "ref": "206092", "route_ref": "202;203;207;208;209", "shelter": "no", "source": "survey", "survey:date": "2022-09-28", "tactile_paving": "yes", "website": "https://transportnsw.info/stop?q=206010#/", "wheelchair": "limited"}}, {"type": "node", "id": 395260525, "lat": -33.8410607, "lon": 151.2076849, "tags": {"bench": "yes", "bin": "yes", "bus": "yes", "covered": "yes", "departures_board": "yes", "flag": "yes", "gtfs:stop_id": "206014", "highway": "bus_stop", "kerb": "raised", "lit": "yes", "local_ref": "D", "name": "North Sydney Station, Blue St, Stand D", "network": "Transport Buses", "network:wikidata": "Q5001345", "phone": "+61 2 9379 4432", "pole": "yes", "public_transport": "platform", "ref": "206014", "route_ref": "144N;150X;154X;228;229;230;N90;N91", "shelter": "no", "source": "survey", "survey:date": "2022-09-28", "tactile_paving": "yes", "website": "https://transportnsw.info/stop?q=206010#/", "wheelchair": "limited"}}, {"type": "node", "id": 395260526, "lat": -33.8410941, "lon": 151.2079382, "tags": {"bench": "no", "bin": "no", "bus": "yes", "covered": "yes", "departures_board": "no", "flag": "yes", "gtfs:stop_id": "206084", "highway": "bus_stop", "kerb": "raised", "lit": "yes", "local_ref": "E", "name": "North Sydney Station, Blue St, Stand E", "network": "Transport Buses", "network:wikidata": "Q5001345", "phone": "+61 2 9379 4432", "pole": "yes", "public_transport": "platform", "ref": "206084", "shelter": "no", "source": "survey", "survey:date": "2022-09-28", "tactile_paving": "yes", "website": "https://transportnsw.info/stop?q=206010#/", "wheelchair": "limited"}}, {"type": "node", "id": 409184669, "lat": -33.8843254, "lon": 151.2046388}, {"type": "node", "id": 409184671, "lat": -33.885141, "lon": 151.2042027}, {"type": "node", "id": 409184677, "lat": -33.8843286, "lon": 151.2050856}, {"type": "node", "id": 409184679, "lat": -33.8844776, "lon": 151.2051964}, {"type": "node", "id": 409184683, "lat": -33.8850081, "lon": 151.2053003}, {"type": "node", "id": 409184684, "lat": -33.8831105, "lon": 151.2068612}, {"type": "node", "id": 409184685, "lat": -33.8850712, "lon": 151.2053947}, {"type": "node", "id": 409184716, "lat": -33.8922204, "lon": 151.198981}, {"type": "node", "id": 409184717, "lat": -33.8924734, "lon": 151.198707}, {"type": "node", "id": 409184718, "lat": -33.8927473, "lon": 151.1980321}, {"type": "node", "id": 409184732, "lat": -33.8923297, "lon": 151.197284}, {"type": "node", "id": 409184733, "lat": -33.892004, "lon": 151.1979551}, {"type": "node", "id": 409184743, "lat": -33.8841478, "lon": 151.2046136}, {"type": "node", "id": 415551746, "lat": -33.8293957, "lon": 151.2126209, "tags": {"bench": "yes", "bin": "no", "bus": "yes", "departures_board": "timetable", "gtfs:stop_id": "206075", "highway": "bus_stop", "lit": "yes", "name": "Falcon St at Moodie St", "network": "Transport Buses", "network:wikidata": "Q5001345", "public_transport": "platform", "ref": "206075", "shelter": "yes", "source": "survey", "tactile_paving": "no"}}, {"type": "node", "id": 426219434, "lat": -33.8421976, "lon": 151.2055564, "tags": {"bus": "yes", "gtfs:stop_id": "206031", "highway": "bus_stop", "name": "Blues Point Rd before Lavender St", "network": "Transport Buses", "network:wikidata": "Q5001345", "public_transport": "platform", "ref": "206031", "shelter": "no", "source": "survey"}}, {"type": "node", "id": 426219444, "lat": -33.8414943, "lon": 151.2020099, "tags": {"bus": "yes", "gtfs:stop_id": "206063", "highway": "bus_stop", "name": "Union St at Dumbarton St", "network": "Transport Buses", "network:wikidata": "Q5001345", "public_transport": "platform", "ref": "206063", "shelter": "no"}}, {"type": "node", "id": 426219535, "lat": -33.8474252, "lon": 151.2036672, "tags": {"bus": "yes", "gtfs:stop_id": "206038", "highway": "bus_stop", "name": "Blues Point Rd at West Crescent St", "network": "Transport Buses", "network:wikidata": "Q5001345", "public_transport": "platform", "ref": "206038", "source": "survey"}}, {"type": "node", "id": 426219540, "lat": -33.8456428, "lon": 151.2040581, "tags": {"bus": "yes", "gtfs:stop_id": "206039", "highway": "bus_stop", "name": "Blues Point Rd at French St", "network": "Transport Buses", "network:wikidata": "Q5001345", "public_transport": "platform", "ref": "206039", "source": "survey"}}, {"type": "node", "id": 426219576, "lat": -33.8452966, "lon": 151.2042194, "tags": {"bus": "yes", "gtfs:stop_id": "206033", "highway": "bus_stop", "name": "Blues Point Rd at East Crescent St", "network": "Transport Buses", "network:wikidata": "Q5001345", "public_transport": "platform", "ref": "206033", "source": "survey"}}, {"type": "node", "id": 426219580, "lat": -33.8437089, "lon": 151.2044938, "tags": {"bus": "yes", "gtfs:stop_id": "206040", "highway": "bus_stop", "name": "Blues Point Rd opp King George St", "network": "Transport Buses", "network:wikidata": "Q5001345", "public_transport": "platform", "ref": "206040", "shelter": "no", "source": "survey"}}, {"type": "node", "id": 428754552, "lat": -33.841132, "lon": 151.2062128, "tags": {"bus": "yes", "gtfs:stop_id": "206042", "highway": "bus_stop", "name": "St Peters Church, Blues Point Rd", "network": "Transport Buses", "network:wikidata": "Q5001345", "public_transport": "platform", "ref": "206042", "shelter": "no", "source": "survey"}}, {"type": "node", "id": 428754555, "lat": -33.8428722, "lon": 151.2070015, "tags": {"bus": "yes", "gtfs:stop_id": "206057", "highway": "bus_stop", "name": "Lavender St before Walker St", "network": "Transport Buses", "network:wikidata": "Q5001345", "public_transport": "platform", "ref": "206057", "shelter": "no", "source": "survey"}}, {"type": "node", "id": 428754562, "lat": -33.8461315, "lon": 151.2112791, "tags": {"bench": "yes", "bin": "no", "bus": "yes", "gtfs:stop_id": "206121", "highway": "bus_stop", "lit": "no", "name": "Alfred St Sth opp Milsons Point Station", "network": "Transport Buses", "network:wikidata": "Q5001345", "public_transport": "platform", "ref": "206121", "shelter": "no", "source": "survey", "tactile_paving": "no"}}, {"type": "node", "id": 428754563, "lat": -33.8462381, "lon": 151.2114359, "tags": {"bench": "no", "bin": "no", "bus": "yes", "gtfs:stop_id": "206123", "highway": "bus_stop", "lit": "no", "name": "Milsons Point Station, Alfred St Sth", "network": "Transport Buses", "network:wikidata": "Q5001345", "public_transport": "platform", "ref": "206123", "shelter": "no", "source": "survey", "tactile_paving": "no"}}, {"type": "node", "id": 429206569, "lat": -33.8407936, "lon": 151.200659, "tags": {"bus": "yes", "gtfs:stop_id": "206064", "highway": "bus_stop", "name": "Union St opp Bank Lane", "network": "Transport Buses", "network:wikidata": "Q5001345", "public_transport": "platform", "ref": "206064", "shelter": "yes", "source": "survey"}}, {"type": "node", "id": 429206570, "lat": -33.840767, "lon": 151.2007876, "tags": {"bus": "yes", "gtfs:stop_id": "206055", "highway": "bus_stop", "name": "Union St at Bank Lane", "network": "Transport Buses", "network:wikidata": "Q5001345", "public_transport": "platform", "ref": "206055", "shelter": "no", "source": "survey"}}, {"type": "node", "id": 433584509, "lat": -33.9336301, "lon": 151.1808722, "tags": {"alt_name": "Domestic Terminal", "alt_name:1": "Domestic", "fare_gates": "yes", "location": "underground", "name": "Domestic Airport", "network": "Sydney Trains", "network:wikidata": "Q7660181", "operator": "Sydney Trains", "platforms": "2", "public_transport": "station", "railway": "station", "railway:ref": "DOM", "ref": "202020", "train": "yes", "wheelchair": "yes", "wikidata": "Q5290203", "wikipedia": "en:Domestic Airport railway station, Sydney"}}, {"type": "node", "id": 450475584, "lat": -33.8286341, "lon": 151.2260769, "tags": {"bench": "yes", "bus": "yes", "gtfs:stop_id": "209067", "highway": "bus_stop", "name": "Gerard St before Winnie St", "network": "Transport Buses", "network:wikidata": "Q5001345", "public_transport": "platform", "ref": "209067", "shelter": "yes", "source": "knowledge"}}, {"type": "node", "id": 458705369, "lat": -33.8668898, "lon": 151.200692, "tags": {"amenity": "ferry_terminal", "disused": "yes", "ferry": "yes", "name": "Darling Harbour Wharf 3", "name:ko": "\ub2ec\ub9c1\ud558\ubc84", "operator": "NSW Maritime", "public_transport": "station", "wikidata": "Q6412067"}}, {"type": "node", "id": 458710317, "lat": -33.8454805, "lon": 151.1734436, "tags": {"amenity": "ferry_terminal", "fare_gates": "no", "ferry": "yes", "internet_access": "no", "name": "Cockatoo Island", "network": "Sydney Ferries", "network:wikidata": "Q3162795", "operator": "Transdev Sydney Ferries", "operator:wikidata": "Q16927194", "public_transport": "station"}}, {"type": "node", "id": 459454008, "lat": -33.8301389, "lon": 151.2180408, "tags": {"bench": "yes", "bin": "no", "bus": "yes", "gtfs:stop_id": "208911", "highway": "bus_stop", "local_ref": "B", "name": "Watson Street Interchange, Stand B", "network": "Transport Buses", "network:wikidata": "Q5001345", "public_transport": "platform", "ref": "208911", "shelter": "yes", "wheelchair": "yes"}}, {"type": "node", "id": 459454010, "lat": -33.8299388, "lon": 151.2184929, "tags": {"bench": "yes", "bin": "yes", "bus": "yes", "gtfs:stop_id": "208947", "highway": "bus_stop", "lit": "no", "name": "Big Bear Shopping Centre, Military Rd", "network": "Transport Buses", "network:wikidata": "Q5001345", "public_transport": "platform", "ref": "208947", "shelter": "yes", "tactile_paving": "no", "wheelchair": "yes"}}, {"type": "node", "id": 460027532, "lat": -33.8751775, "lon": 151.1750485, "tags": {"bench": "yes", "bin": "yes", "bus": "yes", "gtfs:stop_id": "203812", "highway": "bus_stop", "lit": "no", "name": "The Crescent opp Trafalgar St", "public_transport": "platform", "ref": "203812", "shelter": "yes", "tactile_paving": "yes"}}, {"type": "node", "id": 460417555, "lat": -33.8273363, "lon": 151.2019257, "tags": {"bench": "yes", "bin": "yes", "bus": "yes", "gtfs:stop_id": "206543", "highway": "bus_stop", "lit": "no", "name": "Alexander St after Falcon St", "network": "Transport Buses", "network:wikidata": "Q5001345", "public_transport": "platform", "ref": "206543", "shelter": "no", "source": "survey", "tactile_paving": "no"}}, {"type": "node", "id": 460417557, "lat": -33.8277486, "lon": 151.2017356, "tags": {"bench": "yes", "bin": "yes", "bus": "yes", "check_date:bin": "2023-01-15", "gtfs:stop_id": "206539", "highway": "bus_stop", "lit": "no", "name": "Falcon St at Alexander St", "network": "Transport Buses", "network:wikidata": "Q5001345", "public_transport": "platform", "ref": "206539", "shelter": "yes", "source": "survey", "tactile_paving": "no"}}, {"type": "node", "id": 460417572, "lat": -33.8288644, "lon": 151.1986135, "tags": {"bus": "yes", "highway": "bus_stop", "name": "River Rd at Shirley Rd", "network": "Transport Buses", "network:wikidata": "Q5001345", "public_transport": "platform", "ref": "2065117", "source": "survey"}}, {"type": "node", "id": 460417575, "lat": -33.8289761, "lon": 151.1984887, "tags": {"bus": "yes", "gtfs:stop_id": "2065116", "highway": "bus_stop", "name": "River Rd before Carlyle St", "network": "Transport Buses", "network:wikidata": "Q5001345", "public_transport": "platform", "ref": "2065116", "shelter": "no", "source": "survey", "wheelchair": "limited"}}, {"type": "node", "id": 460417580, "lat": -33.8298005, "lon": 151.1986553, "tags": {"bus": "yes", "highway": "bus_stop", "public_transport": "platform", "source": "survey"}}, {"type": "node", "id": 460417601, "lat": -33.8311654, "lon": 151.2013298, "tags": {"bench": "yes", "bin": "yes", "bus": "yes", "gtfs:stop_id": "2065103", "highway": "bus_stop", "lit": "no", "name": "Rocklands Rd opp Mater Private Hospital", "network": "Transport Buses", "network:wikidata": "Q5001345", "public_transport": "platform", "ref": "2065103", "shelter": "yes", "source": "survey", "tactile_paving": "no"}}, {"type": "node", "id": 460417603, "lat": -33.8309764, "lon": 151.2019215, "tags": {"bench": "no", "bin": "no", "bus": "yes", "gtfs:stop_id": "206591", "highway": "bus_stop", "lit": "no", "name": "Mater Hospital, Rocklands Rd", "network": "Transport Buses", "network:wikidata": "Q5001345", "public_transport": "platform", "ref": "206591", "shelter": "no", "source": "survey", "tactile_paving": "no"}}, {"type": "node", "id": 460417611, "lat": -33.8307667, "lon": 151.2028666, "tags": {"bench": "yes", "bin": "yes", "bus": "yes", "gtfs:stop_id": "2065133", "highway": "bus_stop", "lit": "no", "name": "Pacific Hwy opp North Sydney Girls High School", "network": "Transport Buses", "network:wikidata": "Q5001345", "public_transport": "platform", "ref": "2065133", "shelter": "yes", "source": "survey", "tactile_paving": "no"}}, {"type": "node", "id": 473487775, "lat": -33.8466455, "lon": 151.2127261, "tags": {"access": "no", "bus": "yes", "highway": "bus_stop", "name": "Milsons Point Station", "network": "Transport Buses", "network:wikidata": "Q5001345", "public_transport": "platform", "ref": "206113", "school_bus": "designated", "source": "survey"}}, {"type": "node", "id": 476140625, "lat": -33.8264717, "lon": 151.2065407, "tags": {"bench": "yes", "bin": "no", "bus": "yes", "gtfs:stop_id": "2065104", "highway": "bus_stop", "lit": "no", "name": "Ernest St at West St", "network": "Transport Buses", "network:wikidata": "Q5001345", "public_transport": "platform", "ref": "2065104", "shelter": "yes", "source": "survey", "tactile_paving": "no"}}, {"type": "node", "id": 476140628, "lat": -33.828176, "lon": 151.201213, "tags": {"alt_name": "Crows Nest Junction", "bench": "yes", "bin": "yes", "bus": "yes", "gtfs:stop_id": "2065137", "highway": "bus_stop", "lit": "no", "name": "Pacific Hwy after Falcon St", "network": "Transport Buses", "network:wikidata": "Q5001345", "public_transport": "platform", "ref": "2065137", "shelter": "no", "source": "survey", "tactile_paving": "no"}}, {"type": "node", "id": 476140630, "lat": -33.8282682, "lon": 151.2010456, "tags": {"bench": "no", "bin": "no", "bus": "yes", "gtfs:stop_id": "2065134", "highway": "bus_stop", "lit": "no", "name": "Pacific Hwy opp Alexander St", "network": "Transport Buses", "network:wikidata": "Q5001345", "public_transport": "platform", "ref": "2065134", "shelter": "no", "source": "survey", "tactile_paving": "no"}}, {"type": "node", "id": 476140633, "lat": -33.8310205, "lon": 151.2033152, "tags": {"bench": "yes", "bin": "yes", "bus": "yes", "gtfs:stop_id": "2065138", "highway": "bus_stop", "lit": "no", "name": "North Sydney Girls High School, Pacific Hwy", "network": "Transport Buses", "network:wikidata": "Q5001345", "public_transport": "platform", "ref": "2065138", "shelter": "yes", "source": "survey", "tactile_paving": "no"}}, {"type": "node", "id": 476179427, "lat": -33.8349275, "lon": 151.2155529, "tags": {"bus": "yes", "gtfs:stop_id": "208924", "highway": "bus_stop", "name": "Spruson St after Montpelier St", "network": "Transport Buses", "network:wikidata": "Q5001345", "public_transport": "platform", "ref": "208924", "shelter": "yes"}}, {"type": "node", "id": 476179429, "lat": -33.8349407, "lon": 151.2154149, "tags": {"bus": "yes", "gtfs:stop_id": "208920", "highway": "bus_stop", "name": "Spruson St before Montpelier St", "network": "Transport Buses", "network:wikidata": "Q5001345", "public_transport": "platform", "ref": "208920", "shelter": "yes", "source": "survey"}}, {"type": "node", "id": 476179435, "lat": -33.8352997, "lon": 151.2171904, "tags": {"bench": "yes", "bin": "no", "bus": "yes", "gtfs:stop_id": "208926", "highway": "bus_stop", "name": "Ben Boyd Rd at Premier St", "network": "Transport Buses", "network:wikidata": "Q5001345", "public_transport": "platform", "ref": "208926", "shelter": "no", "source": "survey"}}, {"type": "node", "id": 476179437, "lat": -33.8354497, "lon": 151.217173, "tags": {"bus": "yes", "gtfs:stop_id": "208918", "highway": "bus_stop", "name": "Ben Boyd Rd opp Premier St", "network": "Transport Buses", "network:wikidata": "Q5001345", "public_transport": "platform", "ref": "208918", "shelter": "no", "source": "survey"}}, {"type": "node", "id": 476179438, "lat": -33.8357722, "lon": 151.2147591, "tags": {"bus": "yes", "gtfs:stop_id": "208921", "highway": "bus_stop", "name": "Montpelier St before Rawson St", "network": "Transport Buses", "network:wikidata": "Q5001345", "public_transport": "platform", "ref": "208921", "shelter": "yes", "source": "survey"}}, {"type": "node", "id": 476179441, "lat": -33.8359344, "lon": 151.2142798, "tags": {"bus": "yes", "gtfs:stop_id": "208923", "highway": "bus_stop", "name": "Rawson St at Eaton St", "network": "Transport Buses", "network:wikidata": "Q5001345", "public_transport": "platform", "ref": "208923", "shelter": "yes", "source": "survey"}}, {"type": "node", "id": 476253331, "lat": -33.8383336, "lon": 151.2138373, "tags": {"bus": "yes", "gtfs:stop_id": "208922", "highway": "bus_stop", "name": "Rawson St at Kurraba Rd", "network": "Transport Buses", "network:wikidata": "Q5001345", "public_transport": "platform", "ref": "208922", "shelter": "yes", "source": "survey"}}, {"type": "node", "id": 476253343, "lat": -33.8386469, "lon": 151.213797, "tags": {"bus": "yes", "gtfs:stop_id": "206070", "highway": "bus_stop", "name": "Clark Rd at Kurraba Rd", "network": "Transport Buses", "network:wikidata": "Q5001345", "public_transport": "platform", "ref": "206070", "shelter": "yes", "source": "survey"}}, {"type": "node", "id": 476253348, "lat": -33.8422758, "lon": 151.2145359, "tags": {"bus": "yes", "gtfs:stop_id": "206069", "highway": "bus_stop", "name": "Clark Rd after Adderstone Av", "network": "Transport Buses", "network:wikidata": "Q5001345", "public_transport": "platform", "ref": "206069", "shelter": "no", "source": "survey"}}, {"type": "node", "id": 476253367, "lat": -33.8490457, "lon": 151.2183758, "tags": {"bus": "yes", "gtfs:stop_id": "206117", "highway": "bus_stop", "name": "Carabella St at Peel St", "network": "Transport Buses", "network:wikidata": "Q5001345", "public_transport": "platform", "ref": "206117", "source": "survey"}}, {"type": "node", "id": 476253373, "lat": -33.8508875, "lon": 151.2179264, "tags": {"bus": "yes", "gtfs:stop_id": "206118", "highway": "bus_stop", "name": "Admiralty House, Kirribilli Av", "network": "Transport Buses", "network:wikidata": "Q5001345", "public_transport": "platform", "ref": "206118", "source": "survey"}}, {"type": "node", "id": 476253378, "lat": -33.8493931, "lon": 151.2150637, "tags": {"bus": "yes", "gtfs:stop_id": "206119", "highway": "bus_stop", "name": "Kirribilli Av opp Jeffrey St", "network": "Transport Buses", "network:wikidata": "Q5001345", "public_transport": "platform", "ref": "206119", "source": "survey"}}, {"type": "node", "id": 476253379, "lat": -33.8481157, "lon": 151.2131745, "tags": {"bench": "no", "bus": "yes", "gtfs:stop_id": "206125", "highway": "bus_stop", "name": "Broughton St at Pitt St", "network": "Transport Buses", "network:wikidata": "Q5001345", "public_transport": "platform", "ref": "206125", "shelter": "no", "source": "survey"}}, {"type": "node", "id": 476253380, "lat": -33.8477091, "lon": 151.2129453, "tags": {"access": "no", "bench": "no", "bin": "no", "bus": "yes", "highway": "bus_stop", "name": "Broughton Street at Fitzroy Street", "network": "Transport Buses", "network:wikidata": "Q5001345", "public_transport": "platform", "ref": "206124", "school_bus": "designated", "shelter": "no", "source": "survey", "tactile_paving": "no"}}, {"type": "node", "id": 478467822, "lat": -33.8381893, "lon": 151.2070996, "tags": {"bench": "yes", "bus": "yes", "description": "Milsons Point Services", "gtfs:stop_id": "206085", "highway": "bus_stop", "local_ref": "F", "name": "Victoria Cross Station, Miller St, Stand F", "network": "Transport Buses", "network:wikidata": "Q5001345", "public_transport": "platform", "ref": "206085", "shelter": "yes", "source": "survey", "survey:date": "2022-02-05", "tactile_paving": "yes"}}, {"type": "node", "id": 501794772, "lat": -33.893525, "lon": 151.1833378, "tags": {"bench": "yes", "bin": "yes", "bus": "yes", "check_date": "2024-10-11", "check_date:lit": "2024-10-11", "covered": "yes", "gtfs:stop_id": "204218", "highway": "bus_stop", "lit": "no", "name": "King St at Missenden Rd", "network": "Transport Buses", "network:wikidata": "Q5001345", "note": "352;370;422;423;426;428;L23;L28;M30", "public_transport": "platform", "ref": "204218", "shelter": "no", "source": "survey", "tactile_paving": "yes", "wheelchair": "yes"}}, {"type": "node", "id": 501795518, "lat": -33.893865, "lon": 151.183212, "tags": {"bench": "yes", "bin": "yes", "bus": "yes", "check_date": "2024-10-11", "check_date:bin": "2024-10-11", "check_date:lit": "2024-10-11", "check_date:tactile_paving": "2024-10-11", "covered": "yes", "gtfs:stop_id": "204222", "highway": "bus_stop", "lit": "no", "name": "King St opp Missenden Rd", "network": "Transport Buses", "network:wikidata": "Q5001345", "note": "352;370;422;423;426;428;L23;L28;M30", "public_transport": "platform", "ref": "204222", "shelter": "no", "source": "survey", "tactile_paving": "no"}}, {"type": "node", "id": 506136793, "lat": -33.8317295, "lon": 151.1957126, "tags": {"bench": "yes", "bin": "no", "bus": "yes", "gtfs:stop_id": "206593", "highway": "bus_stop", "lit": "no", "name": "Shirley Rd at Belmont Lane", "network": "Transport Buses", "network:wikidata": "Q5001345", "public_transport": "platform", "ref": "206593", "shelter": "no", "source": "survey", "tactile_paving": "no"}}, {"type": "node", "id": 506136794, "lat": -33.830672, "lon": 151.1977431, "tags": {"bench": "yes", "bus": "yes", "gtfs:stop_id": "206596", "highway": "bus_stop", "name": "Milner Cr at Shirley Rd", "network": "Transport Buses", "network:wikidata": "Q5001345", "public_transport": "platform", "ref": "206596", "shelter": "yes", "source": "survey"}}, {"type": "node", "id": 506136796, "lat": -33.8279048, "lon": 151.2003089, "tags": {"bench": "yes", "bin": "no", "bus": "yes", "gtfs:stop_id": "2065115", "highway": "bus_stop", "lit": "yes", "name": "Shirley St at Pacific Hwy", "network": "Transport Buses", "network:wikidata": "Q5001345", "public_transport": "platform", "ref": "2065115", "shelter": "yes", "source": "survey", "tactile_paving": "no"}}, {"type": "node", "id": 512739555, "lat": -33.8307066, "lon": 151.2257115, "tags": {"bench": "yes", "bin": "no", "bus": "yes", "departures_board": "timetable", "gtfs:stop_id": "209019", "highway": "bus_stop", "lit": "yes", "name": "Military Rd before Hampden Av", "network": "Transport Buses", "network:wikidata": "Q5001345", "public_transport": "platform", "ref": "209019", "shelter": "yes", "tactile_paving": "no", "wheelchair": "yes"}}, {"type": "node", "id": 512739556, "lat": -33.8321666, "lon": 151.2192377, "tags": {"amenity": "bench", "bus": "yes", "gtfs:stop_id": "208916", "highway": "bus_stop", "name": "Ben Boyd Rd at Yeo St", "network": "Transport Buses", "network:wikidata": "Q5001345", "public_transport": "platform", "ref": "208916", "shelter": "yes", "source": "nearmap"}}, {"type": "node", "id": 512739557, "lat": -33.8344672, "lon": 151.2188235, "tags": {"amenity": "bench", "bus": "yes", "gtfs:stop_id": "208917", "highway": "bus_stop", "name": "Ben Boyd Rd before Undercliff St", "network": "Transport Buses", "network:wikidata": "Q5001345", "public_transport": "platform", "ref": "208917", "shelter": "yes"}}, {"type": "node", "id": 514097719, "lat": -33.8381856, "lon": 151.2217888, "tags": {"amenity": "bench", "bus": "yes", "highway": "bus_stop", "public_transport": "platform", "shelter": "yes"}}, {"type": "node", "id": 514097720, "lat": -33.8366804, "lon": 151.2216008, "tags": {"bench": "yes", "bus": "yes", "gtfs:stop_id": "208939", "highway": "bus_stop", "name": "Wycombe Rd at Raymond Rd", "network": "Transport Buses", "network:wikidata": "Q5001345", "public_transport": "platform", "ref": "208939"}}, {"type": "node", "id": 514097721, "lat": -33.8344388, "lon": 151.2217436, "tags": {"bus": "yes", "gtfs:stop_id": "208940", "highway": "bus_stop", "name": "Wycombe Rd opp Bennett St", "network": "Transport Buses", "network:wikidata": "Q5001345", "public_transport": "platform", "ref": "208940"}}, {"type": "node", "id": 514097722, "lat": -33.8319685, "lon": 151.2222394, "tags": {"bench": "yes", "bin": "yes", "bus": "yes", "gtfs:stop_id": "208929", "highway": "bus_stop", "lit": "no", "name": "Wycombe Rd before Military Rd", "network": "Transport Buses", "network:wikidata": "Q5001345", "public_transport": "platform", "ref": "208929", "shelter": "no", "tactile_paving": "no"}}, {"type": "node", "id": 514097724, "lat": -33.8264131, "lon": 151.2322676, "tags": {"bench": "yes", "bin": "no", "bus": "yes", "departures_board": "timetable", "gtfs:stop_id": "2088176", "highway": "bus_stop", "name": "Military Rd at Prince St", "network": "Transport Buses", "network:wikidata": "Q5001345", "public_transport": "platform", "ref": "2088176", "shelter": "yes", "tactile_paving": "yes"}}, {"type": "node", "id": 514332898, "lat": -33.8270172, "lon": 151.2002217, "tags": {"bench": "yes", "bin": "yes", "bus": "yes", "gtfs:stop_id": "2065132", "highway": "bus_stop", "lit": "no", "name": "Pacific Hwy before Falcon St", "network": "Transport Buses", "network:wikidata": "Q5001345", "public_transport": "platform", "ref": "2065132", "shelter": "no", "tactile_paving": "no"}}, {"type": "node", "id": 514332900, "lat": -33.8284047, "lon": 151.2061369, "tags": {"bench": "yes", "bin": "no", "bus": "yes", "gtfs:stop_id": "2065110", "highway": "bus_stop", "lit": "no", "name": "Falcon St at West St", "network": "Transport Buses", "network:wikidata": "Q5001345", "public_transport": "platform", "ref": "2065110", "shelter": "no", "source": "survey", "tactile_paving": "no"}}, {"type": "node", "id": 514332901, "lat": -33.8311937, "lon": 151.2217223, "tags": {"bench": "yes", "bin": "no", "bus": "yes", "departures_board": "realtime", "gtfs:stop_id": "208948", "highway": "bus_stop", "lit": "yes", "name": "Neutral Bay Junction, Military Rd, Stand E", "network": "Transport Buses", "network:wikidata": "Q5001345", "public_transport": "platform", "ref": "208948", "shelter": "yes", "tactile_paving": "yes", "wheelchair": "yes"}}, {"type": "node", "id": 515523445, "lat": -33.8302153, "lon": 151.2180248, "tags": {"bench": "yes", "bin": "no", "bus": "yes", "gtfs:stop_id": "208912", "highway": "bus_stop", "local_ref": "A", "name": "Watson Street Interchange, Stand A", "network": "Transport Buses", "network:wikidata": "Q5001345", "public_transport": "platform", "ref": "208912", "shelter": "yes", "wheelchair": "yes"}}, {"type": "node", "id": 515929933, "lat": -33.8851518, "lon": 151.184839, "tags": {"bench": "yes", "bin": "no", "bus": "yes", "check_date:bench": "2021-10-17", "covered": "no", "gtfs:stop_id": "205021", "highway": "bus_stop", "lit": "yes", "name": "University of Sydney Ross St Gate, Parramatta Rd", "network": "Transport Buses", "network:wikidata": "Q5001345", "note": "412;413;436;438;439;440;461;480;483", "public_transport": "platform", "ref": "205021", "shelter": "yes", "source": "survey", "tactile_paving": "yes", "waste_basket": "no"}}, {"type": "node", "id": 515929938, "lat": -33.8849001, "lon": 151.1851249, "tags": {"bench": "yes", "bin": "yes", "bus": "yes", "check_date:bench": "2021-10-26", "covered": "no", "gtfs:stop_id": "203768", "highway": "bus_stop", "lit": "yes", "name": "Parramatta Rd opp University of Sydney Ross St Gate", "network": "Transport Buses", "network:wikidata": "Q5001345", "note": "412;413;436;438;439;440;461;480;483", "public_transport": "platform", "ref": "203768", "shelter": "yes", "source": "survey", "tactile_paving": "yes", "waste_basket": "yes"}}, {"type": "node", "id": 515978469, "lat": -33.8860843, "lon": 151.180114, "tags": {"bench": "yes", "bin": "yes", "bus": "yes", "gtfs:stop_id": "205023", "highway": "bus_stop", "lit": "yes", "name": "Parramatta Rd at Missenden Rd", "network": "Transport Buses", "network:wikidata": "Q5001345", "public_transport": "platform", "ref": "205023", "shelter": "no;yes", "tactile_paving": "no", "waste_basket": "yes"}}, {"type": "node", "id": 515978470, "lat": -33.8856362, "lon": 151.1811744, "tags": {"bench": "yes", "bin": "no", "bus": "yes", "check_date:shelter": "2025-06-07", "gtfs:stop_id": "205017", "highway": "bus_stop", "lit": "no", "name": "Parramatta Rd at Larkin St", "network": "Transport Buses", "network:wikidata": "Q5001345", "public_transport": "platform", "ref": "205017", "shelter": "yes", "tactile_paving": "yes"}}, {"type": "node", "id": 518296761, "lat": -33.8877403, "lon": 151.1711277, "tags": {"bench": "yes", "bin": "yes", "bus": "yes", "gtfs:stop_id": "204823", "highway": "bus_stop", "lit": "no", "name": "Parramatta Rd opp Annandale Hotel", "network": "Transport Buses", "network:wikidata": "Q5001345", "public_transport": "platform", "ref": "204823", "shelter": "no", "tactile_paving": "yes", "waste_basket": "no"}}, {"type": "node", "id": 518300351, "lat": -33.8880959, "lon": 151.1668339, "tags": {"bench": "yes", "bin": "no", "bus": "yes", "check_date:bench": "2025-10-08", "covered": "no", "departures_board": "timetable", "gtfs:stop_id": "204812", "highway": "bus_stop", "lit": "no", "name": "Parramatta Rd after Northumberland Av", "network": "Transport Buses", "network:wikidata": "Q5001345", "public_transport": "platform", "ref": "204812", "shelter": "yes", "tactile_paving": "yes", "waste_basket": "no"}}, {"type": "node", "id": 518303133, "lat": -33.8883272, "lon": 151.1639942, "tags": {"bench": "yes", "bin": "yes", "bus": "yes", "covered": "yes", "departures_board": "timetable", "gtfs:stop_id": "204813", "highway": "bus_stop", "lit": "yes", "name": "Parramatta Rd after Percival Rd", "network": "Transport Buses", "network:wikidata": "Q5001345", "public_transport": "platform", "ref": "204813", "shelter": "yes", "tactile_paving": "yes", "waste_basket": "no"}}, {"type": "node", "id": 574163140, "lat": -33.9211021, "lon": 151.2268871, "tags": {"bench": "yes", "bin": "yes", "bus": "yes", "gtfs:stop_id": "203274", "highway": "bus_stop", "name": "Anzac Pde at Middle St", "network": "Transport Buses", "network:wikidata": "Q5001345", "note": "390X;391;392;393;394;395;396;397;399", "public_transport": "platform", "ref": "203274", "shelter": "no", "source": "survey", "tactile_paving": "yes"}}, {"type": "node", "id": 581391830, "lat": -33.9209396, "lon": 151.2265776, "tags": {"bench": "yes", "bin": "no", "bus": "yes", "gtfs:stop_id": "203215", "highway": "bus_stop", "lit": "yes", "name": "Anzac Pde after Strachan St", "network": "Transport Buses", "network:wikidata": "Q5001345", "note": "400;400N", "public_transport": "platform", "ref": "203215", "shelter": "yes", "tactile_paving": "yes"}}, {"type": "node", "id": 583449720, "lat": -33.8316491, "lon": 151.2229105, "tags": {"bench": "yes", "bin": "no", "bus": "yes", "departures_board": "timetable", "description": "154X; 228; 229; 230", "gtfs:stop_id": "208913", "highway": "bus_stop", "lit": "yes", "local_ref": "B", "name": "Neutral Bay Junction, Military Rd, Stand B", "network": "Transport Buses", "network:wikidata": "Q5001345", "public_transport": "platform", "ref": "208913", "shelter": "yes", "tactile_paving": "yes", "wheelchair": "yes"}}, {"type": "node", "id": 584145535, "lat": -33.8316445, "lon": 151.1926254, "tags": {"bench": "yes", "bin": "no", "bus": "yes", "gtfs:stop_id": "206511", "highway": "bus_stop", "lit": "no", "name": "Wollstonecraft Station, Milner Cres", "network": "Transport Buses", "network:wikidata": "Q5001345", "public_transport": "platform", "ref": "206511", "shelter": "yes", "source": "local_knowledge;nearmap", "tactile_paving": "no"}}, {"type": "node", "id": 588035860, "lat": -33.8920041, "lon": 151.1986714}, {"type": "node", "id": 588035863, "lat": -33.8921861, "lon": 151.1984301}, {"type": "node", "id": 588035867, "lat": -33.8923753, "lon": 151.1981578}, {"type": "node", "id": 588035869, "lat": -33.8925539, "lon": 151.1978647}, {"type": "node", "id": 588035873, "lat": -33.8926845, "lon": 151.1976166}, {"type": "node", "id": 588035880, "lat": -33.8917559, "lon": 151.198754}, {"type": "node", "id": 588035881, "lat": -33.8920919, "lon": 151.1982888}, {"type": "node", "id": 588035883, "lat": -33.8922814, "lon": 151.1980072}, {"type": "node", "id": 588035886, "lat": -33.8923704, "lon": 151.1978707}, {"type": "node", "id": 588035892, "lat": -33.8925112, "lon": 151.1976513}, {"type": "node", "id": 588035894, "lat": -33.8926576, "lon": 151.1974151}, {"type": "node", "id": 588035904, "lat": -33.8925834, "lon": 151.1973098}, {"type": "node", "id": 588035909, "lat": -33.8919507, "lon": 151.1982574}, {"type": "node", "id": 588035913, "lat": -33.8917069, "lon": 151.1986202}, {"type": "node", "id": 588035922, "lat": -33.8922807, "lon": 151.197583}, {"type": "node", "id": 588035925, "lat": -33.8925194, "lon": 151.1971838}, {"type": "node", "id": 588035933, "lat": -33.8925165, "lon": 151.1984634}, {"type": "node", "id": 588035951, "lat": -33.8920846, "lon": 151.1990701}, {"type": "node", "id": 588035952, "lat": -33.8919601, "lon": 151.1992042}, {"type": "node", "id": 588035956, "lat": -33.8917776, "lon": 151.1993862}, {"type": "node", "id": 588036017, "lat": -33.8927332, "lon": 151.1978026}, {"type": "node", "id": 588036018, "lat": -33.8924766, "lon": 151.1982815}, {"type": "node", "id": 588036020, "lat": -33.892312, "lon": 151.1985303}, {"type": "node", "id": 588036027, "lat": -33.8920247, "lon": 151.1988904}, {"type": "node", "id": 588036029, "lat": -33.8917526, "lon": 151.1991939}, {"type": "node", "id": 597612668, "lat": -33.8359987, "lon": 151.1987271, "tags": {"bench": "yes", "bin": "no", "bus": "yes", "gtfs:stop_id": "206051", "highway": "bus_stop", "lit": "no", "name": "Carr St at Crows Nest Rd", "network": "Transport Buses", "network:wikidata": "Q5001345", "public_transport": "platform", "ref": "206051", "shelter": "no", "source": "survey", "tactile_paving": "no"}}, {"type": "node", "id": 597612680, "lat": -33.8338235, "lon": 151.1974716, "tags": {"bench": "yes", "bin": "no", "bus": "yes", "gtfs:stop_id": "2065101", "highway": "bus_stop", "lit": "no", "name": "Ivy St before Rocklands Rd", "network": "Transport Buses", "network:wikidata": "Q5001345", "public_transport": "platform", "ref": "2065101", "shelter": "no", "source": "survey", "tactile_paving": "no"}}, {"type": "node", "id": 597612684, "lat": -33.8347558, "lon": 151.1991447, "tags": {"bench": "yes", "bus": "yes", "gtfs:stop_id": "206599", "highway": "bus_stop", "name": "King St at King Lane", "network": "Transport Buses", "network:wikidata": "Q5001345", "public_transport": "platform", "ref": "206599", "source": "survey"}}, {"type": "node", "id": 597612686, "lat": -33.8341557, "lon": 151.1992804, "tags": {"bench": "yes", "bus": "yes", "gtfs:stop_id": "2065100", "highway": "bus_stop", "name": "Brennan Park, King St", "network": "Transport Buses", "network:wikidata": "Q5001345", "public_transport": "platform", "ref": "2065100", "shelter": "yes", "source": "survey"}}, {"type": "node", "id": 597612689, "lat": -33.8336644, "lon": 151.1974658, "tags": {"bench": "no", "bin": "no", "bus": "yes", "gtfs:stop_id": "206597", "highway": "bus_stop", "name": "Ivy St at Rocklands Rd", "network": "Transport Buses", "network:wikidata": "Q5001345", "public_transport": "platform", "ref": "206597", "shelter": "no", "source": "survey"}}, {"type": "node", "id": 597612691, "lat": -33.8336196, "lon": 151.1990317, "tags": {"bus": "yes", "gtfs:stop_id": "206598", "highway": "bus_stop", "name": "Hazelbank Rd opp Brennan Park", "network": "Transport Buses", "network:wikidata": "Q5001345", "public_transport": "platform", "ref": "206598", "source": "survey"}}, {"type": "node", "id": 600645144, "lat": -33.867492, "lon": 151.191978, "tags": {"light_rail": "yes", "local_ref": "2", "name": "John Street Square", "public_transport": "stop_position", "railway": "stop", "ref": "200940", "side": "left", "wheelchair": "yes"}}, {"type": "node", "id": 600861991, "lat": -33.9271663, "lon": 151.2288489, "tags": {"bench": "yes", "bin": "no", "bus": "yes", "gtfs:stop_id": "203221", "highway": "bus_stop", "lit": "yes", "name": "Bunnerong Rd at Anderson St", "network": "Transport Buses", "network:wikidata": "Q5001345", "public_transport": "platform", "ref": "203221", "shelter": "yes", "tactile_paving": "no"}}, {"type": "node", "id": 600861992, "lat": -33.9270494, "lon": 151.2286277, "tags": {"bench": "yes", "bin": "no", "bus": "yes", "gtfs:stop_id": "203212", "highway": "bus_stop", "name": "Bunnerong Rd at Sergeant Larkin Cres", "network": "Transport Buses", "network:wikidata": "Q5001345", "public_transport": "platform", "ref": "203212", "shelter": "yes", "tactile_paving": "no"}}, {"type": "node", "id": 600861995, "lat": -33.9251411, "lon": 151.2272572, "tags": {"bench": "yes", "bin": "yes", "bus": "yes", "gtfs:stop_id": "203228", "highway": "bus_stop", "name": "Dacey Gardens, Gardeners Rd", "network": "Transport Buses", "network:wikidata": "Q5001345", "public_transport": "platform", "ref": "203228", "shelter": "yes", "source": "survey", "source:name": "sign at stop", "tactile_paving": "no"}}, {"type": "node", "id": 603486864, "lat": -33.9150359, "lon": 151.1662414}, {"type": "node", "id": 603486865, "lat": -33.9149651, "lon": 151.1663556}, {"type": "node", "id": 603486878, "lat": -33.9147434, "lon": 151.1658426}, {"type": "node", "id": 603486901, "lat": -33.9142205, "lon": 151.1668408}, {"type": "node", "id": 603486912, "lat": -33.9139774, "lon": 151.1671651}, {"type": "node", "id": 603486913, "lat": -33.9139989, "lon": 151.1671853}, {"type": "node", "id": 603486914, "lat": -33.9137977, "lon": 151.1672674}, {"type": "node", "id": 603486915, "lat": -33.9138629, "lon": 151.1673281}, {"type": "node", "id": 622311174, "lat": -33.889165, "lon": 151.1452448, "tags": {"light_rail": "yes", "local_ref": "1", "name": "Taverners Hill", "public_transport": "stop_position", "railway": "stop", "ref": "2040107", "side": "left"}}, {"type": "node", "id": 622311193, "lat": -33.8749768, "lon": 151.1539474, "tags": {"light_rail": "yes", "local_ref": "1", "name": "Leichhardt North", "public_transport": "stop_position", "railway": "stop", "ref": "2040113", "side": "left"}}, {"type": "node", "id": 622311210, "lat": -33.8797048, "lon": 151.1471595, "tags": {"light_rail": "yes", "local_ref": "1", "name": "Hawthorne", "public_transport": "stop_position", "railway": "stop", "ref": "2040111", "side": "left"}}, {"type": "node", "id": 648896022, "lat": -33.8700859, "lon": 151.2117275}, {"type": "node", "id": 648896024, "lat": -33.8716719, "lon": 151.2114986}, {"type": "node", "id": 648910704, "lat": -33.8701433, "lon": 151.2118978}, {"type": "node", "id": 649584227, "lat": -33.8767475, "lon": 151.2094686}, {"type": "node", "id": 649584233, "lat": -33.8768044, "lon": 151.2096259}, {"type": "node", "id": 649584236, "lat": -33.8751088, "lon": 151.2105239}, {"type": "node", "id": 649611581, "lat": -33.8701275, "lon": 151.2121444}, {"type": "node", "id": 649611595, "lat": -33.8717134, "lon": 151.2119151}, {"type": "node", "id": 651229942, "lat": -33.8716692, "lon": 151.2116861}, {"type": "node", "id": 651270230, "lat": -33.8613187, "lon": 151.2115671}, {"type": "node", "id": 651270232, "lat": -33.8611546, "lon": 151.2097654}, {"type": "node", "id": 651270233, "lat": -33.8613807, "lon": 151.2097357}, {"type": "node", "id": 651270234, "lat": -33.861544, "lon": 151.2115375}, {"type": "node", "id": 651949908, "lat": -33.8743197, "lon": 151.2066167}, {"type": "node", "id": 651949910, "lat": -33.8743443, "lon": 151.2069003}, {"type": "node", "id": 651949912, "lat": -33.8728286, "lon": 151.2070914}, {"type": "node", "id": 651949914, "lat": -33.872804, "lon": 151.2068078}, {"type": "node", "id": 652403657, "lat": -33.8696719, "lon": 151.2115539, "tags": {"check_date:wheelchair": "2023-07-24", "name": "St James", "opening_hours": "Mo-Fr 04:00-21:45", "railway": "subway_entrance", "wheelchair": "no"}}, {"type": "node", "id": 652403709, "lat": -33.8742192, "lon": 151.2066788, "tags": {"level": "0", "name": "Town Hall", "railway": "subway_entrance", "ref": "4", "source:location": "nearmap", "wheelchair": "no"}}, {"type": "node", "id": 652403729, "lat": -33.8739469, "lon": 151.2070314, "tags": {"door": "yes", "entrance": "yes", "indoor": "yes", "layer": "0", "level": "0", "name": "Town Hall", "railway": "subway_entrance", "ref": "2", "wheelchair": "yes"}}, {"type": "node", "id": 663128122, "lat": -33.8419244, "lon": 151.2189127, "tags": {"bus": "yes", "departures_board": "timetable", "gtfs:stop_id": "208935", "highway": "bus_stop", "name": "Neutral Bay Wharf, Hayes St", "name:en": "Neutral Bay Wharf (225)", "network": "Transport Buses", "network:wikidata": "Q5001345", "public_transport": "platform", "ref": "208935", "shelter": "yes", "source": "nearmap;knowledge"}}, {"type": "node", "id": 706018737, "lat": -33.9333409, "lon": 151.2303668, "tags": {"bench": "yes", "bin": "yes", "bus": "yes", "gtfs:stop_id": "203225", "highway": "bus_stop", "lit": "yes", "name": "Bunnerong Rd opp Birdwood Av", "network": "Transport Buses", "network:wikidata": "Q5001345", "public_transport": "platform", "ref": "203225", "shelter": "yes", "source": "nearmap", "tactile_paving": "no"}}, {"type": "node", "id": 706018750, "lat": -33.9323785, "lon": 151.2299387, "tags": {"bench": "yes", "bin": "no", "bus": "yes", "gtfs:stop_id": "203520", "highway": "bus_stop", "name": "Bunerong Rd at Prince Edward Cir", "network": "Transport Buses", "network:wikidata": "Q5001345", "public_transport": "platform", "ref": "203520", "shelter": "yes", "source": "nearmap", "tactile_paving": "no"}}, {"type": "node", "id": 706018757, "lat": -33.9314949, "lon": 151.2298518, "tags": {"bench": "yes", "bin": "no", "bus": "yes", "gtfs:stop_id": "203224", "highway": "bus_stop", "lit": "yes", "name": "Bunnerong Rd opp Rowland Park", "network": "Transport Buses", "network:wikidata": "Q5001345", "public_transport": "platform", "ref": "203224", "shelter": "yes", "source": "nearmap", "tactile_paving": "no"}}, {"type": "node", "id": 706018764, "lat": -33.9284571, "lon": 151.2292094, "tags": {"bench": "yes", "bin": "no", "bus": "yes", "gtfs:stop_id": "203222", "highway": "bus_stop", "lit": "yes", "name": "Bunnerong Rd at Apsley Av", "network": "Transport Buses", "network:wikidata": "Q5001345", "public_transport": "platform", "ref": "203222", "shelter": "yes", "source": "nearmap", "tactile_paving": "no"}}, {"type": "node", "id": 706018773, "lat": -33.9290248, "lon": 151.2291883, "tags": {"bench": "yes", "bin": "no", "bus": "yes", "gtfs:stop_id": "203211", "highway": "bus_stop", "name": "Daceyville Public School, Bunnerong Rd", "network": "Transport Buses", "network:wikidata": "Q5001345", "public_transport": "platform", "ref": "203211", "shelter": "yes", "source": "nearmap"}}, {"type": "node", "id": 741839598, "lat": -33.8284843, "lon": 151.2301967, "tags": {"bench": "yes", "bin": "no", "bus": "yes", "gtfs:stop_id": "209057", "highway": "bus_stop", "lit": "no", "name": "Spofforth St at Military Rd", "network": "Transport Buses", "network:wikidata": "Q5001345", "public_transport": "platform", "ref": "209057", "shelter": "no", "tactile_paving": "yes"}}, {"type": "node", "id": 758597592, "lat": -33.8842929, "lon": 151.1497642, "tags": {"bench": "yes", "bin": "yes", "bus": "yes", "covered": "yes", "gtfs:stop_id": "204034", "highway": "bus_stop", "lit": "no", "name": "MarketPlace Leichhardt, Marion St", "network": "Transport Buses", "network:wikidata": "Q5001345", "public_transport": "platform", "ref": "204034", "tactile_paving": "yes"}}, {"type": "node", "id": 758597596, "lat": -33.8841602, "lon": 151.1496925, "tags": {"bench": "yes", "bin": "no", "bus": "yes", "gtfs:stop_id": "204081", "highway": "bus_stop", "lit": "no", "name": "Marion St opp MarketPlace Leichhardt", "network": "Transport Buses", "network:wikidata": "Q5001345", "public_transport": "platform", "ref": "204081", "shelter": "yes", "tactile_paving": "no"}}, {"type": "node", "id": 758597598, "lat": -33.8840101, "lon": 151.1501017, "tags": {"bench": "yes", "bin": "no", "bus": "yes", "gtfs:stop_id": "204033", "highway": "bus_stop", "lit": "no", "name": "Flood St at Marion St", "network": "Transport Buses", "network:wikidata": "Q5001345", "public_transport": "platform", "ref": "204033", "shelter": "no", "tactile_paving": "yes"}}, {"type": "node", "id": 758597601, "lat": -33.8839323, "lon": 151.1499451, "tags": {"bench": "yes", "bin": "yes", "bus": "yes", "gtfs:stop_id": "204041", "highway": "bus_stop", "lit": "no", "name": "Flood St at Marion St", "network": "Transport Buses", "network:wikidata": "Q5001345", "public_transport": "platform", "ref": "204041", "shelter": "yes", "tactile_paving": "yes"}}, {"type": "node", "id": 772506363, "lat": -33.910386, "lon": 151.202182, "tags": {"bench": "yes", "bin": "no", "bus": "yes", "gtfs:stop_id": "201523", "highway": "bus_stop", "lit": "yes", "name": "Botany Rd opp Epsom Rd", "network": "Transport Buses", "network:wikidata": "Q5001345", "public_transport": "platform", "ref": "201523", "shelter": "yes", "tactile_paving": "yes"}}, {"type": "node", "id": 772506580, "lat": -33.9082294, "lon": 151.2027525, "tags": {"bench": "yes", "bin": "no", "bus": "yes", "covered": "no", "gtfs:stop_id": "201512", "highway": "bus_stop", "lit": "yes", "name": "Botany Rd after Johnson St", "network": "Transport Buses", "network:wikidata": "Q5001345", "public_transport": "platform", "ref": "201512", "shelter": "yes", "tactile_paving": "yes"}}, {"type": "node", "id": 772506583, "lat": -33.9129353, "lon": 151.201314, "tags": {"bench": "yes", "bin": "yes", "bus": "yes", "covered": "yes", "gtfs:stop_id": "201522", "highway": "bus_stop", "lit": "yes", "name": "Botany Rd before Collins St", "network": "Transport Buses", "network:wikidata": "Q5001345", "public_transport": "platform", "ref": "201522", "shelter": "yes", "tactile_paving": "yes"}}, {"type": "node", "id": 772506602, "lat": -33.8971443, "lon": 151.1993811, "tags": {"bench": "yes", "bin": "yes", "bus": "yes", "gtfs:stop_id": "201529", "highway": "bus_stop", "lit": "yes", "name": "Waterloo Station, Botany Rd, Stand A", "network": "Transport Buses", "network:wikidata": "Q5001345", "public_transport": "platform", "ref": "201529", "shelter": "yes", "tactile_paving": "yes"}}, {"type": "node", "id": 773005465, "lat": -33.8374639, "lon": 151.2168629, "tags": {"bus": "yes", "gtfs:stop_id": "208925", "highway": "bus_stop", "name": "Phillips St at Ben Boyd Rd", "network": "Transport Buses", "network:wikidata": "Q5001345", "public_transport": "platform", "ref": "208925", "source": "local_knowledge"}}, {"type": "node", "id": 783764507, "lat": -33.9148868, "lon": 151.2006658, "tags": {"bench": "yes", "bin": "yes", "bus": "yes", "gtfs:stop_id": "201521", "highway": "bus_stop", "lit": "yes", "name": "Botany Rd at Beaconsfield St", "network": "Transport Buses", "network:wikidata": "Q5001345", "public_transport": "platform", "ref": "201521", "shelter": "yes", "tactile_paving": "no"}}, {"type": "node", "id": 816247158, "lat": -33.9005097, "lon": 151.1890831, "tags": {"bus": "yes", "gtfs:stop_id": "204318", "highway": "bus_stop", "name": "Harry Noble Reserve, Swanson St", "network": "Transport Buses", "network:wikidata": "Q5001345", "public_transport": "platform", "ref": "204318"}}, {"type": "node", "id": 816247159, "lat": -33.8997352, "lon": 151.1847398, "tags": {"bench": "yes", "bin": "yes", "bus": "yes", "gtfs:stop_id": "204313", "highway": "bus_stop", "lit": "no", "name": "Erskineville Rd at Charles St", "network": "Transport Buses", "network:wikidata": "Q5001345", "note": "355", "public_transport": "platform", "ref": "204313", "shelter": "yes", "source": "survey", "tactile_paving": "yes"}}, {"type": "node", "id": 816247618, "lat": -33.8997231, "lon": 151.1839914, "tags": {"bench": "yes", "bus": "yes", "gtfs:stop_id": "204320", "highway": "bus_stop", "name": "Erskineville Rd at Prospect St", "network": "Transport Buses", "network:wikidata": "Q5001345", "note": "355", "public_transport": "platform", "ref": "204320", "shelter": "yes", "source": "survey"}}, {"type": "node", "id": 840190588, "lat": -33.9243914, "lon": 151.2106884, "tags": {"bus": "yes", "gtfs:stop_id": "201879", "highway": "bus_stop", "name": "Evans Av opp Eastlakes Shopping Centre", "network": "Transport Buses", "network:wikidata": "Q5001345", "public_transport": "platform", "ref": "201879", "route_ref": "301;303"}}, {"type": "node", "id": 840190773, "lat": -33.9241831, "lon": 151.211139, "tags": {"bench": "yes", "bin": "no", "bus": "yes", "gtfs:stop_id": "201847", "highway": "bus_stop", "name": "Racecourse Pl opp Eastlakes Shopping Centre", "network": "Transport Buses", "network:wikidata": "Q5001345", "public_transport": "platform", "ref": "201847", "shelter": "yes", "tactile_paving": "no"}}, {"type": "node", "id": 840190893, "lat": -33.9235642, "lon": 151.2106398, "tags": {"bench": "yes", "bin": "yes", "bus": "yes", "gtfs:stop_id": "201822", "highway": "bus_stop", "name": "Gardeners Rd after Racecourse Pl", "network": "Transport Buses", "network:wikidata": "Q5001345", "public_transport": "platform", "ref": "201822", "shelter": "yes", "source": "survey", "tactile_paving": "no"}}, {"type": "node", "id": 840191032, "lat": -33.9233804, "lon": 151.2109083, "tags": {"bench": "yes", "bin": "yes", "bus": "yes", "gtfs:stop_id": "201846", "highway": "bus_stop", "lit": "yes", "name": "Gardeners Rd opp Racecourse Pl", "network": "Transport Buses", "network:wikidata": "Q5001345", "public_transport": "platform", "ref": "201846", "shelter": "yes", "tactile_paving": "yes"}}, {"type": "node", "id": 840191519, "lat": -33.924762, "lon": 151.2157126, "tags": {"bench": "yes", "bin": "no", "bus": "yes", "gtfs:stop_id": "201821", "highway": "bus_stop", "name": "Gardeners Rd opp Tunstall Av", "network": "Transport Buses", "network:wikidata": "Q5001345", "public_transport": "platform", "ref": "210821", "shelter": "yes", "source": "survey", "tactile_paving": "no"}}, {"type": "node", "id": 842918382, "lat": -33.8444594, "lon": 151.2107313, "tags": {"bench": "yes", "bin": "no", "bus": "yes", "gtfs:stop_id": "206128", "highway": "bus_stop", "lit": "no", "name": "Alfred St at Lavender St", "network": "Transport Buses", "network:wikidata": "Q5001345", "public_transport": "platform", "ref": "206128", "shelter": "yes", "source": "survey", "tactile_paving": "no"}}, {"type": "node", "id": 871670179, "lat": -33.8487205, "lon": 151.2061946, "tags": {"bench": "no", "bin": "no", "bus": "yes", "covered": "no", "departures_board": "yes", "flag": "no", "gtfs:stop_id": "206036", "highway": "bus_stop", "kerb": "raised", "lit": "yes", "name": "McMahons Point Wharf, Henry Lawson Av", "network": "Transport Buses", "network:wikidata": "Q5001345", "pole": "no", "public_transport": "platform", "ref": "206036", "route_ref": "254;269;291", "shelter": "no", "source": "survey", "survey:date": "2022-09-28", "tactile_paving": "no", "website": "https://transportnsw.info/stop?q=206036#/", "wheelchair": "limited"}}, {"type": "node", "id": 871670190, "lat": -33.8416439, "lon": 151.2026798, "tags": {"bench": "no", "bus": "yes", "gtfs:stop_id": "206056", "highway": "bus_stop", "name": "Union St opp Thomas St", "network": "Transport Buses", "network:wikidata": "Q5001345", "public_transport": "platform", "ref": "206056", "shelter": "no", "source": "survey"}}, {"type": "node", "id": 871670243, "lat": -33.8437939, "lon": 151.2045896, "tags": {"bus": "yes", "gtfs:stop_id": "206032", "highway": "bus_stop", "name": "Blues Point Rd at King George St", "network": "Transport Buses", "network:wikidata": "Q5001345", "public_transport": "platform", "ref": "206032", "shelter": "no", "source": "survey"}}, {"type": "node", "id": 871670313, "lat": -33.848683, "lon": 151.2041726, "tags": {"bench": "yes", "bin": "no", "bus": "yes", "covered": "no", "departures_board": "yes", "flag": "yes", "gtfs:stop_id": "206037", "highway": "bus_stop", "kerb": "raised", "lit": "yes", "name": "Henry Lawson Reserve, Henry Lawson Av", "network": "Transport Buses", "network:wikidata": "Q5001345", "pole": "yes", "public_transport": "platform", "ref": "206037", "route_ref": "254;269;291", "shelter": "yes", "source": "DCS NSW Imagery;survey", "survey:date": "2022-09-28", "tactile_paving": "no", "website": "https://transportnsw.info/stop?q=206037/", "wheelchair": "limited"}}, {"type": "node", "id": 871670317, "lat": -33.8480692, "lon": 151.2037671, "tags": {"bench": "no", "bus": "yes", "gtfs:stop_id": "206035", "highway": "bus_stop", "name": "Blues Point Rd at Warung St", "network": "Transport Buses", "network:wikidata": "Q5001345", "public_transport": "platform", "ref": "206035", "shelter": "no", "source": "survey", "tactile_paving": "no"}}, {"type": "node", "id": 878260117, "lat": -33.8371365, "lon": 151.226115, "tags": {"bench": "yes", "bus": "yes", "highway": "bus_stop", "name": "Cricketers", "public_transport": "platform", "shelter": "yes", "source": "nearmap; local_knowledge"}}, {"type": "node", "id": 930041309, "lat": -33.8823683, "lon": 151.1847597, "tags": {"bench": "yes", "bin": "yes", "bus": "yes", "gtfs:stop_id": "203760", "highway": "bus_stop", "lit": "yes", "name": "St Johns Rd opp Glebe Town Hall", "network": "Transport Buses", "network:wikidata": "Q5001345", "public_transport": "platform", "ref": "203760", "shelter": "no", "tactile_paving": "no"}}, {"type": "node", "id": 930041780, "lat": -33.8824326, "lon": 151.1851953, "tags": {"bench": "yes", "bin": "no", "bus": "yes", "gtfs:stop_id": "203765", "highway": "bus_stop", "lit": "yes", "name": "Glebe Town Hall, Mt Vernon St", "network": "Transport Buses", "network:wikidata": "Q5001345", "public_transport": "platform", "ref": "203765", "shelter": "no", "tactile_paving": "yes"}}, {"type": "node", "id": 930041957, "lat": -33.8831894, "lon": 151.1835558, "tags": {"bench": "yes", "bin": "yes", "bus": "yes", "check_date:bench": "2023-08-18", "covered": "no", "gtfs:stop_id": "203766", "highway": "bus_stop", "lit": "no", "name": "St Johns Rd at Ross St", "network": "Transport Buses", "network:wikidata": "Q5001345", "note": "470", "public_transport": "platform", "ref": "203766", "shelter": "no", "source": "survey", "tactile_paving": "yes"}}, {"type": "node", "id": 994353154, "lat": -33.9010188, "lon": 151.1851117}, {"type": "node", "id": 994353163, "lat": -33.9016269, "lon": 151.1852614}, {"type": "node", "id": 994353173, "lat": -33.9016216, "lon": 151.1852302}, {"type": "node", "id": 994353187, "lat": -33.9011578, "lon": 151.1851624}, {"type": "node", "id": 994353191, "lat": -33.9002295, "lon": 151.1853688}, {"type": "node", "id": 994353205, "lat": -33.9007596, "lon": 151.1855068}, {"type": "node", "id": 994353219, "lat": -33.9008436, "lon": 151.1852328}, {"type": "node", "id": 994353225, "lat": -33.9016453, "lon": 151.1851472}, {"type": "node", "id": 994353234, "lat": -33.9010969, "lon": 151.1850415}, {"type": "node", "id": 994353258, "lat": -33.9002251, "lon": 151.1855191}, {"type": "node", "id": 994353264, "lat": -33.9011349, "lon": 151.185088}, {"type": "node", "id": 994353272, "lat": -33.9016409, "lon": 151.1850056}, {"type": "node", "id": 994353282, "lat": -33.9009998, "lon": 151.1853946}, {"type": "node", "id": 994353288, "lat": -33.9002404, "lon": 151.1855936}, {"type": "node", "id": 994353294, "lat": -33.9005925, "lon": 151.1852315}, {"type": "node", "id": 994353303, "lat": -33.9002097, "lon": 151.1854608}, {"type": "node", "id": 994353323, "lat": -33.9004488, "lon": 151.1853618}, {"type": "node", "id": 994353327, "lat": -33.9016357, "lon": 151.1850838}, {"type": "node", "id": 994353332, "lat": -33.9007796, "lon": 151.1851191}, {"type": "node", "id": 994353339, "lat": -33.900514, "lon": 151.1852029}, {"type": "node", "id": 994353346, "lat": -33.9002515, "lon": 151.1856415}, {"type": "node", "id": 994353356, "lat": -33.9006454, "lon": 151.1854062}, {"type": "node", "id": 994353364, "lat": -33.9011039, "lon": 151.1852911}, {"type": "node", "id": 994353372, "lat": -33.9016355, "lon": 151.1849613}, {"type": "node", "id": 994353374, "lat": -33.9002157, "lon": 151.1853144}, {"type": "node", "id": 994353380, "lat": -33.9004299, "lon": 151.1855424}, {"type": "node", "id": 1044389347, "lat": -33.8841186, "lon": 151.208309, "tags": {"bench": "yes", "bin": "no", "bus": "yes", "gtfs:stop_id": "201080", "highway": "bus_stop", "lit": "yes", "local_ref": "E", "name": "Central Station, Elizabeth St, Stand E", "network": "Transport Buses", "network:wikidata": "Q5001345", "note": "308;310;320;343;345;372;393;395", "public_transport": "platform", "ref": "201080", "shelter": "yes", "source": "survey", "tactile_paving": "yes"}}, {"type": "node", "id": 1085071511, "lat": -33.880796, "lon": 151.2086771, "tags": {"bench": "yes", "bin": "no", "bus": "yes", "gtfs:stop_id": "200047", "highway": "bus_stop", "name": "Elizabeth St at Hay St", "network": "Transport Buses", "network:wikidata": "Q5001345", "public_transport": "platform", "ref": "200047", "shelter": "yes", "source": "survey", "tactile_paving": "yes"}}, {"type": "node", "id": 1085097097, "lat": -33.8616575, "lon": 151.2115701, "tags": {"bench": "yes", "bin": "yes", "bus": "yes", "gtfs:stop_id": "2000147", "highway": "bus_stop", "lit": "yes", "local_ref": "A", "name": "Circular Quay, Alfred St, Stand A", "network": "Transport Buses", "network:wikidata": "Q5001345", "public_transport": "platform", "ref": "2000147", "shelter": "yes", "tactile_paving": "yes"}}, {"type": "node", "id": 1085097099, "lat": -33.8616027, "lon": 151.21184, "tags": {"bench": "yes", "bin": "no", "bus": "yes", "gtfs:stop_id": "20002", "highway": "bus_stop", "lit": "yes", "local_ref": "B", "name": "Circular Quay, Alfred St, Stand B", "network": "Transport Buses", "network:wikidata": "Q5001345", "public_transport": "platform", "ref": "20002", "shelter": "yes", "tactile_paving": "yes"}}, {"type": "node", "id": 1087335820, "lat": -33.8831492, "lon": 151.2035345, "tags": {"bench": "no", "bin": "yes", "bus": "yes", "gtfs:stop_id": "200017", "highway": "bus_stop", "lit": "yes", "local_ref": "J", "name": "Central Station, Railway Square, Stand J", "network": "Transport Buses", "network:wikidata": "Q5001345", "public_transport": "platform", "ref": "200017", "shelter": "yes", "source": "survey", "tactile_paving": "no", "wheelchair": "yes"}}, {"type": "node", "id": 1092812420, "lat": -33.8403085, "lon": 151.1712252, "tags": {"bus": "yes", "gtfs:stop_id": "211038", "highway": "bus_stop", "name": "Woolwich Rd at Gale St", "network": "Transport Buses", "network:wikidata": "Q5001345", "public_transport": "platform", "ref": "211038"}}, {"type": "node", "id": 1110102504, "lat": -33.8708825, "lon": 151.192262}, {"type": "node", "id": 1110102505, "lat": -33.8710365, "lon": 151.1925612}, {"type": "node", "id": 1110102511, "lat": -33.8708026, "lon": 151.1923276}, {"type": "node", "id": 1110102513, "lat": -33.8709949, "lon": 151.1926265}, {"type": "node", "id": 1116469098, "lat": -33.8389054, "lon": 151.1761614, "tags": {"amenity": "ferry_terminal", "fare_gates": "no", "ferry": "yes", "name": "Woolwich Wharf", "public_transport": "stop_position"}}, {"type": "node", "id": 1128911547, "lat": -33.9021727, "lon": 151.2230527, "tags": {"bench": "yes", "bin": "no", "bus": "yes", "highway": "bus_stop", "lit": "yes", "name": "Kensington, Anzac Parade nr Alison Road", "note": "391;392;393;394;395;396;397;399;890;M10;M50", "public_transport": "platform", "ref": "203317", "shelter": "yes", "source": "survey", "tactile_paving": "yes"}}, {"type": "node", "id": 1128912626, "lat": -33.874907, "lon": 151.2095977, "tags": {"bench": "yes", "bin": "yes", "bus": "yes", "gtfs:stop_id": "200055", "highway": "bus_stop", "lit": "yes", "local_ref": "D", "name": "Museum Station, Elizabeth St, Stand D", "network": "Transport Buses", "network:wikidata": "Q5001345", "public_transport": "platform", "ref": "200055", "shelter": "no", "source": "survey", "tactile_paving": "yes"}}, {"type": "node", "id": 1128912628, "lat": -33.8767453, "lon": 151.2105131, "tags": {"bench": "yes", "bin": "no", "bus": "yes", "highway": "bus_stop", "lit": "yes", "local_ref": "A", "name": "Museum Station, Liverpool St, Stand A", "network": "Transport Buses", "network:wikidata": "Q5001345", "operator": "Sydney Buses", "public_transport": "platform", "ref": "200071", "shelter": "yes", "tactile_paving": "yes"}}, {"type": "node", "id": 1129228712, "lat": -33.9040227, "lon": 151.2263819, "tags": {"bench": "yes", "bin": "no", "bus": "yes", "gtfs:stop_id": "202146", "highway": "bus_stop", "name": "Moore Park Busway before Alison Rd", "network": "Transport Buses", "network:wikidata": "Q5001345", "note": "339;373;374;376;377", "public_transport": "platform", "ref": "202146", "shelter": "no", "source": "survey", "tactile_paving": "yes"}}, {"type": "node", "id": 1129229649, "lat": -33.8732158, "lon": 151.2084417, "tags": {"bench": "yes", "bin": "yes", "bus": "yes", "gtfs:stop_id": "2000252", "highway": "bus_stop", "lit": "yes", "local_ref": "K", "name": "Town Hall, Park St, Stand K", "network": "Transport Buses", "network:wikidata": "Q5001345", "public_transport": "platform", "ref": "2000252", "shelter": "no", "tactile_paving": "no"}},