{"version": 0.6, "generator": "Overpass API 0.7.62.8 e802775f", "osm3s": {"timestamp_osm_base": "2026-01-13T07:18:54Z", "copyright": "The data included in this document is from www.openstreetmap.org. The data is made available under ODbL."}, "elements": [{"type": "node", "id": 1174929416, "lat": 19.1597156, "lon": 72.8399209, "tags": {"addr:district": "Mumbai", "addr:full": "Siddarth Municipal General Hospital, Opp Motilal Nagar Post Office, Goregaon (W), Mumbai", "addr:postcode": "400104", "addr:state": "Maharashtra", "amenity": "hospital", "description": "Civil Hospital/General Hospital", "emergency": "yes", "healthcare": "hospital", "name": "Siddarth Municipal Hospital", "operator": "BMC", "operator:type": "government", "source": "OpenGovernmentData"}}, {"type": "node", "id": 1347550460, "lat": 19.1106501, "lon": 72.8483274, "tags": {"amenity": "hospital", "healthcare": "hospital", "name": "Jevan Vikas Hospital"}}, {"type": "node", "id": 1575266020, "lat": 19.1031903, "lon": 72.8470399}, {"type": "node", "id": 1575266022, "lat": 19.1033044, "lon": 72.8470264}, {"type": "node", "id": 1575266023, "lat": 19.1031718, "lon": 72.8469488}, {"type": "node", "id": 1575266025, "lat": 19.1032884, "lon": 72.8469193}, {"type": "node", "id": 1633985121, "lat": 19.13054, "lon": 72.8255553}, {"type": "node", "id": 1633985122, "lat": 19.1316825, "lon": 72.8243029}, {"type": "node", "id": 1633985123, "lat": 19.1310439, "lon": 72.8242331}, {"type": "node", "id": 1633985126, "lat": 19.1308995, "lon": 72.8244504}, {"type": "node", "id": 1633985129, "lat": 19.1315457, "lon": 72.8233868}, {"type": "node", "id": 1633985153, "lat": 19.1308964, "lon": 72.8240667}, {"type": "node", "id": 1633985155, "lat": 19.1310693, "lon": 72.8241768}, {"type": "node", "id": 1633985162, "lat": 19.1309476, "lon": 72.8244102}, {"type": "node", "id": 1633985170, "lat": 19.1308615, "lon": 72.8240561}, {"type": "node", "id": 1633985191, "lat": 19.130717, "lon": 72.8255608}, {"type": "node", "id": 1633985199, "lat": 19.1318871, "lon": 72.8234588}, {"type": "node", "id": 1633985202, "lat": 19.131355, "lon": 72.8241463}, {"type": "node", "id": 1633985205, "lat": 19.1309983, "lon": 72.8243431}, {"type": "node", "id": 1640244309, "lat": 19.0962884, "lon": 72.8483799, "tags": {"addr:city": "Mumbai", "addr:district": "Maharashtra", "addr:housenumber": "KIRIT NURSING HOME, Pushpa Ganga Soc, Subhash Rd", "addr:postcode": "400057", "addr:street": "opp Sai Mandir Marg, Navpada, Vile Parle E", "amenity": "hospital", "contact:facebook": "https://www.facebook.com/drmaitreyeeparulekar/", "email": "parulekardrmaitreyee@gmail.com", "healthcare": "hospital", "healthcare:speciality": "gynaecology;oncology", "image": "https://drmaitreyeegynec.in/wp-content/uploads/2025/03/gallery1.webp", "mobile": "7208727500", "name": "Dr Maitreyee Parulekar", "opening_hours": "24/7", "payment:cash": "yes", "payment:contactless": "yes", "payment:credit_cards": "yes", "payment:debit_cards": "yes", "payment:google_pay": "yes", "website": "https://drmaitreyeegynec.in/"}}, {"type": "node", "id": 1651803187, "lat": 19.1271055, "lon": 72.8671707}, {"type": "node", "id": 1651803188, "lat": 19.127677, "lon": 72.8661176}, {"type": "node", "id": 1651803189, "lat": 19.1278745, "lon": 72.8674306}, {"type": "node", "id": 1651803190, "lat": 19.1282761, "lon": 72.8648913}, {"type": "node", "id": 1651803191, "lat": 19.1286564, "lon": 72.8675195}, {"type": "node", "id": 1651803192, "lat": 19.1295546, "lon": 72.8657412}, {"type": "node", "id": 1787854399, "lat": 19.116234, "lon": 72.8339632, "tags": {"addr:district": "Mumbai", "addr:full": "25, Gulmohar Park Gulmohar Road, Juhu Scheme Vile Parle - West", "addr:housenumber": "25", "addr:postcode": "400049", "addr:state": "Maharashtra", "addr:street": "Gulmohar Road", "amenity": "hospital", "emergency": "yes", "healthcare": "hospital", "name": "Sujay Hospital", "opening_hours": "24/7", "source": "OpenGovernmentData"}}, {"type": "node", "id": 2186668978, "lat": 19.132483, "lon": 72.8274922, "tags": {"amenity": "hospital", "designation": "Dental Clinic", "name": "Dr Manveen Gill"}}, {"type": "node", "id": 2308143720, "lat": 19.1817598, "lon": 72.8532856}, {"type": "node", "id": 2411660992, "lat": 19.1806805, "lon": 72.8630713, "tags": {"amenity": "hospital", "emergency": "yes", "name": "Hyat Hosptal"}}, {"type": "node", "id": 3403264488, "lat": 19.1068191, "lon": 72.8507443, "tags": {"addr:city": "Mumbai", "addr:housenumber": "krishna alankar", "addr:postcode": "400057", "addr:street": "Tejpal Scheme Road 5", "amenity": "hospital", "emergency": "yes", "healthcare": "hospital", "name": "gr8 smile dental clinic", "note": "Dentist", "operator": "dr. jitha marakarkandy", "phone": "+91 22 2684 2451"}}, {"type": "node", "id": 3592053117, "lat": 19.181626, "lon": 72.8531471}, {"type": "node", "id": 3592053118, "lat": 19.1816398, "lon": 72.8531134}, {"type": "node", "id": 3592053119, "lat": 19.1816441, "lon": 72.8530842}, {"type": "node", "id": 3592053120, "lat": 19.18165, "lon": 72.8530433}, {"type": "node", "id": 3592053121, "lat": 19.1816537, "lon": 72.8531156}, {"type": "node", "id": 3592053122, "lat": 19.181658, "lon": 72.8530865}, {"type": "node", "id": 3592053124, "lat": 19.18171, "lon": 72.8531717}, {"type": "node", "id": 3592053126, "lat": 19.1818034, "lon": 72.8530683}, {"type": "node", "id": 3592053127, "lat": 19.1818125, "lon": 72.8529419}, {"type": "node", "id": 3592053130, "lat": 19.1818624, "lon": 72.8529768}, {"type": "node", "id": 3592053131, "lat": 19.1818646, "lon": 72.8529461}, {"type": "node", "id": 3592053133, "lat": 19.1818893, "lon": 72.8529789}, {"type": "node", "id": 3592053134, "lat": 19.1818915, "lon": 72.8529482}, {"type": "node", "id": 3592053135, "lat": 19.1819098, "lon": 72.8530942}, {"type": "node", "id": 3592053136, "lat": 19.1819201, "lon": 72.8529505}, {"type": "node", "id": 3592053137, "lat": 19.1819428, "lon": 72.853076}, {"type": "node", "id": 3592053138, "lat": 19.1819849, "lon": 72.8531616}, {"type": "node", "id": 3596174404, "lat": 19.1843907, "lon": 72.8423524}, {"type": "node", "id": 3596174405, "lat": 19.1843907, "lon": 72.8426404}, {"type": "node", "id": 3596174444, "lat": 19.1845202, "lon": 72.8423524}, {"type": "node", "id": 3596174445, "lat": 19.1845202, "lon": 72.8426404}, {"type": "node", "id": 3604756952, "lat": 19.1723225, "lon": 72.8738504}, {"type": "node", "id": 3604756953, "lat": 19.172337, "lon": 72.8740697}, {"type": "node", "id": 3604756954, "lat": 19.1723571, "lon": 72.8738478}, {"type": "node", "id": 3604756955, "lat": 19.172359, "lon": 72.8738764}, {"type": "node", "id": 3604756973, "lat": 19.1727354, "lon": 72.8738197}, {"type": "node", "id": 3604756974, "lat": 19.1727373, "lon": 72.8738483}, {"type": "node", "id": 3604756977, "lat": 19.172797, "lon": 72.8738151}, {"type": "node", "id": 3604756979, "lat": 19.1728116, "lon": 72.8740344}, {"type": "node", "id": 3619454151, "lat": 19.1205853, "lon": 72.8794505}, {"type": "node", "id": 3619454153, "lat": 19.1205859, "lon": 72.8793732}, {"type": "node", "id": 3619454171, "lat": 19.1207484, "lon": 72.8794521}, {"type": "node", "id": 3619454172, "lat": 19.1207491, "lon": 72.8793747}, {"type": "node", "id": 3619454221, "lat": 19.1212894, "lon": 72.8794014}, {"type": "node", "id": 3619454222, "lat": 19.1212951, "lon": 72.8795619}, {"type": "node", "id": 3619454231, "lat": 19.1213876, "lon": 72.8793975}, {"type": "node", "id": 3619454234, "lat": 19.1213933, "lon": 72.879558}, {"type": "node", "id": 3642528546, "lat": 19.184452, "lon": 72.8424695}, {"type": "node", "id": 3642528547, "lat": 19.184452, "lon": 72.8425594}, {"type": "node", "id": 3642528551, "lat": 19.1845202, "lon": 72.8424695}, {"type": "node", "id": 3642528552, "lat": 19.1845202, "lon": 72.8425594}, {"type": "node", "id": 3767106111, "lat": 19.1289988, "lon": 72.8316764, "tags": {"addr:district": "Mumbai", "addr:full": "1st Floor, The Link, Link Road Extension, Opposite Star Bazaar, Next To Audi Showroom, Andheri (W)", "addr:postcode": "400053", "addr:state": "Maharashtra", "amenity": "hospital", "healthcare": "hospital", "name": "Bellevue Multispeciality Hospital", "source": "OpenGovernmentData"}}, {"type": "node", "id": 3951526714, "lat": 19.0959684, "lon": 72.8400115, "tags": {"addr:district": "Mumbai", "addr:full": "S V Road , Vile Parle", "addr:postcode": "400056", "addr:state": "Maharashtra", "addr:street": "Swami Vivekanand Road", "amenity": "hospital", "contact:phone": "2226267500", "email": "info@nanavatihospital.org", "healthcare": "hospital", "name": "Nanavati Hospital, Mumbai", "opening_hours": "24/7", "operator:type": "government", "source": "OpenGovernmentData", "website": "https://www.nanavatihospital.org/", "wikidata": "Q6962443", "wikipedia": "en:Nanavati hospital"}}, {"type": "node", "id": 3979081599, "lat": 19.1140839, "lon": 72.8417197, "tags": {"addr:district": "Mumbai", "addr:full": "2-A,Manubharti Chs,Azad Lane,S V Road,Andheri", "addr:postcode": "400059", "addr:state": "Maharashtra", "amenity": "hospital", "name": "Nutan Mammography and Sonography Centre", "source": "OpenGovernmentData"}}, {"type": "node", "id": 3979327149, "lat": 19.1212448, "lon": 72.8270705}, {"type": "node", "id": 3979327151, "lat": 19.120928, "lon": 72.8268882}, {"type": "node", "id": 3979327152, "lat": 19.1209656, "lon": 72.8268108}, {"type": "node", "id": 3979327153, "lat": 19.1212949, "lon": 72.8269663}, {"type": "node", "id": 4216741290, "lat": 19.111503, "lon": 72.8723931, "tags": {"amenity": "hospital", "check_date": "2025-11-09", "healthcare": "hospital", "name": "Mukund Hospital"}}, {"type": "node", "id": 4326473789, "lat": 19.09722, "lon": 72.888041, "tags": {"addr:city": "mumbai", "addr:district": "maharastra", "amenity": "hospital", "healthcare": "hospital", "healthcare:speciality": "physiotherapy", "name": "Tiwari Hospital", "name:en": "Tiwari Hospital"}}, {"type": "node", "id": 4998848423, "lat": 19.1117839, "lon": 72.8283425, "tags": {"addr:district": "Mumbai", "addr:full": "N. S. Road No. 13, Juhu Scheme, Vile Parle (W), Nxt To Utpal Sanghvi School", "addr:postcode": "400049", "addr:state": "Maharashtra", "addr:street": "N S Road No. 13", "amenity": "hospital", "healthcare": "hospital", "name": "Bharatiya Arogya Nidhi Sheth Kantilal C. Parikh General Hospital", "name:en": "Bharatiya Arogya Nidhi Sheth Kantilal C. Parikh General Hospital", "opening_hours": "24/7", "phone": "02226206021", "source": "OpenGovernmentData"}}, {"type": "node", "id": 5201099224, "lat": 19.1372375, "lon": 72.8366102, "tags": {"addr:street": "Hanuman Mandir road", "amenity": "hospital", "healthcare": "hospital", "name:en": "R G Stone"}}, {"type": "node", "id": 5355278561, "lat": 19.1408302, "lon": 72.8534183}, {"type": "node", "id": 5355278562, "lat": 19.1411038, "lon": 72.8529516}, {"type": "node", "id": 5355278563, "lat": 19.1412305, "lon": 72.8529543}, {"type": "node", "id": 5355278564, "lat": 19.1412381, "lon": 72.8543892}, {"type": "node", "id": 5355278565, "lat": 19.1408226, "lon": 72.8542042}, {"type": "node", "id": 5355278566, "lat": 19.1406307, "lon": 72.8539752}, {"type": "node", "id": 5496408819, "lat": 19.1172198, "lon": 72.882342, "tags": {"addr:city": "Mumbai", "addr:postcode": "400059", "amenity": "hospital", "healthcare": "hospital", "name": "Marol"}}, {"type": "node", "id": 5937631031, "lat": 19.1467138, "lon": 72.8749806}, {"type": "node", "id": 5937631032, "lat": 19.147175, "lon": 72.8749913}, {"type": "node", "id": 5937631033, "lat": 19.1476463, "lon": 72.8752166}, {"type": "node", "id": 5937631034, "lat": 19.1480466, "lon": 72.8755116}, {"type": "node", "id": 5937631035, "lat": 19.1483406, "lon": 72.8758603}, {"type": "node", "id": 5937631036, "lat": 19.1484977, "lon": 72.8764021}, {"type": "node", "id": 5937631037, "lat": 19.1464909, "lon": 72.8768849}, {"type": "node", "id": 5937631038, "lat": 19.1464655, "lon": 72.8750342}, {"type": "node", "id": 6795512985, "lat": 19.1150444, "lon": 72.9073885, "tags": {"addr:street": "Central Avenue", "amenity": "hospital", "name:en": "Metropolis", "phone": "+912233993939"}}, {"type": "node", "id": 6795570585, "lat": 19.1154259, "lon": 72.9075074, "tags": {"addr:street": "Central Avenue - from Tulip to Forest Street Junction", "amenity": "hospital", "name:en": "SRL Diagnostics"}}, {"type": "node", "id": 7042873531, "lat": 19.1631084, "lon": 72.8434806, "tags": {"addr:district": "Mumbai", "addr:full": "Manali Alankar Soc., M.G.Road, Goregaon(W), Opposite Raga Hotel", "addr:postcode": "400062", "addr:state": "Maharashtra", "amenity": "hospital", "name": "Kapadia Multi Speciality Hospital", "operator:type": "private", "source": "OpenGovernmentData", "website": "https://www.kapadiahospital.com/"}}, {"type": "node", "id": 7042873546, "lat": 19.155501, "lon": 72.845498, "tags": {"addr:district": "Mumbai", "addr:full": "Omyx Bldg,S V Road Next To Bses Office Goregaon - West", "addr:postcode": "400104", "addr:state": "Maharashtra", "amenity": "hospital", "name": "Pooja Hospital, Mumbai", "source": "OpenGovernmentData"}}, {"type": "node", "id": 7043003793, "lat": 19.1759439, "lon": 72.8463833, "tags": {"addr:district": "Mumbai", "addr:full": "Laxmipalace Above Feast India Restaurant Off S V Road Opp Sunder Nagar Malad West", "addr:postcode": "400064", "addr:state": "Maharashtra", "amenity": "hospital", "name": "Le Nest Hospital", "source": "OpenGovernmentData"}}, {"type": "node", "id": 7043174029, "lat": 19.1181601, "lon": 72.844288, "tags": {"addr:district": "Mumbai", "addr:full": "11, GangaVihar Residency, 174 S.V.Road", "addr:postcode": "400058", "addr:state": "Maharashtra", "amenity": "hospital", "email": "drsamir@gynaecexpert.com", "healthcare": "hospital", "name": "Sangita Maternity Surgical and Diagnostic Centre", "operator:type": "private", "source": "OpenGovernmentData", "website": "https://gynaecexpert.com/"}}, {"type": "node", "id": 7043230046, "lat": 19.1284312, "lon": 72.8468965, "tags": {"addr:district": "Mumbai", "addr:full": "202, Bonaza Residency, Behind : Laxmi Auto S V Road, Amboli", "addr:postcode": "400058", "addr:state": "Maharashtra", "amenity": "hospital", "healthcare": "hospital", "healthcare:speciality": "chiropractic", "name": "Prime Orthopedic Speciality Hospital, Mumbai", "operator": "abv", "operator:type": "public", "source": "OpenGovernmentData"}}, {"type": "node", "id": 7043397403, "lat": 19.1242045, "lon": 72.8906147, "tags": {"addr:district": "Mumbai", "addr:full": "Lake Bloom - 16, 17, 18, Opposite Solaris Estate, L.T. Gate No.6, Tunga Gaon, Sakivihar Road, Powai", "addr:postcode": "400072", "addr:state": "Maharashtra", "amenity": "hospital", "name": "S B Nursing Home and Icu", "source": "OpenGovernmentData"}}, {"type": "node", "id": 7043397906, "lat": 19.1129534, "lon": 72.8379245, "tags": {"addr:district": "Mumbai", "addr:full": "B201, Dhruv, OppositeGagandeep, Main Road, Juhu, Vile Parle (West)", "addr:postcode": "400056", "addr:state": "Maharashtra", "amenity": "hospital", "email": "info@lasersformedicine.com", "name": "Centre For Sight, Juhu", "operator:type": "private", "source": "OpenGovernmentData", "website": "https://www.centreforsight.net/"}}, {"type": "node", "id": 7043778826, "lat": 19.1013222, "lon": 72.8484596, "tags": {"addr:city": "mumbai", "addr:district": "Mumbai", "addr:full": "# 102/6, Purshottam Niwas,1st Floor, Park Road, Vile Parle (E)", "addr:postcode": "400057", "addr:state": "Maharashtra", "addr:street": "Prarthana Samaj Road", "amenity": "hospital", "healthcare": "hospital", "healthcare:speciality": "ophthalmology", "name": "Parle Eye Hospital", "opening_hours": "24/7", "source": "OpenGovernmentData"}}, {"type": "node", "id": 7044344099, "lat": 19.1111299, "lon": 72.8721267, "tags": {"addr:district": "Mumbai", "addr:full": "Mukund Nagar Co-Opp Hsg Andheri Kurla Road Andheri (E)", "addr:postcode": "400059", "addr:state": "Maharashtra", "amenity": "hospital", "check_date": "2025-11-09", "healthcare": "hospital", "name": "Mukund Maternity and Surgical Nursing Home", "source": "OpenGovernmentData"}}, {"type": "node", "id": 7045282445, "lat": 19.1305947, "lon": 72.8184403, "tags": {"addr:district": "Mumbai", "addr:full": "5/6-C, Janakdeep Bldg, 7 Bungalow, J.P.Road, Andheri West", "addr:postcode": "400061", "addr:state": "Maharashtra", "amenity": "hospital", "name": "Mahima Hospital and Polyclinic", "source": "OpenGovernmentData"}}, {"type": "node", "id": 7045315311, "lat": 19.1344091, "lon": 72.8243659, "tags": {"addr:district": "Mumbai", "addr:full": "32, Behind Blases Church, Ceasors Road, Hamboli, Andheriw)", "addr:postcode": "400053", "addr:state": "Maharashtra", "amenity": "hospital", "healthcare": "hospital", "name": "Indu Child Care Center", "source": "OpenGovernmentData"}}, {"type": "node", "id": 7045750046, "lat": 19.1844402, "lon": 72.8514314, "tags": {"addr:district": "Mumbai", "addr:full": "Iqbal House, Rani Sati Marg, Pandit Solicitor Lane, Malad(East)", "addr:postcode": "400097", "addr:state": "Maharashtra", "amenity": "hospital", "name": "Anandpara Surgical and General Hospital", "source": "OpenGovernmentData"}}, {"type": "node", "id": 7046326222, "lat": 19.0972827, "lon": 72.8493802, "tags": {"addr:district": "Mumbai", "addr:full": "Vimal Apartment, Nehru Road, No.9, 10, 11, Near Municipal Office, Vile Parle East", "addr:postcode": "400057", "addr:state": "Maharashtra", "amenity": "hospital", "name": "Navjivan Maternity and Surgical Nursing Home", "source": "OpenGovernmentData"}}, {"type": "node", "id": 7047423152, "lat": 19.1743945, "lon": 72.8613845, "tags": {"addr:district": "Mumbai", "addr:full": "Goregaon", "addr:postcode": "400051", "addr:state": "Maharashtra", "amenity": "hospital", "name": "Tushar Maternity and Surgical Nursing Home", "source": "OpenGovernmentData"}}, {"type": "node", "id": 7047711117, "lat": 19.1274074, "lon": 72.8314617, "tags": {"addr:district": "Mumbai", "addr:full": "D.N.Nagar, Link Road, J.P.Road Junction, Andheri (W)", "addr:postcode": "400053", "addr:state": "Maharashtra", "amenity": "hospital", "healthcare": "hospital", "name": "Siddhivinayak Surgical Centre", "source": "OpenGovernmentData"}}, {"type": "node", "id": 7047813835, "lat": 19.1813262, "lon": 72.8634739, "tags": {"addr:district": "Mumbai", "addr:full": "4, Neelam Appartment, Near Triveni Nagar, Kokani Pada, Kurar, Malad East", "addr:postcode": "400097", "addr:state": "Maharashtra", "amenity": "hospital", "name": "Suvidha Hospital and Iccu", "source": "OpenGovernmentData"}}, {"type": "node", "id": 7048131897, "lat": 19.1293511, "lon": 72.8221216, "tags": {"addr:district": "Mumbai", "addr:full": "F-3, Evershine Apartment, Four Bunglow, J. P. Road, Andheri(W)", "addr:postcode": "400058", "addr:state": "Maharashtra", "amenity": "hospital", "check_date": "2025-10-18", "name": "Purandare Hospital, Mumbai", "source": "OpenGovernmentData"}}, {"type": "node", "id": 7048261227, "lat": 19.1006777, "lon": 72.8907222, "tags": {"addr:district": "Mumbai", "addr:full": "4 Durgashram, Sakinaka-Asalpha Link Road, , Sakinaka, Besides Peninsula Hotel, Sakinaka", "addr:postcode": "400059", "addr:state": "Maharashtra", "amenity": "hospital", "name": "Priyanka Maternity and Surgical Nursing Home", "source": "OpenGovernmentData"}}, {"type": "node", "id": 7048433674, "lat": 19.127861, "lon": 72.8333795, "tags": {"addr:district": "Mumbai", "addr:full": "Andheri Mumbai", "addr:postcode": "400005", "addr:state": "Maharashtra", "amenity": "hospital", "bench": "yes", "bus": "yes", "highway": "bus_stop", "name": "Sujata Medicare (Sujata Gyanaecology Clinic);Dhake Colony", "name:hi": "\u0927\u093e\u0915\u0947 \u0915\u094c\u0932\u0928\u0940", "public_transport": "platform", "shelter": "yes", "source": "OpenGovernmentData"}}, {"type": "node", "id": 7048562946, "lat": 19.1750295, "lon": 72.8459443, "tags": {"addr:district": "Mumbai", "addr:full": "Himachal Building, Opposite Sunder Nagar, S V Road", "addr:postcode": "400064", "addr:state": "Maharashtra", "amenity": "hospital", "name": "Maa Nursing Home and Netra Jyoti Eye Care Center", "operator:type": "private", "source": "OpenGovernmentData"}}, {"type": "node", "id": 7048747818, "lat": 19.1352084, "lon": 72.8140642, "tags": {"addr:district": "Mumbai", "addr:full": "Flat No 7, Near Police Officer progressive HSG, SOC near Agha Khan Baugh", "addr:postcode": "400061", "addr:state": "Maharashtra", "amenity": "hospital", "name": "Saket Maternity and Nursing Home", "source": "OpenGovernmentData"}}, {"type": "node", "id": 7048911653, "lat": 19.1468937, "lon": 72.8311546, "tags": {"addr:district": "Mumbai", "addr:full": "A-1 Ground Floor Building No 20, Manish Nagar 4. Bunglows Andheri (W)", "addr:postcode": "400053", "addr:state": "Maharashtra", "amenity": "hospital", "healthcare": "hospital", "name": "Vital Care Centre", "source": "OpenGovernmentData"}}, {"type": "node", "id": 7049291708, "lat": 19.1660129, "lon": 72.8507602, "tags": {"addr:district": "Mumbai", "addr:full": "Arihant Above Bhandari Co-Op Bank,Next To Goregaon", "addr:postcode": "400068", "addr:state": "Maharashtra", "amenity": "hospital", "name": "Navjeevan Urology and Stone Care Centre", "source": "OpenGovernmentData"}}, {"type": "node", "id": 7049336179, "lat": 19.1156879, "lon": 72.8353295, "tags": {"addr:district": "Mumbai", "addr:full": "Plot No38/39, Opposite Juhu Supreme Shopping Centre, Main Gulmohar Road, Andheri (W),", "addr:postcode": "400049", "addr:state": "Maharashtra", "amenity": "hospital", "email": "info@criticarehospital.in", "name": "Criticare Multispeciality Hospital and Research Centre", "operator:type": "private", "source": "OpenGovernmentData", "website": "https://www.criticarehospital.in/"}}, {"type": "node", "id": 7049344773, "lat": 19.1433248, "lon": 72.8427203, "tags": {"addr:district": "Mumbai", "addr:full": "1st Floor, Aftab Classic, Opposite City Hospital, S.V Road, Jogeshwari(West)", "addr:postcode": "400102", "addr:state": "Maharashtra", "amenity": "hospital", "contact:phone": "2226771188", "email": "info@orbiteyehospital.in", "healthcare": "hospital", "name": "Orbit Eye Hospital, Mumbai", "operator:type": "private", "source": "OpenGovernmentData", "website": "https://orbiteyehospital.in/"}}, {"type": "node", "id": 7049374148, "lat": 19.1745533, "lon": 72.8640358, "tags": {"addr:district": "Mumbai", "addr:full": "54 Yashodham Enclave Opp Royal Challenge Hotel Film City Road Goregaon East", "addr:postcode": "400063", "addr:state": "Maharashtra", "amenity": "hospital", "name": "Enclave Maternity Home", "source": "OpenGovernmentData"}}, {"type": "node", "id": 7049454051, "lat": 19.1079061, "lon": 72.888, "tags": {"addr:district": "Mumbai", "addr:full": "1st Floor, Jalaram Commercial Centre, Next To Hotel Shiv Sagar-Ansa Industrial, Saki Vihar Road, Saki Naka, Andheri East", "addr:postcode": "400072", "addr:state": "Maharashtra", "amenity": "hospital", "name": "Balaji Speciality Hospital", "source": "OpenGovernmentData"}}, {"type": "node", "id": 7049712542, "lat": 19.1312947, "lon": 72.8246301, "tags": {"addr:city": "Mumbai", "addr:district": "Mumbai", "addr:full": "Rao Saheb Achutrao Patwardhan Marg, Four Bungalows, Andheri West", "addr:housenumber": "madha near gyan kendra school", "addr:postcode": "400053", "addr:state": "Maharashtra", "addr:street": "Jai Prakash Road", "amenity": "hospital", "emergency": "yes", "healthcare": "hospital", "healthcare:speciality": "general;chiropractic;gynaecology", "name": "Kokilaben Dhirubhai Ambani Hospital, Mumbai", "opening_hours": "24/7", "operator": "sathya", "operator:type": "public", "source": "OpenGovernmentData"}}, {"type": "node", "id": 7049755583, "lat": 19.1188723, "lon": 72.8433318, "tags": {"addr:district": "Mumbai", "addr:full": "Om Nikentan V P Road S V Road Behind Hotel Alpha , Andher (West)", "addr:postcode": "400001", "addr:state": "Maharashtra", "amenity": "hospital", "healthcare": "hospital", "name": "Dr Telangs Dhanvantari Hospital", "source": "OpenGovernmentData"}}, {"type": "node", "id": 7049756932, "lat": 19.1212519, "lon": 72.8799695, "tags": {"addr:district": "Mumbai", "addr:full": "H-2, Vijay Tower,Vijay Nagar,Marol Maroshi Road Andheri(E)", "addr:postcode": "400059", "addr:state": "Maharashtra", "amenity": "hospital", "name": "Dr.Pintos Pathological Laboratory", "source": "OpenGovernmentData"}}, {"type": "node", "id": 7049792673, "lat": 19.1811533, "lon": 72.8493192, "tags": {"addr:district": "Mumbai", "addr:full": "Lachhiramplaza, Ground Floor, D-Wing(Film City Road), Gen.A.K.Vaidya Marg, Goregaon(E)", "addr:postcode": "400063", "addr:state": "Maharashtra", "amenity": "hospital", "name": "Sudha Hospital and Polyclinic, Mumbai", "source": "OpenGovernmentData"}}, {"type": "node", "id": 7049800769, "lat": 19.1244488, "lon": 72.8611457, "tags": {"addr:district": "Mumbai", "addr:full": "Manas, Plot No.19, Sher-E-Punjab Society, Mahakali Caves Road, Andheri East", "addr:postcode": "400093", "addr:state": "Maharashtra", "amenity": "hospital", "name": "Dr.Sakhalkar's Maternity and Nursing Home", "source": "OpenGovernmentData"}}, {"type": "node", "id": 7049822998, "lat": 19.1235929, "lon": 72.8423361, "tags": {"addr:district": "Mumbai", "addr:full": "110-A, Jaiprakash Road, OppositeNavrang Theatre, Andheri(W)", "addr:postcode": "400058", "addr:state": "Maharashtra", "amenity": "hospital", "healthcare": "hospital", "name": "Patil Hospital, Mumbai", "source": "OpenGovernmentData"}}, {"type": "node", "id": 7049847480, "lat": 19.114371, "lon": 72.8334123, "tags": {"addr:district": "Mumbai", "addr:full": "101, Juhu Sheetal,Jvpd Scheme, 9Th Gulmohar Cross Road ,Vile Parle(W)", "addr:postcode": "400049", "addr:state": "Maharashtra", "amenity": "hospital", "name": "Oculus Eye Hospital Pvt. Ltd", "source": "OpenGovernmentData"}}, {"type": "node", "id": 7050410994, "lat": 19.1812375, "lon": 72.8573692, "tags": {"addr:district": "Mumbai", "addr:full": "1-2 Ashish Chs, Raheja Township, Rani Sati Road, Near Sai Baba Temple, Malad East", "addr:postcode": "400097", "addr:state": "Maharashtra", "amenity": "hospital", "name": "Sai Krupa Hospital, Mumbai", "source": "OpenGovernmentData"}}, {"type": "node", "id": 7051069997, "lat": 19.1064919, "lon": 72.8877814, "tags": {"addr:district": "Mumbai", "addr:full": "305/306 Ruby Monarch, 3Road Floor , Opp Post Office, Saki Vihar Road , Saki Naka, Andheri East", "addr:postcode": "400072", "addr:state": "Maharashtra", "amenity": "hospital", "name": "Ashirwad Children and Surgical Hospital", "source": "OpenGovernmentData"}}, {"type": "node", "id": 7051070842, "lat": 19.1373789, "lon": 72.8466645, "tags": {"addr:district": "Mumbai", "addr:full": "Sharma Estate, Next To Dlwan Shopping Centre,S.V.Road, Jogeswari (W)", "addr:postcode": "400102", "addr:state": "Maharashtra", "amenity": "hospital", "name": "Mallika Hospital and Envision Eye Centre", "source": "OpenGovernmentData"}}, {"type": "node", "id": 7051176229, "lat": 19.10681, "lon": 72.8655446, "tags": {"addr:district": "Mumbai", "addr:full": "Mistry Complex, Sankalp (Gr. Floor), Near Greater Bank, J.B. Nagar, Andheri (E)", "addr:postcode": "400059", "addr:state": "Maharashtra", "amenity": "hospital", "healthcare": "hospital", "name": "Kiran Care and Cure Hospital", "operator": "Dr. Vaibhav Mistry", "source": "OpenGovernmentData"}}, {"type": "node", "id": 7051342865, "lat": 19.1288557, "lon": 72.8294756, "tags": {"addr:district": "Mumbai", "addr:full": "Yashodhan Apt. No.1,Next To Four Bunglows Signal, Andheri (W)", "addr:postcode": "400053", "addr:state": "Maharashtra", "amenity": "hospital", "healthcare": "hospital", "name": "Dr. Pareeks Deafness Clinic and Ent Hospital - andheri", "source": "OpenGovernmentData"}}, {"type": "node", "id": 7051650092, "lat": 19.1169019, "lon": 72.871322, "tags": {"addr:city": "Mumbai", "addr:district": "Mumbai", "addr:full": "1-Lacreame Nrakruti Trade Center Road No-7 Kondivita Midc Area Andheri(E)", "addr:housenumber": "G1, Lacreme Building, Kondivita, Andheri East", "addr:postcode": "400047", "addr:state": "Maharashtra", "addr:street": "Road Number 7", "amenity": "hospital", "healthcare": "hospital", "name": "Umang Maternity and Surgical Nursing Home", "phone": "+912228203041", "source": "OpenGovernmentData"}}, {"type": "node", "id": 7051825616, "lat": 19.1171996, "lon": 72.8827469, "tags": {"addr:district": "Mumbai", "addr:full": "Plot No.236, Twin Arcade,Military Road,Marol,Andheri (East)", "addr:postcode": "400059", "addr:state": "Maharashtra", "amenity": "hospital", "name": "Sugun Hospital Multispeciality Diagnostic, Icu", "source": "OpenGovernmentData"}}, {"type": "node", "id": 7052502073, "lat": 19.1845751, "lon": 72.8527451, "tags": {"addr:district": "Mumbai", "addr:full": "Bhavani Chambers, Kedarmal Road, Malad East", "addr:postcode": "400097", "addr:state": "Maharashtra", "amenity": "hospital", "name": "Sanjeevani Surgical and General Hospital", "source": "OpenGovernmentData"}}, {"type": "node", "id": 7052502074, "lat": 19.1842065, "lon": 72.8510258, "tags": {"addr:district": "Mumbai", "addr:full": "Ishwar Bhuvan, Pt.Solicitor Road, Off Rani Sati Marg, Malad East", "addr:postcode": "400097", "addr:state": "Maharashtra", "amenity": "hospital", "name": "Sanjeevani Chandrabhan Agrawal Charitable Trust Eye Hospital", "source": "OpenGovernmentData"}}, {"type": "node", "id": 7052525501, "lat": 19.1012531, "lon": 72.8853004, "tags": {"addr:district": "Mumbai", "addr:full": "J.P House, Sakinaka,Andheri Kurla Road,Andheri East", "addr:postcode": "400072", "addr:state": "Maharashtra", "amenity": "hospital", "name": "J.P Hospital, Mumbai", "source": "OpenGovernmentData"}}, {"type": "node", "id": 7052813761, "lat": 19.1273593, "lon": 72.8315811, "tags": {"addr:district": "Mumbai", "addr:full": "15/16, A-Wing, Doctors Corner, Sitladevi Chs,Opp Indian Oil Nagar, D.N.Nagar, Andheri Link Road", "addr:postcode": "400058", "addr:state": "Maharashtra", "amenity": "hospital", "healthcare": "hospital", "name": "Dr. Vaidya Eye Hospital", "source": "OpenGovernmentData"}}, {"type": "node", "id": 7053184769, "lat": 19.1293815, "lon": 72.815854, "tags": {"addr:district": "Mumbai", "addr:full": "Vishwashanti, Juhu - 7 Bungalows, Link Road, 7, Bungalows Garden", "addr:postcode": "400061", "addr:state": "Maharashtra", "amenity": "hospital", "name": "Mamta Maternity and Nursing Home", "source": "OpenGovernmentData"}}, {"type": "node", "id": 7053189597, "lat": 19.1035152, "lon": 72.8514978, "tags": {"addr:district": "Mumbai", "addr:full": "Shop No - 1,Dunhill Castle,Opp 9 To 9 Super Market,Hanuman Road,Vileparle (East)", "addr:postcode": "400057", "addr:state": "Maharashtra", "amenity": "hospital", "healthcare": "hospital", "name": "Dr.Satish G.Desai", "source": "OpenGovernmentData"}}, {"type": "node", "id": 7054166264, "lat": 19.1839215, "lon": 72.8498415, "tags": {"addr:city": "Mumbai", "addr:district": "Mumbai", "addr:full": "1st Floor, Ganga Jamuna Bldg., 16 Rani Sati Marg, Malad(E)", "addr:postcode": "400097", "addr:state": "Maharashtra", "addr:street": "Poddar Road", "amenity": "hospital", "emergency": "yes", "healthcare": "hospital", "healthcare:speciality": "orthodontics;ophthalmology", "name": "Krishna Eye Care Centre", "operator": "private clinic", "operator:type": "private", "source": "local knowledge"}}, {"type": "node", "id": 7054456795, "lat": 19.1169678, "lon": 72.8443725, "tags": {"addr:district": "Mumbai", "addr:full": "Alka Building Opp M A High School S V Road Andheri W", "addr:postcode": "400058", "addr:state": "Maharashtra", "amenity": "hospital", "healthcare": "hospital", "name": "Vibha Maternity and Surgical Nursing Home", "source": "OpenGovernmentData"}}, {"type": "node", "id": 7054555638, "lat": 19.1809405, "lon": 72.8368664, "tags": {"addr:district": "Mumbai", "addr:full": "Divya Smurti, Opposite Toyata Showroom, Near Ichhapuri Hanuman Temple, Link Road, Malad(W)", "addr:postcode": "400064", "addr:state": "Maharashtra", "amenity": "hospital", "name": "Saraswati Hospital, Mumbai", "source": "OpenGovernmentData"}}, {"type": "node", "id": 7054625890, "lat": 19.1361449, "lon": 72.8503498, "tags": {"addr:district": "Mumbai", "addr:full": "B3/4, Satellite Classic Caves Road, Near Jogeshwari Railway Station, Jogeshwari (East)", "addr:postcode": "400060", "addr:state": "Maharashtra", "amenity": "hospital", "healthcare": "hospital", "name": "Dr. Kamat's Hospital", "source": "OpenGovernmentData"}}, {"type": "node", "id": 7054725462, "lat": 19.1070774, "lon": 72.8673752, "tags": {"addr:district": "Mumbai", "addr:full": "F/2, 3, Ajit Nagar, J.B.Nagar, Andheri East", "addr:postcode": "400059", "addr:state": "Maharashtra", "amenity": "hospital", "healthcare": "hospital", "name": "Ameya Surgical and General Nursing Home", "source": "OpenGovernmentData"}}, {"type": "node", "id": 7054797503, "lat": 19.1359498, "lon": 72.8520081, "tags": {"addr:district": "Mumbai", "addr:full": "Kesar Plaza, Caves Road, Station Road, Jogeshwari (E)", "addr:postcode": "400014", "addr:state": "Maharashtra", "amenity": "hospital", "healthcare": "hospital", "name": "Dr Kulkarni Hospital", "source": "OpenGovernmentData"}}, {"type": "node", "id": 7055036505, "lat": 19.1291496, "lon": 72.825176, "tags": {"addr:district": "Mumbai", "addr:full": "003, Yashodhan Building II, JP Road, Four Bungalows, Andheri West", "addr:postcode": "400053", "addr:state": "Maharashtra", "amenity": "hospital", "check_date": "2025-10-18", "healthcare": "hospital", "name": "Sehgal Path Lab", "source": "OpenGovernmentData", "website": "https://sehgalpathlab.com/"}}, {"type": "node", "id": 7055276698, "lat": 19.1148073, "lon": 72.8432044, "tags": {"addr:district": "Mumbai", "addr:full": "Viral Apartments, I Floor, Shoppers Shop,S.V.Road, Andheri (W)", "addr:postcode": "400058", "addr:state": "Maharashtra", "amenity": "hospital", "name": "Doctor Eye Hospital", "source": "OpenGovernmentData"}}, {"type": "node", "id": 7055330884, "lat": 19.1386865, "lon": 72.8321403, "tags": {"addr:district": "Mumbai", "addr:full": "Spenta Mansion, S.V.Road, Andheri(W)", "addr:postcode": "400058", "addr:state": "Maharashtra", "amenity": "hospital", "healthcare": "hospital", "name": "Dr Eye Institute Pvt Ltd", "source": "OpenGovernmentData"}}, {"type": "node", "id": 7055476546, "lat": 19.1309793, "lon": 72.8468147, "tags": {"addr:district": "Mumbai", "addr:full": "Gokul Apt. Kevanipada, Next To Farooq High School, S. V Road Jogeshwari (W)", "addr:postcode": "400102", "addr:state": "Maharashtra", "amenity": "hospital", "healthcare": "hospital", "name": "Mother Care Maternity and Surgical Nursing Home - Mumbai", "source": "OpenGovernmentData"}}, {"type": "node", "id": 7055739367, "lat": 19.1453506, "lon": 72.8230691, "tags": {"addr:district": "Mumbai", "addr:full": "33 Nebula 4Th Cross Road Lokhandwala Complex Andheri W", "addr:postcode": "400053", "addr:state": "Maharashtra", "amenity": "hospital", "name": "Pushpa Maternity Home", "source": "OpenGovernmentData"}}, {"type": "node", "id": 7055749046, "lat": 19.1339758, "lon": 72.8654212, "tags": {"addr:district": "Mumbai", "addr:full": "Aareshwar Bldg., Opp Dhiraj Darshan, Kokan Nagar, Jogeshwari East", "addr:postcode": "400060", "addr:state": "Maharashtra", "amenity": "hospital", "healthcare": "hospital", "name": "Kokan Hospital", "source": "OpenGovernmentData"}}, {"type": "node", "id": 7062712062, "lat": 19.099527, "lon": 72.8493437, "tags": {"addr:district": "Mumbai", "addr:full": "261 Sumat Bhavan, Malvia Road, Above Jain Sthanak, Vile Parle East", "addr:postcode": "400057", "addr:state": "Maharashtra", "amenity": "hospital", "healthcare": "hospital", "name": "Smt. Laxmiben Dharamsi Karsan Gala Eye Hospital", "source": "OpenGovernmentData"}}, {"type": "node", "id": 7063077062, "lat": 19.1292206, "lon": 72.8601158, "tags": {"addr:district": "Mumbai", "addr:full": "A-Nirman Vihar, Rajmata Jijabai Road, Near Pump House, Andheri (E)", "addr:postcode": "400093", "addr:state": "Maharashtra", "amenity": "hospital", "name": "Sunita Hospital, Mumbai", "source": "OpenGovernmentData"}}, {"type": "node", "id": 7064716703, "lat": 19.1277787, "lon": 72.8625767, "tags": {"addr:district": "Mumbai", "addr:full": "182 Shere Punjab Colony Mahakali Caves Road Andheri (East)", "addr:postcode": "400069", "addr:state": "Maharashtra", "amenity": "hospital", "name": "Shakuntala Memorial Surgical Childerns and General Hospital", "source": "OpenGovernmentData"}}, {"type": "node", "id": 7065572990, "lat": 19.1126049, "lon": 72.8425607, "tags": {"addr:district": "Mumbai", "addr:full": "Andheri", "addr:postcode": "400053", "addr:state": "Maharashtra", "amenity": "hospital", "name": "Dr. Joshi Surgical and Maternity Hospital", "source": "OpenGovernmentData"}}, {"type": "node", "id": 7066497782, "lat": 19.1322818, "lon": 72.8496706, "tags": {"addr:district": "Mumbai", "addr:full": "Plot No-13 , Gr. Floor, & 1st Floor, Ushahkal Hindu Friends Society Road, Jogeshwari(E)", "addr:postcode": "400060", "addr:state": "Maharashtra", "amenity": "hospital", "healthcare": "hospital", "name": "Parulekar Maternity and Surgical Nursing Home - Mumbai", "source": "OpenGovernmentData"}}, {"type": "node", "id": 7067050981, "lat": 19.1022549, "lon": 72.8486849, "tags": {"addr:district": "Mumbai", "addr:full": "Silver Apartment 29, Mahant Road, Vile Parle East", "addr:postcode": "400057", "addr:state": "Maharashtra", "amenity": "hospital", "healthcare": "hospital", "name": "Vivek Pathology Laboratory", "source": "OpenGovernmentData"}}, {"type": "node", "id": 7067113516, "lat": 19.1849348, "lon": 72.8450726, "tags": {"addr:district": "Mumbai", "addr:full": "Shree Dutt Apartment, Amarshi Road, Malad West", "addr:postcode": "400064", "addr:state": "Maharashtra", "amenity": "hospital", "name": "Jay Polyclinic Maternity Surgical Nursing Home and Eye Hospital", "source": "OpenGovernmentData"}}, {"type": "node", "id": 7067113558, "lat": 19.1096181, "lon": 72.8489169, "tags": {"addr:district": "Mumbai", "addr:full": "101, Homai Mahal, M G Road, Vile Parle East", "addr:postcode": "400057", "addr:state": "Maharashtra", "amenity": "hospital", "healthcare": "hospital", "name": "Saurabh Clinic Dr.Sanjanwalas Maternity and Gynacologist", "source": "OpenGovernmentData"}}, {"type": "node", "id": 7067540680, "lat": 19.121366, "lon": 72.8794867, "tags": {"addr:district": "mumbai", "addr:full": "marol", "addr:postcode": "400059", "addr:state": "Maharashtra", "addr:street": "Maroshi Village Road vijay nagar LT complex", "amenity": "hospital", "healthcare": "hospital", "name": "Gokul Maternity & Surgical Home", "source": "OpenGovernmentData"}}, {"type": "node", "id": 7067961276, "lat": 19.1455128, "lon": 72.8291899, "tags": {"addr:district": "Mumbai", "addr:full": "Bldg.No.15, Flat No.102,Mhada Complex,New Link Road,Near Oshiwara Police Station, Andheri (West)", "addr:postcode": "400053", "addr:state": "Maharashtra", "amenity": "hospital", "healthcare": "hospital", "name": "Dr. M.I.Doongerwala - andheri", "source": "OpenGovernmentData"}}, {"type": "node", "id": 7068099987, "lat": 19.1352922, "lon": 72.8542954, "tags": {"addr:district": "Mumbai", "addr:full": "4/5/6-C Janakdeep, J.P.Road, 7 Bunglows, Andherw)", "addr:postcode": "400061", "addr:state": "Maharashtra", "amenity": "hospital", "healthcare": "hospital", "name": "Piyush Hospital", "source": "OpenGovernmentData"}}, {"type": "node", "id": 7068194959, "lat": 19.127861, "lon": 72.8624144, "tags": {"addr:district": "Mumbai", "addr:full": "183,Kalpana, Sher-E-Punjab Society, Mahakali Road,Andheri (E)", "addr:postcode": "400093", "addr:state": "Maharashtra", "amenity": "hospital", "name": "Indu Maternity and Surgical Nursing Home", "source": "OpenGovernmentData"}}, {"type": "node", "id": 7068429399, "lat": 19.119331, "lon": 72.845019, "tags": {"addr:district": "Mumbai", "addr:full": "S.V Road, Opp Railway Station, Andheri West", "addr:postcode": "400058", "addr:state": "Maharashtra", "amenity": "hospital", "healthcare": "hospital", "name": "Bses Mg Hospital (Managed By)Brahma Kumari Global Hospital and Res Center", "source": "OpenGovernmentData"}}, {"type": "node", "id": 7070050990, "lat": 19.1274049, "lon": 72.8313719, "tags": {"addr:district": "Mumbai", "addr:full": "Docors Comer, Sitladevi C.H.S.,D.N.Nagar, New Link Road, Andheri (W)", "addr:postcode": "400053", "addr:state": "Maharashtra", "amenity": "hospital", "healthcare": "hospital", "name": "Eva Medicare Center - andheri", "source": "OpenGovernmentData"}}, {"type": "node", "id": 7070050992, "lat": 19.11132, "lon": 72.8671995, "tags": {"addr:district": "Mumbai", "addr:full": "B-1 Greenland Apt J.B Ngr Andheri(E)", "addr:postcode": "400059", "addr:state": "Maharashtra", "amenity": "hospital", "healthcare": "hospital", "name": "Spectacles and Contact Lens Clinic", "source": "OpenGovernmentData"}}, {"type": "node", "id": 7070737920, "lat": 19.1846986, "lon": 72.8470279, "tags": {"addr:district": "Mumbai", "addr:full": "33,Dattani Chembers,S.V.Road,OppositeBank Of Baroda,Near New Era Cinema,Malad(W)", "addr:postcode": "400064", "addr:state": "Maharashtra", "amenity": "hospital", "name": "Elite Maternity Home and Polyclinic", "source": "OpenGovernmentData"}}, {"type": "node", "id": 7070857483, "lat": 19.1439215, "lon": 72.8430556, "tags": {"addr:district": "Mumbai", "addr:full": "Hafizi House, S.V. Road, Oshiwara Jogeshwari(W)", "addr:postcode": "400102", "addr:state": "Maharashtra", "amenity": "hospital", "healthcare": "hospital", "name": "Shivam Netram Eye Hospital", "source": "OpenGovernmentData"}}, {"type": "node", "id": 7070859091, "lat": 19.1074601, "lon": 72.8484213, "tags": {"addr:district": "Mumbai", "addr:full": "A - 103, 104, Saurabh Apartment, Shahaji Raje Marg Next To Bhuta High School", "addr:postcode": "400057", "addr:state": "Maharashtra", "amenity": "hospital", "healthcare": "hospital", "name": "Nityanand Iccu and Nursing Home", "source": "OpenGovernmentData"}}, {"type": "node", "id": 7070859097, "lat": 19.1031325, "lon": 72.8392227, "tags": {"addr:district": "Mumbai", "addr:full": "D-31, Navmangal Chs, 1st Floor,Above Venilal Saree Shop, S. V. Road", "addr:postcode": "400056", "addr:state": "Maharashtra", "amenity": "hospital", "name": "Khandwala Eye Hospital and Polyclinic", "source": "OpenGovernmentData"}}, {"type": "node", "id": 7070859138, "lat": 19.1095535, "lon": 72.8376684, "tags": {"addr:district": "Mumbai", "addr:full": "2nd Floor , Shri Mumbadevi Homeopathic Hospital , Natakkar Ram , Ganesh Gadkari Road , Irla , Vile Parle ( West )", "addr:postcode": "400056", "addr:state": "Maharashtra", "amenity": "hospital", "healthcare": "hospital", "name": "Life Care Iccu , Medical and Surgical Emergencies", "source": "OpenGovernmentData"}}, {"type": "node", "id": 7073099556, "lat": 19.139644, "lon": 72.8435008, "tags": {"addr:district": "Mumbai", "addr:full": "105, First Floor , Markaz View, Opposite Excel Industries , S.V Road, Jogeshwari(W)", "addr:postcode": "400059", "addr:state": "Maharashtra", "amenity": "hospital", "healthcare": "hospital", "name": "Diamond Hospital", "source": "OpenGovernmentData"}}, {"type": "node", "id": 7073537767, "lat": 19.1668553, "lon": 72.8518874, "tags": {"addr:district": "Mumbai", "addr:full": "Naikwadi, Opposite Heritage Hotel ,Aarey Road,Goregaon (E)", "addr:postcode": "400063", "addr:state": "Maharashtra", "amenity": "hospital", "name": "Vishwa Kripa Hospital", "source": "OpenGovernmentData"}}, {"type": "node", "id": 7073651578, "lat": 19.1366428, "lon": 72.8364225, "tags": {"addr:district": "Mumbai", "addr:full": "C Wing, Dhananjay Apt Behind Balaji Studio, Opp Veera Desai Road Andheri", "addr:postcode": "400059", "addr:state": "Maharashtra", "amenity": "hospital", "healthcare": "hospital", "name": "Rg Stone Urology and Laparoscopy Hospital, Mumbai", "source": "OpenGovernmentData"}}, {"type": "node", "id": 7073895614, "lat": 19.1285722, "lon": 72.8269772, "tags": {"addr:city": "Mumbai", "addr:district": "Mumbai", "addr:full": "#6, Manish Tower , Manish Nagar,J.R. Road ,Near Manish Shopping Centre", "addr:housenumber": "four bungalows", "addr:postcode": "400053", "addr:state": "Maharashtra", "addr:street": "jp road", "amenity": "hospital", "emergency": "no", "healthcare": "hospital", "healthcare:speciality": "gynaecology", "name": "Akanksha Maternity and Surgical Hospital", "opening_hours": "24/7", "source": "OpenGovernmentData;gps"}}, {"type": "node", "id": 7073949883, "lat": 19.1038168, "lon": 72.886899, "tags": {"addr:district": "Mumbai", "addr:full": "1st & 2nd Floor Laxmi Commarcial Premises Saki Naka Junction Andheri ( E)", "addr:postcode": "400059", "addr:state": "Maharashtra", "amenity": "hospital", "healthcare": "hospital", "name": "Paramount General Hospital and ICU", "name:en": "Paramount General Hospital and ICU", "source": "OpenGovernmentData", "website": "https://paramountgeneralhospital.com/"}}, {"type": "node", "id": 7073961725, "lat": 19.103614, "lon": 72.8870398, "tags": {"addr:district": "Mumbai", "addr:full": "Laxmi Commercial Premises, Near Sakinaka Junction, Andheri Kurla Road, Andheri East", "addr:postcode": "400072", "addr:state": "Maharashtra", "amenity": "hospital", "email": "clinics2hospitals@gmail.com", "name": "Paramount General Hospital and ICCU", "operator:type": "private", "source": "OpenGovernmentData", "website": "https://parakhhospital.com/"}}, {"type": "node", "id": 7074576485, "lat": 19.136651, "lon": 72.8501849, "tags": {"addr:district": "Mumbai", "addr:full": "004/C-2, Satellite Classic, Caves Road, Opposite, Jogeshwari Railway Station, Jogeshwari (E)", "addr:postcode": "400060", "addr:state": "Maharashtra", "amenity": "hospital", "healthcare": "hospital", "name": "Dr. Shindes Childrens Hospital and Nicu", "source": "OpenGovernmentData"}}, {"type": "node", "id": 7076379914, "lat": 19.1184744, "lon": 72.8731017, "tags": {"addr:district": "Mumbai", "addr:full": "PLOT No, 88, Rd Number 15, Marol MIDC Industry Estate, Andheri East", "addr:postcode": "400058", "addr:state": "Maharashtra", "amenity": "hospital", "name": "SRL Diagnostics Andheri (MIDC)", "source": "OpenGovernmentData"}}, {"type": "node", "id": 7076609444, "lat": 19.174305, "lon": 72.8443739, "tags": {"addr:district": "Mumbai", "addr:full": "A-1,Gagan Chembers - 5,Near Gokuldham,Medicare Centre,Goregaon (E)", "addr:postcode": "400063", "addr:state": "Maharashtra", "amenity": "hospital", "name": "Life Line Medicare Hospital Pvt Ltd", "source": "OpenGovernmentData"}}, {"type": "node", "id": 7079665692, "lat": 19.1107257, "lon": 72.8483811, "tags": {"addr:district": "Mumbai", "addr:full": "Jeevan Vikas Kendra Marg , Off S. Nityanand Marg Andheri (East)", "addr:postcode": "400069", "addr:state": "Maharashtra", "amenity": "hospital", "healthcare": "hospital", "name": "Sadanand Danait Hospital", "source": "OpenGovernmentData"}}, {"type": "node", "id": 7080205265, "lat": 19.1373264, "lon": 72.8485105, "tags": {"addr:district": "Mumbai", "addr:full": "C wing, 1st floor, Opposite Jogeshwari station west", "addr:postcode": "400102", "addr:state": "Maharashtra", "amenity": "hospital", "healthcare": "hospital", "name": "Dr Shah Hospital", "source": "OpenGovernmentData"}}, {"type": "node", "id": 7080269989, "lat": 19.0970597, "lon": 72.847386, "tags": {"addr:district": "Mumbai", "addr:full": "199, Dixit Cross Road, Near Chetan School, Vile Parle (East)", "addr:postcode": "400057", "addr:state": "Maharashtra", "amenity": "hospital", "healthcare": "hospital", "name": "Ashish Maternity and Nursing Home - Vile Parle (E)", "source": "OpenGovernmentData"}}, {"type": "node", "id": 7082370226, "lat": 19.1069165, "lon": 72.8356406, "tags": {"addr:district": "Mumbai", "addr:full": "Flat 1, Ridhhi, E W Road 2, 41, Vallabhnagar Society, Opposite Cooper Casualy, Jvpd Scheme", "addr:postcode": "400056", "addr:state": "Maharashtra", "amenity": "hospital", "healthcare": "hospital", "name": "Dr Sanjay Soni Dental Clinic", "source": "OpenGovernmentData"}}, {"type": "node", "id": 7082370250, "lat": 19.1284059, "lon": 72.832253, "tags": {"addr:district": "Mumbai", "addr:full": "Eversun Soc., Sahakar Nagar, Jp Road, Andheri West", "addr:postcode": "400053", "addr:state": "Maharashtra", "amenity": "hospital", "healthcare": "hospital", "name": "Parijat Surgical and General Hospital", "source": "OpenGovernmentData"}}, {"type": "node", "id": 7082518991, "lat": 19.1352453, "lon": 72.8381807, "tags": {"addr:district": "Mumbai", "addr:full": "Andheri", "addr:postcode": "400102", "addr:state": "Maharashtra", "amenity": "hospital", "healthcare": "hospital", "name": "Society Of The Helpers Of Mary Shraddha Vihar Hospital", "source": "OpenGovernmentData"}}, {"type": "node", "id": 7082519016, "lat": 19.1424177, "lon": 72.8234661, "tags": {"addr:district": "Mumbai", "addr:full": "17-B/007-008, Girnar Swami Samarth Nagar,Off Four Bungalows, Andheri (W)", "addr:postcode": "400053", "addr:state": "Maharashtra", "amenity": "hospital", "healthcare": "hospital", "name": "Ameya Maternity and Nursing Home", "source": "OpenGovernmentData"}}, {"type": "node", "id": 7082733171, "lat": 19.1455229, "lon": 72.8230771, "tags": {"addr:district": "Mumbai", "addr:full": "Nebula Apartment, Lokhandwala, Andheri West", "addr:housename": "Nebula Apartment", "addr:place": "Lokhandwala", "addr:postcode": "400053", "addr:state": "Maharashtra", "addr:suburb": "Andheri West", "amenity": "hospital", "name": "Sanghvi Clinic", "name:hi": "\u0938\u093e\u0902\u0918\u0935\u0940 \u0915\u094d\u0932\u093f\u0928\u093f\u0915", "source": "OpenGovernmentData"}}, {"type": "node", "id": 7083324261, "lat": 19.1297337, "lon": 72.8702196, "tags": {"addr:district": "Mumbai", "addr:full": "B6/7,Bilquis Apt. - Iii,Mayrose Chs,Mahakali Caves Road,Andheri (East)", "addr:postcode": "400093", "addr:state": "Maharashtra", "amenity": "hospital", "name": "Uma Maternity Nursing Home", "source": "OpenGovernmentData"}}, {"type": "node", "id": 7085742120, "lat": 19.1069728, "lon": 72.8358773, "tags": {"addr:district": "Mumbai", "addr:full": "Heena Smruti, Road No 2, Juhu Scheme, Opposite Cooper Hospital Casualty, Vile Parle(W)", "addr:postcode": "400056", "addr:state": "Maharashtra", "amenity": "hospital", "healthcare": "hospital", "name": "Iris Eye Center", "source": "OpenGovernmentData"}}, {"type": "node", "id": 7086283489, "lat": 19.132605, "lon": 72.8696693, "tags": {"addr:district": "Mumbai", "addr:full": "9-B, Vallabhai Patel Rd, New Mhada Colony, Indira Nagar, Jogeshwari East", "addr:postcode": "400093", "addr:state": "Maharashtra", "amenity": "hospital", "healthcare": "hospital", "name": "Dr Phadkes Maternity and Surgical Hospital", "source": "OpenGovernmentData"}}, {"type": "node", "id": 7086532343, "lat": 19.1836916, "lon": 72.846468, "tags": {"addr:district": "Mumbai", "addr:full": "Sriniwas Apartment, 78, S.V. Road, Opposite New Era Talkies, Malad", "addr:postcode": "400064", "addr:state": "Maharashtra", "amenity": "hospital", "name": "AR Hospital Orthopaedic & ICU", "source": "OpenGovernmentData"}}, {"type": "node", "id": 7086532370, "lat": 19.1100591, "lon": 72.8642115, "tags": {"addr:district": "Mumbai", "addr:full": "Goel Apartments, J B Nagar, Near Kalgidhar High School, Wireless Street, Andheri East", "addr:postcode": "400059", "addr:state": "Maharashtra", "amenity": "hospital", "healthcare": "hospital", "name": "Goel Hospital", "source": "OpenGovernmentData"}}, {"type": "node", "id": 7087491721, "lat": 19.1631829, "lon": 72.8351136, "tags": {"addr:district": "Mumbai", "addr:full": "1st Floor, M.G.Road Junction,Motilal Nagar", "addr:postcode": "400104", "addr:state": "Maharashtra", "amenity": "hospital", "name": "Prarthana Hospital And ICU", "source": "OpenGovernmentData"}}, {"type": "node", "id": 7225067156, "lat": 19.1720375, "lon": 72.8517554, "tags": {"addr:district": "Mumbai", "addr:full": "Road Number 4, C-WING, Subhash Nagar, Goregaon", "addr:postcode": "400063", "addr:state": "Maharashtra", "amenity": "hospital", "name": "Pandurangawadi Health Post", "source": "OpenGovernmentData"}}, {"type": "node", "id": 7225067170, "lat": 19.1108771, "lon": 72.8781592, "tags": {"addr:district": "Mumbai", "addr:full": "Marol Village Road, Near Miljul Housing Society, Marol", "addr:postcode": "400059", "addr:state": "Maharashtra", "amenity": "hospital", "name": "Marol Maternity Home", "source": "OpenGovernmentData"}}, {"type": "node", "id": 7225067194, "lat": 19.178433, "lon": 72.851105, "tags": {"addr:district": "Mumbai", "addr:full": "Govind Nagar Road, Near Mahindra Academy, Malad", "addr:postcode": "400097", "addr:state": "Maharashtra", "amenity": "hospital", "name": "M.W. Desai Municipal General Hospital", "source": "OpenGovernmentData"}}, {"type": "node", "id": 7225067197, "lat": 19.1054569, "lon": 72.8518587, "tags": {"addr:district": "Mumbai", "addr:full": "Dr. V.N.Shirodkar Municipal Maternity Home, Vileparle (E)", "addr:postcode": "400057", "addr:state": "Maharashtra", "amenity": "hospital", "healthcare": "hospital", "name": "V N Shirodkar Hospital", "source": "OpenGovernmentData"}}, {"type": "node", "id": 7225067227, "lat": 19.1761724, "lon": 72.8494708, "tags": {"addr:district": "Mumbai", "addr:full": "Chinchowali Colony, Near Railway Station, Malad", "addr:postcode": "400097", "addr:state": "Maharashtra", "amenity": "hospital", "name": "Pahadi Health Post", "source": "OpenGovernmentData"}}, {"type": "node", "id": 7225067267, "lat": 19.0984853, "lon": 72.904147, "tags": {"addr:district": "Mumbai", "addr:full": "Sant Muktabai Mun. Gen. Hospital, Barve Nagar, Ghatkopar (W)", "addr:postcode": "400086", "addr:state": "Maharashtra", "amenity": "hospital", "name": "Sant Muktabai Hospital", "source": "OpenGovernmentData"}}, {"type": "node", "id": 7628258688, "lat": 19.1777529, "lon": 72.8724378, "tags": {"addr:district": "Mumbai", "addr:full": "Riddhi Gardens, Malad East, Mumbai", "addr:postcode": "400097", "addr:state": "Maharashtra", "amenity": "hospital", "name": "Savitri Bai Phule BMC Hospital ,Malad East", "source": "Local Knowledge"}}, {"type": "node", "id": 7663833079, "lat": 19.163103, "lon": 72.846337, "tags": {"addr:district": "Mumbai Suburban", "addr:full": "Ashok Raj Building, SV Road, Above Ratan Hotel, Kakaji Nagar, Jawahar Nagar, Goregaon West, Mumbai", "addr:postcode": "400062", "addr:state": "Maharastra", "amenity": "hospital", "name": "Singhi Hospital", "source": "Local Knowledge"}}, {"type": "node", "id": 7663833086, "lat": 19.178818, "lon": 72.842829, "tags": {"addr:district": "Mumbai Suburban", "addr:full": "Chincholi Bunder Road, Mandlik Nagar, Sunder Nagar, Malad West, Mumbai", "addr:postcode": "400064", "addr:state": "Maharastra", "amenity": "hospital", "name": "Vivanta Multispeciality Hospital", "source": "Local Knowledge"}}, {"type": "node", "id": 7663833088, "lat": 19.163211, "lon": 72.835036, "tags": {"addr:district": "Mumbai Suburban", "addr:full": "JP Residency, Vivanta Hospital, Chincholi Bunder, Malad West, Mumbai", "addr:postcode": "400064", "addr:state": "Maharastra", "amenity": "hospital", "name": "Vivanta Hospital", "source": "Local Knowledge"}}, {"type": "node", "id": 7663833093, "lat": 19.175631, "lon": 72.837464, "tags": {"addr:district": "Mumbai Suburban", "addr:full": "New Link Road, Malad, Sunder Nagar, Malad West, Mumbai", "addr:postcode": "400064", "addr:state": "Maharastra", "amenity": "hospital", "check_date": "2025-12-29", "name": "Cloud Nine Children's Hospital", "source": "Local Knowledge"}}, {"type": "node", "id": 7663833098, "lat": 19.1816744, "lon": 72.8467421, "tags": {"addr:district": "Mumbai Suburban", "addr:full": "SV Road, Malad, Vijaykar Wadi, Malad West, Mumbai", "addr:postcode": "400064", "addr:state": "Maharastra", "amenity": "hospital", "name": "L. M Patel Eye Hospital", "source": "Local Knowledge"}}, {"type": "node", "id": 7663833104, "lat": 19.1725519, "lon": 72.8739312, "tags": {"addr:district": "Mumbai Suburban", "addr:full": "Building D-2, Satellite Gardens-2, Film City Road, Near Hanuman Nagar, Goregaon, Mumbai", "addr:postcode": "400063", "addr:state": "Maharastra", "amenity": "hospital", "name": "Radha Krishna Hospital", "source": "Local Knowledge"}}, {"type": "node", "id": 7663833111, "lat": 19.1636085, "lon": 72.8377227, "tags": {"addr:district": "Mumbai Suburban", "addr:full": "Mahatma Gandhi Road, Opposite Rosary Church, Goregaon West, Mumbai", "addr:postcode": "400090", "addr:state": "Maharastra", "amenity": "hospital", "name": "Jain Hospital", "source": "Local Knowledge"}}, {"type": "node", "id": 7663833117, "lat": 19.1612265, "lon": 72.840181, "tags": {"addr:district": "Mumbai Suburban", "addr:full": "L.T. Nagar, 4th Lane, Mahatma Gandhi Road, Goregaon West, Mumbai", "addr:postcode": "400104", "addr:state": "Maharastra", "amenity": "hospital", "name": "Matushree Gomati Hospital", "source": "Local Knowledge"}}, {"type": "node", "id": 7663833122, "lat": 19.1751156, "lon": 72.8778495, "tags": {"addr:city": "Goregaon.Mumbai", "addr:district": "Mumbai Suburban", "addr:full": "Nagri Niwara Cooperative Housing Society, Goregaon, Mumbai", "addr:postcode": "400065", "addr:state": "Maharastra", "addr:street": "General A K Vaidya Marg", "amenity": "hospital", "emergency": "yes", "levels": "3", "name": "Hospital Vedant", "source": "Local Knowledge"}}, {"type": "node", "id": 7663833125, "lat": 19.1794965, "lon": 72.8606797, "tags": {"addr:district": "Mumbai Suburban", "addr:full": "Pathanwadi Road, Malad, Tapovan Housing Complex, Pathan Wadi, Malad East, Mumbai", "addr:postcode": "400097", "addr:state": "Maharastra", "amenity": "hospital", "name": "New Nari Hospital", "source": "Local Knowledge"}}, {"type": "node", "id": 7663833129, "lat": 19.1754936, "lon": 72.8338516, "tags": {"addr:district": "Mumbai Suburban", "addr:full": "Rustomjee Elanza, Ground Floor, Aditya Heritage, Industrial Society, Chincholi Bunder Road, Ram Nagar, Malad West, Mumbai", "addr:postcode": "400064", "addr:state": "Maharastra", "amenity": "hospital", "name": "Sage Hospital", "source": "Local Knowledge"}}, {"type": "node", "id": 7663833131, "lat": 19.182718, "lon": 72.856724, "tags": {"addr:district": "Mumbai Suburban", "addr:full": "Rani Sati Marg, Near Passport Office, Malad East, Mumbai", "addr:postcode": "400097", "addr:state": "Maharastra", "amenity": "hospital", "name": "Balajee Hospital", "source": "Local Knowledge"}}, {"type": "node", "id": 7663833134, "lat": 19.1671157, "lon": 72.8513635, "tags": {"addr:district": "Mumbai Suburban", "addr:full": "Naikwadi Road, Naik Wadi, Churi Wadi, Goregaon, Mumbai", "addr:postcode": "400063", "addr:state": "Maharastra", "amenity": "hospital", "name": "Dr. Sabnis Hospital", "source": "Local Knowledge"}}, {"type": "node", "id": 7663833143, "lat": 19.181414, "lon": 72.864334, "tags": {"addr:district": "Mumbai Suburban", "addr:full": "Bhoomi Residency, Next to Triveni Nagar, Kurar Village, Malad East, Mumbai", "addr:postcode": "400097", "addr:state": "Maharastra", "amenity": "hospital", "name": "Aastha Maternity", "source": "Local Knowledge"}}, {"type": "node", "id": 7663833151, "lat": 19.160433, "lon": 72.856244, "tags": {"addr:district": "Mumbai Suburban", "addr:full": "Sonawala Industry Estate, Goregaon, Mumbai", "addr:postcode": "400063", "addr:state": "Maharastra", "amenity": "hospital", "name": "Trauma Hospital", "source": "Local Knowledge"}}, {"type": "node", "id": 7663833154, "lat": 19.175132, "lon": 72.870689, "tags": {"addr:district": "Mumbai Suburban", "addr:full": "Shop No. 21, Heena Gaurav Jewels, Gokuldam Market, General AK Vaidya Marg, Film City Road, Mumbai", "addr:postcode": "400063", "addr:state": "Maharastra", "amenity": "hospital", "name": "Vidya Hospital", "source": "Local Knowledge"}}, {"type": "node", "id": 7663833156, "lat": 19.1632392, "lon": 72.8453083, "tags": {"addr:district": "Mumbai Suburban", "addr:full": "Hirnen Shopping Centre, Mahatma Gandhi Road, Goregaon West, Mumbai", "addr:postcode": "400062", "addr:state": "Maharastra", "amenity": "hospital", "check_date": "2025-12-29", "name": "Dr. Bhatt's Hospital", "source": "Local Knowledge"}}, {"type": "node", "id": 7663833159, "lat": 19.170783, "lon": 72.878466, "tags": {"addr:district": "Mumbai Suburban", "addr:full": "Muncipal Colony, General Arun Kumar Vaidya Marg, Santosh Nagar, Sector B, Goregaon, Mumbai", "addr:postcode": "400065", "addr:state": "Maharastra", "amenity": "hospital", "name": "Dr. Sudhir Patil Sai Siddhi Clinic", "source": "Local Knowledge"}}, {"type": "node", "id": 7663833172, "lat": 19.1843797, "lon": 72.8450285, "tags": {"addr:district": "Mumbai Suburban", "addr:full": "Malad, Navy Colony, Mamledarwadi, Malad West, Mumbai", "addr:postcode": "400064", "addr:state": "Maharastra", "amenity": "hospital", "name": "Savla Hospital", "source": "Local Knowledge"}}, {"type": "node", "id": 7663961397, "lat": 19.10982, "lon": 72.82763, "tags": {"addr:district": "Mumbai Suburban", "addr:full": "Bus Terminus, North South Road, Opp Juhu, Vithal Nagar, Juhu, Mumbai", "addr:postcode": "400049", "addr:state": "Maharastra", "amenity": "hospital", "name": "Lotus Eye Hospital", "source": "Local Knowledge"}}, {"type": "node", "id": 7663961402, "lat": 19.108448, "lon": 72.877743, "tags": {"addr:district": "Mumbai Suburban", "addr:full": "Near Petrol Pump, Marol Naka, Andheri Kurla Road, Andheri East, Mumbai", "addr:postcode": "400059", "addr:state": "Maharastra", "amenity": "hospital", "check_date": "2025-10-24", "name": "Medicare Hospital", "source": "Local Knowledge"}}, {"type": "node", "id": 7663961404, "lat": 19.1180803, "lon": 72.8505516, "tags": {"addr:district": "Mumbai Suburban", "addr:full": "Besides SBI, Telli Galli, Andheri East, Mumbai", "addr:postcode": "400069", "addr:state": "Maharastra", "amenity": "hospital", "healthcare": "hospital", "name": "CritiCare Hospital", "source": "Local Knowledge"}}, {"type": "node", "id": 7663961406, "lat": 19.1054972, "lon": 72.8481238, "tags": {"addr:district": "Mumbai Suburban", "addr:full": "G B Indulkar Road, Vishnu Prasad Society, Navpada, Vile Parle East, Mumbai", "addr:postcode": "400057", "addr:state": "Maharastra", "amenity": "hospital", "healthcare": "hospital", "name": "Dr. Sanjanwala Hospital", "source": "Local Knowledge"}}, {"type": "node", "id": 7663961414, "lat": 19.1433169, "lon": 72.8431331, "tags": {"addr:district": "Mumbai Suburban", "addr:full": "Ripon Apartment, 176, 1st Floor, Tulsi Pipe Road, Mumbai", "addr:postcode": "400102", "addr:state": "Maharastra", "amenity": "hospital", "healthcare": "hospital", "name": "City Hospital", "source": "Local Knowledge"}}, {"type": "node", "id": 7663961423, "lat": 19.1072994, "lon": 72.8931541, "tags": {"addr:district": "Mumbai Suburban", "addr:full": "RM House, Khairani Road, Near Jama Masjid, Yadav Nagar, Chandivali, Powai, Mumbai", "addr:postcode": "400072", "addr:state": "Maharastra", "amenity": "hospital", "name": "Zobiya Hospital Maternity Home", "source": "Local Knowledge"}}, {"type": "node", "id": 7663961426, "lat": 19.1358754, "lon": 72.8446193, "tags": {"addr:district": "Mumbai Suburban", "addr:full": "Anmol Apartment, Ground Floor, Sankar Road, Jogeshwari West, Mumbai", "addr:postcode": "400102", "addr:state": "Maharastra", "amenity": "hospital", "healthcare": "hospital", "name": "Jogeshwari Hospital", "source": "Local Knowledge"}}, {"type": "node", "id": 7663961430, "lat": 19.1026186, "lon": 72.8934892, "tags": {"addr:district": "Mumbai Suburban", "addr:full": "Kherani Road, Nair Wadi, Asalfa, Mumbai", "addr:postcode": "400072", "addr:state": "Maharastra", "amenity": "hospital", "name": "Sapna Maternity and General Hospital", "source": "Local Knowledge"}}, {"type": "node", "id": 7663961433, "lat": 19.1023801, "lon": 72.8914583, "tags": {"addr:district": "Mumbai Suburban", "addr:full": "Ram Niwas Mohili Village, Saki Naka, Mumbai", "addr:postcode": "400072", "addr:state": "Maharastra", "amenity": "hospital", "name": "Dr. Chhajed Surgerical & Maternity Hospital", "source": "Local Knowledge"}}, {"type": "node", "id": 7663961438, "lat": 19.1394176, "lon": 72.8596914, "tags": {"addr:district": "Mumbai Suburban", "addr:full": "Jogeshwari - Vikhroli Link Road, Anand Nagar, Jogeshwari East, Mumbai", "addr:postcode": "400060", "addr:state": "Maharastra", "amenity": "hospital", "healthcare": "hospital", "name": "DNA Hospital", "source": "Local Knowledge"}}, {"type": "node", "id": 7663961442, "lat": 19.1173421, "lon": 72.8841859, "tags": {"addr:district": "Mumbai Suburban", "addr:full": "Blue Fortuna, Military Road, Sankara Nagar, Marol, Andheri East, Mumbai", "addr:postcode": "400059", "addr:state": "Maharastra", "amenity": "hospital", "name": "Cuddles N Care Pediatric Hospital", "source": "Local Knowledge"}}, {"type": "node", "id": 7663961460, "lat": 19.1589907, "lon": 72.8492265, "tags": {"addr:district": "Mumbai Suburban", "addr:full": "Kamal Charan Building, 180, Road Number 2, Jawahar Nagar, Goregaon West, Mumbai", "addr:postcode": "400062", "addr:state": "Maharastra", "amenity": "hospital", "name": "SRV Hospital", "source": "Local Knowledge"}}, {"type": "node", "id": 7663961461, "lat": 19.1566348, "lon": 72.8466609, "tags": {"addr:district": "Mumbai Suburban", "addr:full": "Jawahar Nagar, Goregaon West, Mumbai", "addr:postcode": "400104", "addr:state": "Maharastra", "amenity": "hospital", "name": "Suvidha Hospital & PolyClinic", "source": "Local Knowledge"}}, {"type": "node", "id": 7663961462, "lat": 19.101669, "lon": 72.848999, "tags": {"addr:district": "Mumbai Suburban", "addr:full": "Chittaranjan Road, Satsang CHSL, Navpada, Park Road, Vile Parle, Mumbai", "addr:postcode": "400057", "addr:state": "Maharastra", "amenity": "hospital", "healthcare": "hospital", "name": "Dr. Wagh Maternity Hospital", "source": "Local Knowledge"}}, {"type": "node", "id": 7663961465, "lat": 19.103219, "lon": 72.834862, "tags": {"addr:district": "Mumbai Suburban", "addr:full": "V. L Vaikunthlal Mehta Road, JVPD Scheme, Vile Parle", "addr:postcode": "400056", "addr:state": "Maharastra", "amenity": "hospital", "healthcare": "hospital", "name": "Sunridges Speciality Hospital", "operator": "Private", "operator:type": "private", "source": "Local Knowledge"}}, {"type": "node", "id": 7663961468, "lat": 19.1369167, "lon": 72.8564586, "tags": {"addr:district": "Mumbai Suburban", "addr:full": "Caves Road, Janta Nagar, Gandhi Nagar Society, Harijan Nagar Nagar, Jogeshwari East, Mumbai", "addr:postcode": "400060", "addr:state": "Maharastra", "amenity": "hospital", "healthcare": "hospital", "name": "Balthakra Sahara Jogeshwari Hospital", "source": "Local Knowledge"}}, {"type": "node", "id": 7663961473, "lat": 19.1447706, "lon": 72.8431122, "tags": {"addr:district": "Mumbai Suburban", "addr:full": "Sufi Sayed Kamal Ahmed Marg, Khoja Society, Vaishali Nagar, Jogeshwari, Mumbai", "addr:postcode": "400102", "addr:state": "Maharastra", "amenity": "hospital", "healthcare": "hospital", "name": "Ruby Hospital", "source": "Local Knowledge"}}, {"type": "node", "id": 7663961477, "lat": 19.1437117, "lon": 72.8426357, "tags": {"addr:district": "Mumbai Suburban", "addr:full": "Mathra Apartment, Swami Vivekanand Marg, Beside Jain Mandir, Jogeshwari, Mumbai", "addr:postcode": "400102", "addr:state": "Maharastra", "amenity": "hospital", "healthcare": "hospital", "name": "Noor Nursing Home", "source": "Local Knowledge"}}, {"type": "node", "id": 7663961482, "lat": 19.1002971, "lon": 72.8829976, "tags": {"addr:district": "Mumbai Suburban", "addr:full": "Behind Sakinaka Telephone Exchange, Safed Pul, Saki Naka, Mumbai", "addr:postcode": "400072", "addr:state": "Maharastra", "amenity": "hospital", "name": "Central Hospital & Child Care Centre", "source": "Local Knowledge"}}, {"type": "node", "id": 7663961484, "lat": 19.0994867, "lon": 72.8916481, "tags": {"addr:district": "Mumbai Suburban", "addr:full": "Raza Estate, Opp BMC School, Andheri Ghatkopar Link Road, Andheri East, Mumbai", "addr:postcode": "400072", "addr:state": "Maharastra", "amenity": "hospital", "name": "Apex Multi Speciality Hospital", "source": "Local Knowledge"}}, {"type": "node", "id": 7663961486, "lat": 19.097922, "lon": 72.892138, "tags": {"addr:district": "Mumbai Suburban", "addr:full": "Sir Mathuradas Vasanji Road, Lokmanya Tilak Nagar, Saki Naka, Mumbai", "addr:postcode": "400072", "addr:state": "Maharastra", "amenity": "hospital", "name": "Mohili Village Municipal Hospital", "source": "Local Knowledge"}}, {"type": "node", "id": 7663961488, "lat": 19.1372927, "lon": 72.8541522, "tags": {"addr:district": "Mumbai Suburban", "addr:full": "S. K. Apartment, Building, 2, 10, Dalwal Compound Gumpha Road, Near Police Station, Bandrekar Wadi, Jogeshwari East, Mumbai", "addr:postcode": "400060", "addr:state": "Maharastra", "amenity": "hospital", "name": "Shalyak Hospital", "source": "Local Knowledge"}}, {"type": "node", "id": 7663961489, "lat": 19.129543, "lon": 72.853012, "tags": {"addr:district": "Mumbai Suburban", "addr:full": "Bin Apartment, Natwar Nagar, Mogra Village, Jogeshwari East, Near Bhandari Bank, Mumbai", "addr:postcode": "400060", "addr:state": "Maharastra", "amenity": "hospital", "name": "Hajari Hospital", "source": "Local Knowledge"}}, {"type": "node", "id": 7663961490, "lat": 19.1450501, "lon": 72.8436497, "tags": {"addr:district": "Mumbai Suburban", "addr:full": "Dreamland Apartments, 1st, Govindji Shroff Marg, Vaishali Nagar, Jogeshwari, Mumbai", "addr:postcode": "400102", "addr:state": "Maharastra", "amenity": "hospital", "healthcare": "hospital", "name": "Fathima Children Hospital & Criticare Centre", "source": "Local Knowledge"}}, {"type": "node", "id": 7663961492, "lat": 19.1070662, "lon": 72.8920753, "tags": {"addr:district": "Mumbai Suburban", "addr:full": "Khairani Road, Ansa Industrial Estate, Chandivali, Asalpha, Mumbai", "addr:postcode": "400072", "addr:state": "Maharastra", "amenity": "hospital", "name": "Asmira Hospital", "source": "Local Knowledge"}}, {"type": "node", "id": 8582767492, "lat": 19.1662744, "lon": 72.8543028}, {"type": "node", "id": 8582767493, "lat": 19.1662691, "lon": 72.8544}, {"type": "node", "id": 8582767494, "lat": 19.166134, "lon": 72.8544123}, {"type": "node", "id": 8582767495, "lat": 19.1661308, "lon": 72.854305}, {"type": "node", "id": 8797130860, "lat": 19.1401815, "lon": 72.842786, "tags": {"addr:district": "Mumbai", "addr:full": "Shastri Nagar, Jogeshwari West, Mumbai", "addr:postcode": "400062", "addr:state": "Maharashtra", "amenity": "hospital", "healthcare": "hospital", "name": "Millat Dialysis Center", "source": "Local Knowledge"}}, {"type": "node", "id": 8797161232, "lat": 19.1372345, "lon": 72.8564975, "tags": {"addr:district": "Mumbai", "addr:full": "Shiv Kunj, Dhobi Ghat, Jogeshwari East, Mumbai", "addr:postcode": "400060", "addr:state": "Maharashtra", "amenity": "hospital", "healthcare": "hospital", "name": "matoshri umabai RANE hospital", "source": "Local Knowledge"}}, {"type": "node", "id": 8797904410, "lat": 19.1304842, "lon": 72.8720801, "tags": {"addr:district": "Mumbai", "addr:full": "Sunder Nagar, Jogeshwari East", "addr:postcode": "400093", "addr:state": "Maharashtra", "amenity": "hospital", "healthcare": "hospital", "name": "BMC arogya Kendra", "source": "Local Knowledge"}}, {"type": "node", "id": 8798069854, "lat": 19.1053464, "lon": 72.887139, "tags": {"addr:district": "Mumbai", "addr:full": "5th Floor, 'A' Wing, Pranik Chamber, Marol, Andheri East, Mumbai", "addr:postcode": "400072", "addr:state": "Maharashtra", "amenity": "hospital", "name": "Axon Hospital & Dialysis Center", "source": "Local Knowledge"}}, {"type": "node", "id": 8801598781, "lat": 19.0997223, "lon": 72.8463493, "tags": {"addr:district": "Mumbai", "addr:full": "Plot No. 77, Vile Parle, Mumbai", "addr:postcode": "400057", "addr:state": "Maharashtra", "amenity": "hospital", "name": "Babasaheb Gawde Hospital", "source": "Local Knowledge"}}, {"type": "node", "id": 8816508984, "lat": 19.1172807, "lon": 72.8504612, "tags": {"addr:district": "Thane", "addr:full": "Plot No 516, Teli Gali, Andheri East", "addr:postcode": "400069", "addr:state": "Maharashtra", "amenity": "hospital", "name": "CritiCare Hospital", "source": "Local Knowledge"}}, {"type": "node", "id": 8878325460, "lat": 19.1208876, "lon": 72.8915118}, {"type": "node", "id": 8878325461, "lat": 19.1210112, "lon": 72.8911999}, {"type": "node", "id": 8878325462, "lat": 19.1214471, "lon": 72.8913528}, {"type": "node", "id": 8878325463, "lat": 19.1213437, "lon": 72.8916779}, {"type": "node", "id": 9215424189, "lat": 19.1362893, "lon": 72.8273781, "tags": {"addr:district": "Mumbai", "addr:full": "Suresh Nagar, Andheri West, Mumbai", "addr:postcode": "400047", "addr:state": "Maharashtra", "amenity": "hospital", "description": "Private Hospital", "healthcare": "hospital", "name": "Axis Orthopaedic Hospital", "source": "Local Knowledge"}}, {"type": "node", "id": 9215979185, "lat": 19.1469381, "lon": 72.829265, "tags": {"addr:district": "Mumbai", "addr:full": "Unit-3 1st Flore, Samrath Vaibhav' Off-K.L Walawalkar Marg, Oshiwara Lokhandwala", "addr:postcode": "400053", "addr:state": "Maharashtra", "amenity": "hospital", "healthcare": "hospital", "name": "Clear Vision Eye Care", "source": "OpenGovernmentData"}}, {"type": "node", "id": 9507341378, "lat": 19.1210624, "lon": 72.8270276}, {"type": "node", "id": 9533834652, "lat": 19.131246, "lon": 72.824559, "tags": {"amenity": "hospital", "healthcare": "hospital", "name": "Kokilaben Dhirubhai Ambani Hospital"}}, {"type": "node", "id": 10273976408, "lat": 19.1198836, "lon": 72.8348356}, {"type": "node", "id": 10273979009, "lat": 19.1198581, "lon": 72.8358176}, {"type": "node", "id": 10273979010, "lat": 19.1197415, "lon": 72.8359196}, {"type": "node", "id": 10273979011, "lat": 19.1188571, "lon": 72.8359169}, {"type": "node", "id": 10273979012, "lat": 19.1188903, "lon": 72.8348451}, {"type": "node", "id": 11192643417, "lat": 19.1108158, "lon": 72.8690282, "tags": {"amenity": "hospital", "healthcare": "hospital", "healthcare:speciality": "vaccination", "name": "Nursing Home"}}, {"type": "node", "id": 11426731276, "lat": 19.1079187, "lon": 72.8408635, "tags": {"amenity": "hospital", "name": "KLS Memorial Hospital"}}, {"type": "node", "id": 12688155437, "lat": 19.1059731, "lon": 72.8414741, "tags": {"addr:city": "Mumbai", "addr:country": "IN", "addr:district": "Mumbai", "addr:housenumber": "201, Sapphire Plaza", "addr:postcode": "400053", "addr:street": "Dadabhai Road", "amenity": "hospital", "description": "Centre for Dermatology & Lasers", "emergency": "no", "healthcare": "hospital", "healthcare:speciality": "dermatology;dermatovenereology", "level": "2", "mobile": "+91-9136095925", "name": "Auro Skin Clinic", "opening_hours": "Mo-Sa 10:00-18:00", "operator": "Dr Avina Jain", "operator:type": "business", "payment:american_express": "yes", "payment:cash": "yes", "payment:contactless": "yes", "payment:credit_cards": "yes", "payment:debit_cards": "yes", "payment:google_pay": "yes", "payment:mastercard": "yes", "payment:visa": "yes", "website": "https://www.auroskin.in"}}, {"type": "node", "id": 13088720350, "lat": 19.1100931, "lon": 72.8642165, "tags": {"amenity": "hospital", "emergency": "yes", "healthcare": "hospital", "name": "goel hospital"}}, {"type": "node", "id": 13312852815, "lat": 19.1105125, "lon": 72.8417026}, {"type": "node", "id": 13312852816, "lat": 19.1104281, "lon": 72.841681}, {"type": "node", "id": 13312852817, "lat": 19.1103582, "lon": 72.8417642}, {"type": "node", "id": 13312852818, "lat": 19.1103524, "lon": 72.8424051}, {"type": "node", "id": 13312852819, "lat": 19.1106828, "lon": 72.8421339}, {"type": "node", "id": 13430184140, "lat": 19.1624076, "lon": 72.8345101, "tags": {"amenity": "hospital", "healthcare": "hospital", "name": "GDHGDHGF"}}, {"type": "way", "id": 143950812, "nodes": [1575266025, 1575266022, 1575266020, 1575266023, 1575266025], "tags": {"amenity": "hospital", "healthcare": "hospital", "name": "Karbhari"}}, {"type": "way", "id": 150491113, "nodes": [1633985199, 1633985129, 1633985202, 1633985153, 1633985170, 1633985121, 1633985191, 1633985126, 1633985162, 1633985205, 1633985123, 1633985155, 1633985122, 1633985199], "tags": {"addr:city": "Mumbai", "addr:housenumber": "Kokilaben Dhirubhai Ambani Hospital,madha near gyan kendra schhool", "addr:postcode": "400053", "addr:street": "Jai Prakash Road", "amenity": "hospital", "emergency": "yes", "healthcare": "hospital", "name": "sathya udaiyar", "operator": "sathya", "operator:type": "public"}}, {"type": "way", "id": 152357350, "nodes": [1651803192, 1651803190, 1651803188, 1651803187, 1651803189, 1651803191, 1651803192], "tags": {"amenity": "hospital", "name": "Holy Spirit Hospital", "wikidata": "Q5886261", "wikipedia": "en:Holy Spirit Hospital (Mumbai)"}}, {"type": "way", "id": 353426775, "nodes": [3592053136, 3592053135, 3592053137, 3592053138, 2308143720, 3592053124, 3592053117, 3592053118, 3592053121, 3592053122, 3592053119, 3592053120, 3592053126, 3592053127, 3592053131, 3592053130, 3592053133, 3592053134, 3592053136], "tags": {"addr:district": "Mumbai", "addr:full": "Ashoka Place, First Floor, Makranipada Road, Off Jitendra Road, Malad East", "addr:postcode": "400097", "addr:state": "Maharashtra", "amenity": "hospital", "building": "hospital", "emergency": "yes", "name": "Ashoka General Hospital I.C.C.U and Maternity Home", "source": "OpenGovernmentData"}}, {"type": "way", "id": 353815190, "nodes": [3596174444, 3642528551, 3642528546, 3642528547, 3642528552, 3596174445, 3596174405, 3596174404, 3596174444], "tags": {"addr:street": "turel pakhadi road", "amenity": "hospital", "healthcare": "hospital", "name": "janhavi nursing home"}}, {"type": "way", "id": 354802397, "nodes": [3604756977, 3604756979, 3604756953, 3604756952, 3604756954, 3604756955, 3604756974, 3604756973, 3604756977], "tags": {"addr:city": "Mumbai", "addr:district": "Mumbai Suburban", "addr:postcode": "400063", "addr:street": "Film City Road", "amenity": "hospital", "emergency": "yes", "healthcare": "hospital", "healthcare:speciality": "emergency;dental_oral_maxillo_facial_surgery;psychiatry", "name": "Radha Krishna Hospital"}}, {"type": "way", "id": 356531751, "nodes": [3619454231, 3619454234, 3619454222, 3619454221, 3619454231], "tags": {"addr:city": "Mumbai", "addr:postcode": "400059", "addr:street": "Maroshi Village Road, vijay nagar LT", "amenity": "hospital", "healthcare": "hospital", "name": "Gokul maternity and Surgical home"}}, {"type": "way", "id": 356531771, "nodes": [3619454172, 3619454171, 3619454151, 3619454153, 3619454172], "tags": {"addr:city": "Mumbai", "addr:housenumber": "LT 3/2+3+4 Sushrut Maternity Hospital, Ground Floor, Vijay Nagar", "addr:postcode": "400059", "addr:street": "Marol Maroshi Village Road", "amenity": "hospital", "description": "The Vein Center is a chain vascular clinic located in Mumbai, India that specializes in the diagnosis and treatment of varicose vein related disorders. As a vascular interventional radiology center, it offers a range of services for the non-surgical treat", "emergency": "yes", "healthcare": "hospital", "healthcare:speciality": "vascular_surgery", "name": "The Vein Center Andheri", "operator": "Dr Joshi Vein Center LLP", "operator:type": "private", "phone": "+918080866266", "source": "local knowledge", "start_date": "2013-01-03", "website": "https://tvcm.in"}}, {"type": "way", "id": 395048290, "nodes": [3979327153, 3979327152, 3979327151, 9507341378, 3979327149, 3979327153], "tags": {"addr:city": "mumbai", "addr:postcode": "400053", "addr:street": "N Dutta Road", "amenity": "hospital", "building": "yes", "healthcare": "hospital", "name": "Thunga"}}, {"type": "way", "id": 554967613, "nodes": [5355278566, 5355278565, 5355278564, 5355278563, 5355278562, 5355278561, 5355278566], "tags": {"addr:city": "Mumbai", "addr:district": "Mumbai", "addr:full": "Hindu Hruday Samrat Balasaheb Thackerey Trauma Care, Opposite Jogeshwari Vikhroli Link Road, Jogeshwari East", "addr:postcode": "400060", "addr:state": "Maharashtra", "addr:street": "Western Express Highway", "amenity": "hospital", "healthcare": "hospital", "healthcare:speciality": "trauma", "name": "Hindu Hruday Samrat Balasaheb Thackerey Trauma Care Municipal Hospital", "name:etymology:wikidata": "Q61193", "opening_hours": "Mo-Su 07:00-23:00", "source": "OpenGovernmentData"}}, {"type": "way", "id": 628890939, "nodes": [5937631038, 5937631037, 5937631036, 5937631035, 5937631034, 5937631033, 5937631032, 5937631031, 5937631038], "tags": {"amenity": "hospital", "name": "Aarey Hospital"}}, {"type": "way", "id": 924798584, "nodes": [8582767492, 8582767493, 8582767494, 8582767495, 8582767492], "tags": {"addr:city": "Mumbai", "addr:postcode": "400063", "addr:street": "Aarey Road", "amenity": "hospital", "healthcare": "hospital", "healthcare:speciality": "maternity", "name": "Yashada Maternity and Nursing Home"}}, {"type": "way", "id": 959572919, "nodes": [8878325463, 8878325462, 8878325461, 8878325460, 8878325463], "tags": {"addr:district": "Mumbai", "addr:full": "Tunga, Powai, Andheri East, Mumbai", "addr:postcode": "400072", "addr:state": "Maharashtra", "amenity": "hospital", "name": "Nirali A M Naik Charitable Health-Care Facility", "name:etymology:wikidata": "Q2121969", "source": "Local Knowledge"}}, {"type": "way", "id": 1123412924, "nodes": [10273976408, 10273979012, 10273979011, 10273979010, 10273979009, 10273976408], "tags": {"addr:district": "Mumbai Suburban", "addr:full": "Gulmohar Road, Gulmohar Colony, Andheri West, Mumbai", "addr:postcode": "400058", "addr:state": "Maharastra", "amenity": "hospital", "name": "Khubchandani Hospital", "source": "Local Knowledge"}}, {"type": "way", "id": 1451543691, "nodes": [13312852815, 13312852816, 13312852817, 13312852818, 13312852819, 13312852815], "tags": {"addr:district": "Mumbai", "addr:housenumber": "1234", "addr:postcode": "400058", "addr:street": "Swami Vivekanand Road", "amenity": "hospital", "emergency": "yes", "healthcare": "hospital", "healthcare:speciality": "general;psychiatry", "name": "hehehe", "operator": "wert"}}]}