{"version": 0.6, "generator": "Overpass API 0.7.62.8 e802775f", "osm3s": {"timestamp_osm_base": "2026-01-14T21:59:09Z", "copyright": "The data included in this document is from www.openstreetmap.org. The data is made available under ODbL."}, "elements": [{"type": "node", "id": 10288561, "lat": 55.8174057, "lon": -4.1561259}, {"type": "node", "id": 10288562, "lat": 55.8176198, "lon": -4.1623439}, {"type": "node", "id": 10288563, "lat": 55.8182087, "lon": -4.1664218}, {"type": "node", "id": 10288564, "lat": 55.8224219, "lon": -4.1790643}, {"type": "node", "id": 10288565, "lat": 55.824845, "lon": -4.1836421}, {"type": "node", "id": 10288566, "lat": 55.8277456, "lon": -4.1912722}, {"type": "node", "id": 10288568, "lat": 55.8286107, "lon": -4.1981314, "tags": {"railway": "switch", "railway:switch:electric": "yes", "railway:switch:heated": "yes", "railway:switch:hydraulic": "yes", "railway:switch:local_operated": "no", "ref": "980B"}}, {"type": "node", "id": 10288569, "lat": 55.8289974, "lon": -4.2015044}, {"type": "node", "id": 10288570, "lat": 55.8305687, "lon": -4.2215571}, {"type": "node", "id": 10288571, "lat": 55.8308302, "lon": -4.2237525}, {"type": "node", "id": 10288572, "lat": 55.8313665, "lon": -4.2266308}, {"type": "node", "id": 10288573, "lat": 55.8316779, "lon": -4.2278849}, {"type": "node", "id": 10288576, "lat": 55.8348459, "lon": -4.2372221}, {"type": "node", "id": 10288581, "lat": 55.8391723, "lon": -4.2497265}, {"type": "node", "id": 27554081, "lat": 55.847802, "lon": -4.2241412}, {"type": "node", "id": 27554561, "lat": 55.8317911, "lon": -4.2140265}, {"type": "node", "id": 27554562, "lat": 55.8302147, "lon": -4.2120294}, {"type": "node", "id": 28990549, "lat": 55.8238402, "lon": -4.171349, "tags": {"created_by": "JOSM"}}, {"type": "node", "id": 30558629, "lat": 55.8194533, "lon": -4.1730177, "tags": {"name": "Cambuslang", "name:gd": "Camas Long", "naptan:AtcoCode": "9100CMBSLNG", "network": "National Rail", "network:website": "https://www.nationalrail.co.uk/stations/cbl/", "network:wikidata": "Q26334", "operator": "ScotRail", "operator:website": "https://www.scotrail.co.uk/plan-your-journey/stations-and-facilities/cbl", "operator:wikidata": "Q18356161", "public_transport": "station", "railway": "station", "ref:crs": "CBL", "train": "yes", "wheelchair": "yes", "wikidata": "Q2282954", "wikipedia": "en:Cambuslang railway station"}}, {"type": "node", "id": 30558631, "lat": 55.8352668, "lon": -4.2150991}, {"type": "node", "id": 30558634, "lat": 55.8364052, "lon": -4.2155589}, {"type": "node", "id": 30558637, "lat": 55.8424075, "lon": -4.2175461}, {"type": "node", "id": 30558640, "lat": 55.8395806, "lon": -4.2171884}, {"type": "node", "id": 30564088, "lat": 55.8132217, "lon": -4.1616286}, {"type": "node", "id": 30564089, "lat": 55.8135771, "lon": -4.1655117}, {"type": "node", "id": 30564090, "lat": 55.8143843, "lon": -4.1691575}, {"type": "node", "id": 30564092, "lat": 55.8140211, "lon": -4.1673196, "tags": {"name": "Kirkhill", "public_transport": "stop_position", "railway": "stop", "ref": "2", "train": "yes"}}, {"type": "node", "id": 30564094, "lat": 55.8147603, "lon": -4.1766097}, {"type": "node", "id": 30564095, "lat": 55.8150977, "lon": -4.1790671}, {"type": "node", "id": 30564098, "lat": 55.8153488, "lon": -4.1919704}, {"type": "node", "id": 30564099, "lat": 55.8159113, "lon": -4.1955127}, {"type": "node", "id": 30564101, "lat": 55.8168097, "lon": -4.200128}, {"type": "node", "id": 30564102, "lat": 55.8169392, "lon": -4.2031241, "tags": {"name": "Burnside", "name:gd": "Taobh an Uillt", "naptan:AtcoCode": "9100BRSDE", "network": "National Rail", "network:website": "https://www.nationalrail.co.uk/stations/bui/", "network:wikidata": "Q26334", "operator": "ScotRail", "operator:website": "https://www.scotrail.co.uk/plan-your-journey/stations-and-facilities/bui", "operator:wikidata": "Q18356161", "public_transport": "station", "railway": "station", "ref:crs": "BUI", "source": "npe", "train": "yes", "wikidata": "Q5000163", "wikipedia": "en:Burnside railway station"}}, {"type": "node", "id": 30564103, "lat": 55.816715, "lon": -4.2060378}, {"type": "node", "id": 30564104, "lat": 55.8162873, "lon": -4.2090088}, {"type": "node", "id": 30564105, "lat": 55.8164529, "lon": -4.2128906}, {"type": "node", "id": 30564107, "lat": 55.8182468, "lon": -4.2282424, "tags": {"name": "Croftfoot", "name:gd": "Bun na Croite", "naptan:AtcoCode": "9100CFFT", "network": "National Rail", "network:website": "https://www.nationalrail.co.uk/stations/cff/", "network:wikidata": "Q26334", "operator": "ScotRail", "operator:website": "https://www.scotrail.co.uk/plan-your-journey/stations-and-facilities/cff", "operator:wikidata": "Q18356161", "public_transport": "station", "railway": "station", "ref:crs": "CFF", "source": "npe", "train": "yes", "wikidata": "Q5149191", "wikipedia": "en:Croftfoot railway station"}}, {"type": "node", "id": 30564109, "lat": 55.817875, "lon": -4.2219415}, {"type": "node", "id": 30564111, "lat": 55.8191889, "lon": -4.2418069}, {"type": "node", "id": 30736970, "lat": 55.8285002, "lon": -4.1905534}, {"type": "node", "id": 30736972, "lat": 55.8296534, "lon": -4.1858008}, {"type": "node", "id": 30736974, "lat": 55.8302161, "lon": -4.1835324}, {"type": "node", "id": 30736976, "lat": 55.8306757, "lon": -4.1804655}, {"type": "node", "id": 30736978, "lat": 55.8308235, "lon": -4.1777363}, {"type": "node", "id": 30736979, "lat": 55.831045, "lon": -4.1736697}, {"type": "node", "id": 30736980, "lat": 55.8314872, "lon": -4.1695337}, {"type": "node", "id": 198225249, "lat": 55.8169433, "lon": -4.2014723}, {"type": "node", "id": 198225253, "lat": 55.816923, "lon": -4.2012196}, {"type": "node", "id": 198225259, "lat": 55.816717, "lon": -4.2144935}, {"type": "node", "id": 198225263, "lat": 55.8168301, "lon": -4.215233}, {"type": "node", "id": 246846945, "lat": 55.8282743, "lon": -4.193046}, {"type": "node", "id": 246846947, "lat": 55.8260659, "lon": -4.1861135}, {"type": "node", "id": 246846948, "lat": 55.8269907, "lon": -4.1884998}, {"type": "node", "id": 246846953, "lat": 55.8300656, "lon": -4.21103, "tags": {"railway": "switch"}}, {"type": "node", "id": 246846962, "lat": 55.8304352, "lon": -4.2203677}, {"type": "node", "id": 246846963, "lat": 55.830042, "lon": -4.2154898}, {"type": "node", "id": 246847060, "lat": 55.8321401, "lon": -4.2143702, "tags": {"crossing:barrier": "no", "railway": "level_crossing"}}, {"type": "node", "id": 246847061, "lat": 55.8334375, "lon": -4.2143665, "tags": {"railway": "switch", "railway:switch:electric": "yes", "railway:switch:heated": "yes", "railway:switch:local_operated": "no", "ref": "989"}}, {"type": "node", "id": 246847273, "lat": 55.8312289, "lon": -4.2137187}, {"type": "node", "id": 254354507, "lat": 55.8313375, "lon": -4.2136804, "tags": {"brand": "Scotland's Railway", "brand:wikidata": "Q136406287", "fare_zone": "SPT Zone 1", "name": "Rutherglen", "name:gd": "An Ruadh-Ghleann", "naptan:AtcoCode": "9100RTHGLEN", "network": "National Rail", "network:website": "https://www.nationalrail.co.uk/stations/rut/", "network:wikidata": "Q26334", "operator": "ScotRail", "operator:website": "https://www.scotrail.co.uk/plan-your-journey/stations-and-facilities/rut", "operator:wikidata": "Q18356161", "owner": "Network Rail", "owner:wikidata": "Q1501071", "platforms": "2", "public_transport": "station", "public_transport:version": "2", "railway": "station", "ref:crs": "RUT", "train": "yes", "wikidata": "Q950714", "wikipedia": "en:Rutherglen railway station"}}, {"type": "node", "id": 257013480, "lat": 55.8151868, "lon": -4.1876724}, {"type": "node", "id": 257018365, "lat": 55.8264848, "lon": -4.1871006}, {"type": "node", "id": 257018368, "lat": 55.8263056, "lon": -4.1866535}, {"type": "node", "id": 257044858, "lat": 55.830004, "lon": -4.2116006}, {"type": "node", "id": 257044859, "lat": 55.8300314, "lon": -4.2134499}, {"type": "node", "id": 257044860, "lat": 55.8301218, "lon": -4.2171093}, {"type": "node", "id": 267045330, "lat": 55.8384155, "lon": -4.2168735}, {"type": "node", "id": 267045334, "lat": 55.8209983, "lon": -4.1767076}, {"type": "node", "id": 293937914, "lat": 55.8300355, "lon": -4.2104668}, {"type": "node", "id": 313301233, "lat": 55.8428617, "lon": -4.2177675}, {"type": "node", "id": 313301234, "lat": 55.8413384, "lon": -4.2173951}, {"type": "node", "id": 375755412, "lat": 55.816957, "lon": -4.2041443}, {"type": "node", "id": 375755423, "lat": 55.8166659, "lon": -4.1991409}, {"type": "node", "id": 540431355, "lat": 55.8155363, "lon": -4.1935025}, {"type": "node", "id": 540431356, "lat": 55.8155997, "lon": -4.1939121}, {"type": "node", "id": 560794706, "lat": 55.8168792, "lon": -4.2035733}, {"type": "node", "id": 560794707, "lat": 55.8168682, "lon": -4.2020788}, {"type": "node", "id": 560794708, "lat": 55.8169829, "lon": -4.2023803}, {"type": "node", "id": 560794709, "lat": 55.8169895, "lon": -4.2028246}, {"type": "node", "id": 560794710, "lat": 55.8169793, "lon": -4.2034522}, {"type": "node", "id": 560794711, "lat": 55.8168633, "lon": -4.204218}, {"type": "node", "id": 560794712, "lat": 55.8169215, "lon": -4.2020761}, {"type": "node", "id": 560794713, "lat": 55.8169691, "lon": -4.2020682}, {"type": "node", "id": 565752402, "lat": 55.8225851, "lon": -4.1830325, "tags": {"highway": "bus_stop", "name": "Burn Terrace", "naptan:AtcoCode": "61501386", "naptan:Bearing": "S", "naptan:CommonName": "Burn Terrace", "naptan:Indicator": "Opp County Inn", "naptan:Landmark": "County Inn", "naptan:NaptanCode": "75234594", "naptan:PlusbusZoneRef": "GLGC", "naptan:Street": "Dukes Road", "naptan:verified": "no", "source": "naptan_import"}}, {"type": "node", "id": 565752422, "lat": 55.8250126, "lon": -4.1855155, "tags": {"highway": "bus_stop", "name": "Whinfield Avenue", "naptan:AtcoCode": "61501403", "naptan:Bearing": "NW", "naptan:CommonName": "Whinfield Avenue", "naptan:Indicator": "before Whinfield Avenue", "naptan:Landmark": "Whinfield Avenue", "naptan:NaptanCode": "75236846", "naptan:PlusbusZoneRef": "GLGC", "naptan:Street": "Cambuslang Road", "naptan:verified": "no", "source": "naptan_import"}}, {"type": "node", "id": 565752423, "lat": 55.8151327, "lon": -4.2157844, "tags": {"bus": "yes", "highway": "bus_stop", "name": "Fernhill Road", "naptan:AtcoCode": "61501405", "naptan:Bearing": "E", "naptan:CommonName": "Fernhill Road", "naptan:Indicator": "Near Fernhill Road", "naptan:Landmark": "Fernhill Road", "naptan:NaptanCode": "75235426", "naptan:PlusbusZoneRef": "GLGC", "naptan:Street": "Croftfoot Road", "naptan:verified": "no", "public_transport": "platform", "source": "naptan_import"}}, {"type": "node", "id": 565752470, "lat": 55.8283526, "lon": -4.2088398, "tags": {"bus": "yes", "highway": "bus_stop", "name": "Caledonia Aenue", "naptan:AtcoCode": "61501462", "naptan:Bearing": "W", "naptan:CommonName": "Caledonia Aenue", "naptan:Indicator": "At Caledonia Avenue", "naptan:Landmark": "Caledonia Avenue", "naptan:NaptanCode": "75232895", "naptan:PlusbusZoneRef": "GLGC", "naptan:Street": "Main Street", "naptan:verified": "no", "public_transport": "platform", "source": "naptan_import"}}, {"type": "node", "id": 565752482, "lat": 55.821519, "lon": -4.2095061, "tags": {"bus": "yes", "highway": "bus_stop", "name": "Stonelaw Road", "naptan:AtcoCode": "61501487", "naptan:Bearing": "NE", "naptan:CommonName": "Stonelaw Road", "naptan:Indicator": "Near Stonelaw Road", "naptan:Landmark": "Stonelaw Road", "naptan:NaptanCode": "75235697", "naptan:PlusbusZoneRef": "GLGC", "naptan:Street": "Rodger Drive", "naptan:verified": "no", "public_transport": "platform", "source": "naptan_import"}}, {"type": "node", "id": 565752483, "lat": 55.8213505, "lon": -4.2098797, "tags": {"bus": "yes", "highway": "bus_stop", "name": "Broomieknowe Road", "naptan:AtcoCode": "61501488", "naptan:Bearing": "SW", "naptan:CommonName": "Broomieknowe Road", "naptan:Indicator": "Near Broomieknowe Road", "naptan:Landmark": "Broomieknowe Road", "naptan:NaptanCode": "75235965", "naptan:PlusbusZoneRef": "GLGC", "naptan:Street": "Rodger Drive", "naptan:verified": "no", "public_transport": "platform", "source": "naptan_import"}}, {"type": "node", "id": 565752504, "lat": 55.8204312, "lon": -4.1772764, "tags": {"highway": "bus_stop", "name": "Buchanan Drive", "naptan:AtcoCode": "61501509", "naptan:Bearing": "NW", "naptan:CommonName": "Buchanan Drive", "naptan:Indicator": "Near Buchanan Drive", "naptan:Landmark": "Buchanan Drive", "naptan:NaptanCode": "75236765", "naptan:PlusbusZoneRef": "GLGC", "naptan:Street": "Glasgow Road", "naptan:verified": "no", "source": "naptan_import"}}, {"type": "node", "id": 565752553, "lat": 55.8203711, "lon": -4.1933012, "tags": {"highway": "bus_stop", "name": "Calderwood Road", "naptan:AtcoCode": "61501547", "naptan:Bearing": "SW", "naptan:CommonName": "Calderwood Road", "naptan:Indicator": "Near Calderwood Road", "naptan:Landmark": "Calderwood Road", "naptan:NaptanCode": "75232323", "naptan:PlusbusZoneRef": "GLGC", "naptan:Street": "Greystone Avenue", "naptan:verified": "no", "source": "naptan_import"}}, {"type": "node", "id": 565752556, "lat": 55.8245313, "lon": -4.2049191, "tags": {"bench": "no", "bin": "no", "highway": "bus_stop", "name": "Lindores Drive", "naptan:AtcoCode": "61501548", "naptan:Bearing": "SW", "naptan:CommonName": "Lindores Drive", "naptan:Indicator": "At Lindores Drive", "naptan:Landmark": "Lindores Drive", "naptan:NaptanCode": "75236769", "naptan:PlusbusZoneRef": "GLGC", "naptan:Street": "Dryburgh Avenue", "naptan:verified": "no", "shelter": "no", "source": "naptan_import", "tactile_paving": "no"}}, {"type": "node", "id": 565752558, "lat": 55.8242478, "lon": -4.2076971, "tags": {"highway": "bus_stop", "name": "Wardlaw Avenue", "naptan:AtcoCode": "61501549", "naptan:Bearing": "SE", "naptan:BusStopType": "CUS", "naptan:CommonName": "Wardlaw Avenue", "naptan:Indicator": "At Wardlaw Avenue", "naptan:Landmark": "Wardlaw Avenue", "naptan:NaptanCode": "75236482", "naptan:Notes": "Custom opp b/w stop 6150572", "naptan:PlusbusZoneRef": "GLGC", "naptan:Street": "Dryburgh Avenue", "naptan:verified": "no", "source": "naptan_import"}}, {"type": "node", "id": 565752561, "lat": 55.8164111, "lon": -4.2246206, "tags": {"bus": "yes", "highway": "bus_stop", "name": "Dunure Drive", "naptan:AtcoCode": "61501550", "naptan:Bearing": "NE", "naptan:CommonName": "Dunure Drive", "naptan:Indicator": "Before and opposite Dunure Drive", "naptan:Landmark": "Dunure Drive", "naptan:NaptanCode": "75235682", "naptan:PlusbusZoneRef": "GLGC", "naptan:Street": "Kirkconnel Drive", "naptan:verified": "no", "public_transport": "platform", "source": "naptan_import"}}, {"type": "node", "id": 565752563, "lat": 55.8161752, "lon": -4.2227555, "tags": {"bus": "yes", "highway": "bus_stop", "name": "Carrick Road", "naptan:AtcoCode": "61501551", "naptan:Bearing": "SW", "naptan:CommonName": "Carrick Road", "naptan:Indicator": "Near Carrick Road", "naptan:Landmark": "Carrick Road", "naptan:NaptanCode": "75235932", "naptan:PlusbusZoneRef": "GLGC", "naptan:Street": "Kirkconnel Drive", "naptan:verified": "no", "public_transport": "platform", "source": "naptan_import"}}, {"type": "node", "id": 565752566, "lat": 55.8205741, "lon": -4.2275083, "tags": {"highway": "bus_stop", "name": "Kingsbridge Drive", "naptan:AtcoCode": "61501555", "naptan:Bearing": "N", "naptan:CommonName": "Kingsbridge Drive", "naptan:Indicator": "Near Kingsbridge Drive", "naptan:Landmark": "Kingsbridge Drive", "naptan:NaptanCode": "75236385", "naptan:PlusbusZoneRef": "GLGC", "naptan:Street": "Bankhead Road", "naptan:verified": "no", "source": "naptan_import"}}, {"type": "node", "id": 565752579, "lat": 55.8155725, "lon": -4.2033109, "tags": {"highway": "bus_stop", "name": "Crawfurd Avenue", "naptan:AtcoCode": "61501563", "naptan:Bearing": "W", "naptan:CommonName": "Crawfurd Avenue", "naptan:Indicator": "Near Crawfurd Avenue", "naptan:Landmark": "Crawfurd Avenue", "naptan:NaptanCode": "75234953", "naptan:PlusbusZoneRef": "GLGC", "naptan:Street": "Blairbeth Road", "naptan:verified": "no", "source": "naptan_import"}}, {"type": "node", "id": 565752582, "lat": 55.8096792, "lon": -4.1931146, "tags": {"highway": "bus_stop", "name": "Burnside Road", "naptan:AtcoCode": "61501564", "naptan:Bearing": "SE", "naptan:CommonName": "Burnside Road", "naptan:Indicator": "Near Burnside Road", "naptan:Landmark": "Burnside Road", "naptan:NaptanCode": "75234242", "naptan:PlusbusZoneRef": "GLGC", "naptan:Street": "Lochbrae Drive", "naptan:verified": "no", "source": "naptan_import"}}, {"type": "node", "id": 565752864, "lat": 55.8324696, "lon": -4.22327, "tags": {"bus": "yes", "highway": "bus_stop", "name": "Southcroft Road", "naptan:AtcoCode": "61501737", "naptan:Bearing": "NW", "naptan:CommonName": "Southcroft Road", "naptan:Indicator": "Before Southcroft Road", "naptan:Landmark": "New Glencairn Social Club", "naptan:NaptanCode": "75237424", "naptan:Street": "Glasgow Road", "naptan:verified": "no", "public_transport": "platform", "source": "naptan_import"}}, {"type": "node", "id": 565753292, "lat": 55.8093408, "lon": -4.1792904, "tags": {"bus": "yes", "highway": "bus_stop", "name": "Holmhills Road", "naptan:AtcoCode": "6150497", "naptan:Bearing": "SE", "naptan:CommonName": "Holmhills Road", "naptan:Indicator": "At Lawburn Inn", "naptan:Landmark": "Holmhills Road", "naptan:NaptanCode": "75235272", "naptan:PlusbusZoneRef": "GLGC", "naptan:Street": "Western Road", "naptan:verified": "no", "public_transport": "platform", "source": "naptan_import"}}, {"type": "node", "id": 565753293, "lat": 55.8094677, "lon": -4.1807498, "tags": {"bus": "yes", "highway": "bus_stop", "name": "Whitlawburn Road", "naptan:AtcoCode": "6150498", "naptan:Bearing": "NW", "naptan:CommonName": "Whitlawburn Road", "naptan:Indicator": "Opp Whitlawburn Road", "naptan:Landmark": "Whitlawburn Road", "naptan:NaptanCode": "75232365", "naptan:PlusbusZoneRef": "GLGC", "naptan:Street": "Western Road", "naptan:verified": "no", "public_transport": "platform", "source": "naptan_import"}}, {"type": "node", "id": 565753303, "lat": 55.8198143, "lon": -4.1735383, "tags": {"bus": "yes", "highway": "bus_stop", "name": "Beech Avenue", "naptan:AtcoCode": "6150505", "naptan:Bearing": "NW", "naptan:CommonName": "Beech Avenue", "naptan:Indicator": "Near Beech Avenue", "naptan:Landmark": "Beech Avenue", "naptan:NaptanCode": "75236353", "naptan:PlusbusZoneRef": "GLGC", "naptan:Street": "Main Street", "naptan:verified": "no", "public_transport": "platform", "source": "naptan_import"}}, {"type": "node", "id": 565753304, "lat": 55.8202793, "lon": -4.1726543, "tags": {"bench": "no", "bin": "no", "bus": "yes", "highway": "bus_stop", "lit": "no", "name": "Somervell Street", "naptan:AtcoCode": "6150506", "naptan:Bearing": "NE", "naptan:CommonName": "Somervell Street", "naptan:Indicator": "after Somervell Street", "naptan:Landmark": "Somervell Street", "naptan:NaptanCode": "75235858", "naptan:PlusbusZoneRef": "GLGC", "naptan:Street": "Bridge Street", "naptan:verified": "no", "public_transport": "platform", "shelter": "no", "source": "naptan_import", "tactile_paving": "no"}}, {"type": "node", "id": 565753305, "lat": 55.820776, "lon": -4.177599, "tags": {"highway": "bus_stop", "name": "Buchanan Drive", "naptan:AtcoCode": "6150507", "naptan:Bearing": "SE", "naptan:CommonName": "Buchanan Drive", "naptan:Indicator": "opp Buchanan Drive", "naptan:Landmark": "Buchanan Drive", "naptan:NaptanCode": "75232865", "naptan:PlusbusZoneRef": "GLGC", "naptan:Street": "Glasgow Road", "naptan:verified": "no", "source": "naptan_import"}}, {"type": "node", "id": 565753306, "lat": 55.821174, "lon": -4.1789782, "tags": {"highway": "bus_stop", "name": "Buchanan Drive", "naptan:AtcoCode": "6150508", "naptan:Bearing": "NW", "naptan:CommonName": "Buchanan Drive", "naptan:Indicator": "At Buchanan Drive", "naptan:Landmark": "Buchanan Drive", "naptan:NaptanCode": "75232837", "naptan:PlusbusZoneRef": "GLGC", "naptan:Street": "Glasgow Road", "naptan:verified": "no", "source": "naptan_import"}}, {"type": "node", "id": 565753307, "lat": 55.8222306, "lon": -4.1802187, "tags": {"highway": "bus_stop", "name": "Bothwell Street", "naptan:AtcoCode": "6150509", "naptan:Bearing": "SE", "naptan:CommonName": "Bothwell Street", "naptan:Indicator": "Opp Bothwell street", "naptan:Landmark": "Bothwell Street", "naptan:NaptanCode": "75236365", "naptan:PlusbusZoneRef": "GLGC", "naptan:Street": "Glasgow Road", "naptan:verified": "no", "source": "naptan_import"}}, {"type": "node", "id": 565753309, "lat": 55.8230187, "lon": -4.1813107, "tags": {"highway": "bus_stop", "name": "Dukes Road", "naptan:AtcoCode": "6150510", "naptan:Bearing": "NW", "naptan:CommonName": "Dukes Road", "naptan:Indicator": "At Dukes Road", "naptan:Landmark": "Dukes Road", "naptan:NaptanCode": "75234592", "naptan:PlusbusZoneRef": "GLGC", "naptan:Street": "Glasgow Road", "naptan:verified": "no", "source": "naptan_import"}}, {"type": "node", "id": 565753310, "lat": 55.8244612, "lon": -4.1836644, "tags": {"highway": "bus_stop", "name": "Glenpark Terrace", "naptan:AtcoCode": "6150511", "naptan:Bearing": "SE", "naptan:CommonName": "Glenpark Terrace", "naptan:Indicator": "Opp Glenpark Terrace", "naptan:Landmark": "Glenpark Terrace", "naptan:NaptanCode": "75234259", "naptan:PlusbusZoneRef": "GLGC", "naptan:Street": "Cambuslang Road", "naptan:verified": "no", "source": "naptan_import"}}, {"type": "node", "id": 565753311, "lat": 55.8254546, "lon": -4.1864344, "tags": {"highway": "bus_stop", "name": "Whinfield Avenue", "naptan:AtcoCode": "6150512", "naptan:Bearing": "SE", "naptan:CommonName": "Whinfield Avenue", "naptan:Indicator": "Opp Whinfield Avenue", "naptan:Landmark": "Whinfield Avenue", "naptan:NaptanCode": "75235232", "naptan:PlusbusZoneRef": "GLGC", "naptan:Street": "Cambuslang Road", "naptan:verified": "no", "source": "naptan_import"}}, {"type": "node", "id": 565753312, "lat": 55.825613, "lon": -4.1886466, "tags": {"highway": "bus_stop", "name": "Bogleshole Road", "naptan:AtcoCode": "6150513", "naptan:Bearing": "W", "naptan:CommonName": "Bogleshole Road", "naptan:Indicator": "Opp Bogleshole Road", "naptan:Landmark": "Bogleshole Road", "naptan:NaptanCode": "75234873", "naptan:PlusbusZoneRef": "GLGC", "naptan:Street": "Cambuslang Road", "naptan:verified": "no", "source": "naptan_import"}}, {"type": "node", "id": 565753313, "lat": 55.8258264, "lon": -4.1905476, "tags": {"highway": "bus_stop", "name": "Pebbles Drive", "naptan:AtcoCode": "6150514", "naptan:Bearing": "W", "naptan:CommonName": "Pebbles Drive", "naptan:Indicator": "After Pebbles Drive", "naptan:Landmark": "After Pebbles Drive", "naptan:NaptanCode": "75236797", "naptan:PlusbusZoneRef": "GLGC", "naptan:Street": "Cambuslang Road", "naptan:verified": "no", "source": "naptan_import"}}, {"type": "node", "id": 565753314, "lat": 55.8260216, "lon": -4.1909368, "tags": {"highway": "bus_stop", "name": "Broomfield Avenue", "naptan:AtcoCode": "6150515", "naptan:Bearing": "E", "naptan:CommonName": "Broomfield Avenue", "naptan:Indicator": "After Broomfield Avenue", "naptan:Landmark": "Bogleshole Road", "naptan:NaptanCode": "75232432", "naptan:PlusbusZoneRef": "GLGC", "naptan:Street": "Cambuslang Road", "naptan:verified": "no", "source": "naptan_import"}}, {"type": "node", "id": 565753315, "lat": 55.8277745, "lon": -4.1949474, "tags": {"highway": "bus_stop", "name": "Ballochmill Road", "naptan:AtcoCode": "6150516", "naptan:Bearing": "SE", "naptan:CommonName": "Ballochmill Road", "naptan:Indicator": "Past Ballochmill Road", "naptan:Landmark": "Ballochmill Road", "naptan:NaptanCode": "75232868", "naptan:PlusbusZoneRef": "GLGC", "naptan:Street": "Cambuslang Road", "naptan:verified": "no", "source": "naptan_import"}}, {"type": "node", "id": 565753316, "lat": 55.8273386, "lon": -4.1946993, "tags": {"highway": "bus_stop", "name": "Richmond Road", "naptan:AtcoCode": "6150517", "naptan:Bearing": "NW", "naptan:CommonName": "Richmond Road", "naptan:Indicator": "At Richmond Road", "naptan:Landmark": "Richmond Road", "naptan:NaptanCode": "75232698", "naptan:PlusbusZoneRef": "GLGC", "naptan:Street": "Cambuslang Road", "naptan:verified": "no", "source": "naptan_import"}}, {"type": "node", "id": 565753317, "lat": 55.8310085, "lon": -4.2018788, "tags": {"bus": "yes", "highway": "bus_stop", "name": "Cunninghame Road", "naptan:AtcoCode": "6150518", "naptan:Bearing": "SE", "naptan:CommonName": "Cunninghame Road", "naptan:Indicator": "Near Cunninghame Road", "naptan:Landmark": "Cunninghame Road", "naptan:NaptanCode": "75235268", "naptan:PlusbusZoneRef": "GLGC", "naptan:Street": "Cambuslang Road", "naptan:verified": "no", "public_transport": "platform", "source": "naptan_import"}}, {"type": "node", "id": 565753318, "lat": 55.8307492, "lon": -4.2014871, "tags": {"bus": "yes", "highway": "bus_stop", "name": "Duchess Place", "naptan:AtcoCode": "6150519", "naptan:Bearing": "NW", "naptan:CommonName": "Duchess Place", "naptan:Indicator": "Opp Duchess Place", "naptan:Landmark": "Duchess Place", "naptan:NaptanCode": "75235282", "naptan:PlusbusZoneRef": "GLGC", "naptan:Street": "Cambuslang Road", "naptan:verified": "no", "public_transport": "platform", "source": "naptan_import"}}, {"type": "node", "id": 565753320, "lat": 55.8315863, "lon": -4.203434, "tags": {"bus": "yes", "highway": "bus_stop", "name": "Duchess Road", "naptan:AtcoCode": "6150520", "naptan:Bearing": "SE", "naptan:CommonName": "Duchess Road", "naptan:Indicator": "At Duchess Road", "naptan:Landmark": "Duchess Road", "naptan:NaptanCode": "75235853", "naptan:PlusbusZoneRef": "GLGC", "naptan:Street": "Cambuslang Road", "naptan:verified": "no", "public_transport": "platform", "source": "naptan_import"}}, {"type": "node", "id": 565753323, "lat": 55.8319811, "lon": -4.2049734, "tags": {"bus": "yes", "highway": "bus_stop", "name": "Montraive Street", "naptan:AtcoCode": "6150521", "naptan:Bearing": "NW", "naptan:CommonName": "Montraive Street", "naptan:Indicator": "At Montraive Street", "naptan:Landmark": "Montraive Street", "naptan:NaptanCode": "75235286", "naptan:PlusbusZoneRef": "GLGC", "naptan:Street": "Cambuslang Road", "naptan:verified": "no", "public_transport": "platform", "source": "naptan_import"}}, {"type": "node", "id": 565753328, "lat": 55.8329626, "lon": -4.2073765, "tags": {"bus": "yes", "highway": "bus_stop", "name": "Bardonald Street", "naptan:AtcoCode": "6150522", "naptan:Bearing": "SE", "naptan:CommonName": "Bardonald Street", "naptan:Indicator": "Opp Smith Terrace", "naptan:Landmark": "Bardonald Street", "naptan:NaptanCode": "75232425", "naptan:PlusbusZoneRef": "GLGC", "naptan:Street": "Cambuslang Road", "naptan:verified": "no", "public_transport": "platform", "source": "naptan_import"}}, {"type": "node", "id": 565753331, "lat": 55.8363746, "lon": -4.2093935, "tags": {"bus": "yes", "highway": "bus_stop", "name": "Downiebrae Road", "naptan:AtcoCode": "6150525", "naptan:Bearing": "N", "naptan:CommonName": "Downiebrae Road", "naptan:Indicator": "Opp Downiebrae Road", "naptan:Landmark": "Downiebrae Road", "naptan:NaptanCode": "75235285", "naptan:PlusbusZoneRef": "GLGC", "naptan:Street": "Dalmarnock Road", "naptan:verified": "no", "public_transport": "platform", "source": "naptan_import"}}, {"type": "node", "id": 565753333, "lat": 55.8351148, "lon": -4.2086483, "tags": {"bus": "yes", "highway": "bus_stop", "name": "Bardonald Street", "naptan:AtcoCode": "6150526", "naptan:Bearing": "S", "naptan:CommonName": "Bardonald Street", "naptan:Indicator": "Near Bardonald Street", "naptan:Landmark": "Bardonald Street", "naptan:NaptanCode": "75234659", "naptan:PlusbusZoneRef": "GLGC", "naptan:Street": "Dalmarnock Road", "naptan:verified": "no", "public_transport": "platform", "source": "naptan_import"}}, {"type": "node", "id": 565753334, "lat": 55.8342984, "lon": -4.208595, "tags": {"bus": "yes", "highway": "bus_stop", "name": "Farme Cross", "naptan:AtcoCode": "6150527", "naptan:Bearing": "N", "naptan:CommonName": "Farme Cross", "naptan:Indicator": "Past Lloyd Street", "naptan:Landmark": "Lloyd Street", "naptan:NaptanCode": "75234634", "naptan:PlusbusZoneRef": "GLGC", "naptan:Street": "Dalmarnock Road", "naptan:verified": "no", "public_transport": "platform", "source": "naptan_import"}}, {"type": "node", "id": 565753335, "lat": 55.8326138, "lon": -4.208283, "tags": {"bus": "yes", "highway": "bus_stop", "name": "Farme Cross", "naptan:AtcoCode": "6150528", "naptan:Bearing": "SW", "naptan:CommonName": "Farme Cross", "naptan:Indicator": "At Lloyd Street", "naptan:Landmark": "Lloyd Street", "naptan:NaptanCode": "75232657", "naptan:PlusbusZoneRef": "GLGC", "naptan:Street": "Farmeloan Road", "naptan:verified": "no", "public_transport": "platform", "source": "naptan_import"}}, {"type": "node", "id": 565753336, "lat": 55.8325912, "lon": -4.2085372, "tags": {"bench": "yes", "bin": "yes", "bus": "yes", "highway": "bus_stop", "name": "Farme Cross", "naptan:AtcoCode": "6150529", "naptan:Bearing": "NE", "naptan:CommonName": "Farme Cross", "naptan:Indicator": "before Farme Cross", "naptan:Landmark": "Cambuslang Road", "naptan:NaptanCode": "75235967", "naptan:PlusbusZoneRef": "GLGC", "naptan:Street": "Farmeloan Road", "naptan:verified": "no", "public_transport": "platform", "shelter": "yes", "source": "naptan_import"}}, {"type": "node", "id": 565753338, "lat": 55.8298036, "lon": -4.2101197, "tags": {"bench": "no", "bin": "no", "bus": "yes", "highway": "bus_stop", "name": "Victoria Street", "naptan:AtcoCode": "6150530", "naptan:Bearing": "S", "naptan:CommonName": "Victoria Street", "naptan:Indicator": "Opp Victoria Street", "naptan:Landmark": "Victoria Street", "naptan:NaptanCode": "75232967", "naptan:PlusbusZoneRef": "GLGC", "naptan:Street": "Farmeloan Road", "naptan:verified": "no", "public_transport": "platform", "shelter": "no", "source": "naptan_import"}}, {"type": "node", "id": 565753339, "lat": 55.8289081, "lon": -4.2104361, "tags": {"bench": "yes", "bin": "yes", "bus": "yes", "highway": "bus_stop", "name": "Rutherglen Cross", "naptan:AtcoCode": "6150531", "naptan:Bearing": "N", "naptan:CommonName": "Rutherglen Cross", "naptan:Indicator": "At King Street", "naptan:Landmark": "King Street", "naptan:NaptanCode": "75234245", "naptan:PlusbusZoneRef": "GLGC", "naptan:Street": "Farmeloan Road", "naptan:verified": "no", "public_transport": "platform", "shelter": "yes", "source": "naptan_import"}}, {"type": "node", "id": 565753340, "lat": 55.8266464, "lon": -4.2102599, "tags": {"bench": "yes", "bin": "yes", "bus": "yes", "check_date:shelter": "2023-10-14", "highway": "bus_stop", "name": "Stonelaw Road", "naptan:AtcoCode": "6150532", "naptan:Bearing": "S", "naptan:CommonName": "Melrose Avenue", "naptan:Indicator": "Near Melrose Avenue", "naptan:Landmark": "Melrose Avenue", "naptan:NaptanCode": "75234865", "naptan:PlusbusZoneRef": "GLGC", "naptan:Street": "Stonelaw Road", "naptan:verified": "no", "public_transport": "platform", "shelter": "yes", "source": "naptan_import"}}, {"type": "node", "id": 565753341, "lat": 55.8255864, "lon": -4.2102317, "tags": {"bench": "yes", "bin": "yes", "bus": "yes", "check_date:shelter": "2023-10-14", "highway": "bus_stop", "name": "Stonelaw Road", "naptan:AtcoCode": "6150533", "naptan:Bearing": "N", "naptan:CommonName": "Melrose Avenue", "naptan:Indicator": "At St Columbkilles Pr School", "naptan:Landmark": "Melrose Avenue", "naptan:NaptanCode": "75236324", "naptan:PlusbusZoneRef": "GLGC", "naptan:Street": "Stonelaw Road", "naptan:verified": "no", "public_transport": "platform", "shelter": "yes", "source": "naptan_import"}}, {"type": "node", "id": 565753342, "lat": 55.8247415, "lon": -4.2097368, "tags": {"bench": "yes", "bin": "yes", "bus": "yes", "check_date:shelter": "2023-10-14", "highway": "bus_stop", "lit": "yes", "name": "Stonelaw Road", "naptan:AtcoCode": "6150534", "naptan:Bearing": "S", "naptan:CommonName": "Johnstone Drive", "naptan:Indicator": "Opp Johnstone Drive", "naptan:Landmark": "Johnstone Drive", "naptan:NaptanCode": "75234676", "naptan:PlusbusZoneRef": "GLGC", "naptan:Street": "Stonelaw Road", "naptan:verified": "no", "public_transport": "platform", "shelter": "yes", "source": "naptan_import", "tactile_paving": "no"}}, {"type": "node", "id": 565753343, "lat": 55.8234351, "lon": -4.2089123, "tags": {"bench": "yes", "bin": "no", "bus": "yes", "highway": "bus_stop", "name": "Johnstone Drive", "naptan:AtcoCode": "6150536", "naptan:Bearing": "NW", "naptan:CommonName": "Johnstone Drive", "naptan:Indicator": "Near Johnstone Drive", "naptan:Landmark": "Johnstone Drive", "naptan:NaptanCode": "75232786", "naptan:PlusbusZoneRef": "GLGC", "naptan:Street": "Stonelaw Road", "naptan:verified": "no", "public_transport": "platform", "shelter": "yes", "source": "naptan_import"}}, {"type": "node", "id": 565753344, "lat": 55.8232004, "lon": -4.2084679, "tags": {"bench": "yes", "bin": "no", "bus": "yes", "highway": "bus_stop", "name": "Stonelaw Drive", "naptan:AtcoCode": "6150537", "naptan:Bearing": "SE", "naptan:CommonName": "Stonelaw Drive", "naptan:Indicator": "before Stonelaw Drive", "naptan:Landmark": "Stonelaw Road", "naptan:NaptanCode": "75235748", "naptan:PlusbusZoneRef": "GLGC", "naptan:Street": "Stonelaw Road", "naptan:verified": "no", "public_transport": "platform", "shelter": "yes", "source": "naptan_import"}}, {"type": "node", "id": 565753345, "lat": 55.8215513, "lon": -4.207209, "tags": {"bench": "yes", "bin": "no", "flag": "yes", "highway": "bus_stop", "name": "Rodger Drive", "naptan:AtcoCode": "6150538", "naptan:Bearing": "NW", "naptan:CommonName": "Rodger Drive", "naptan:Indicator": "Near Rodger Drive", "naptan:Landmark": "Rodger Drive", "naptan:NaptanCode": "75234368", "naptan:PlusbusZoneRef": "GLGC", "naptan:Street": "Stonelaw Road", "naptan:verified": "no", "pole": "yes", "shelter": "yes", "source": "naptan_import"}}, {"type": "node", "id": 565753346, "lat": 55.8209803, "lon": -4.2064743, "tags": {"flag": "yes", "highway": "bus_stop", "name": "Buchanan Drive", "naptan:AtcoCode": "6150539", "naptan:Bearing": "SE", "naptan:CommonName": "Buchanan Drive", "naptan:Indicator": "At Buchanan Drive", "naptan:Landmark": "Buchanan Drive", "naptan:NaptanCode": "75237248", "naptan:PlusbusZoneRef": "GLGC", "naptan:Street": "Stonelaw Road", "naptan:verified": "no", "pole": "yes", "source": "naptan_import"}}, {"type": "node", "id": 565753348, "lat": 55.8197833, "lon": -4.2040598, "tags": {"bench": "no", "bin": "no", "highway": "bus_stop", "name": "Greystone Avenue", "naptan:AtcoCode": "6150540", "naptan:Bearing": "NW", "naptan:CommonName": "Greystone Avenue", "naptan:Indicator": "At Stonelaw Woods", "naptan:Landmark": "Greystone Avenue", "naptan:NaptanCode": "75234545", "naptan:PlusbusZoneRef": "GLGC", "naptan:Street": "Stonelaw Road", "naptan:verified": "no", "shelter": "no", "source": "naptan_import"}}, {"type": "node", "id": 565753349, "lat": 55.8188262, "lon": -4.2022975, "tags": {"bench": "yes", "highway": "bus_stop", "name": "Viewpark Drive", "naptan:AtcoCode": "6150541", "naptan:Bearing": "SE", "naptan:CommonName": "Viewpark Drive", "naptan:Indicator": "Opp Viewpark Drive", "naptan:Landmark": "Viewpark Drive", "naptan:NaptanCode": "75236968", "naptan:PlusbusZoneRef": "GLGC", "naptan:Street": "Stonelaw Road", "naptan:verified": "no", "shelter": "yes", "source": "naptan_import"}}, {"type": "node", "id": 565753350, "lat": 55.8178258, "lon": -4.2019537, "tags": {"bench": "yes", "bin": "yes", "highway": "bus_stop", "lit": "yes", "name": "Southhill Avenue", "naptan:AtcoCode": "6150542", "naptan:Bearing": "NW", "naptan:CommonName": "Southhill Avenue", "naptan:Indicator": "Opp Southhill Avenue", "naptan:Landmark": "Southhill Avenue", "naptan:NaptanCode": "75232687", "naptan:PlusbusZoneRef": "GLGC", "naptan:Street": "Stonelaw Road", "naptan:verified": "no", "shelter": "yes", "source": "naptan_import", "tactile_paving": "yes"}}, {"type": "node", "id": 565753351, "lat": 55.8175627, "lon": -4.2015876, "tags": {"bench": "no", "highway": "bus_stop", "name": "Highburgh Drive", "naptan:AtcoCode": "6150543", "naptan:Bearing": "SE", "naptan:CommonName": "Highburgh Drive", "naptan:Indicator": "Opp Highburgh Drive", "naptan:Landmark": "Highburgh Drive", "naptan:NaptanCode": "75232972", "naptan:PlusbusZoneRef": "GLGC", "naptan:Street": "Stonelaw Road", "naptan:verified": "no", "shelter": "no", "source": "naptan_import"}}, {"type": "node", "id": 565753352, "lat": 55.8167292, "lon": -4.1984437, "tags": {"highway": "bus_stop", "name": "St Ronans Drive", "naptan:AtcoCode": "6150544", "naptan:Bearing": "NW", "naptan:CommonName": "St Ronans Drive", "naptan:Indicator": "opp St Ronans Drive", "naptan:Landmark": "St Ronans Drive", "naptan:NaptanCode": "75232796", "naptan:PlusbusZoneRef": "GLGC", "naptan:Street": "Dukes Road", "naptan:verified": "no", "source": "naptan_import"}}, {"type": "node", "id": 565753353, "lat": 55.8173085, "lon": -4.1956989, "tags": {"highway": "bus_stop", "name": "Cleveden Drive", "naptan:AtcoCode": "6150545", "naptan:Bearing": "NE", "naptan:CommonName": "Cleveden Drive", "naptan:Indicator": "At Cleveden Drive", "naptan:Landmark": "Cleveden Drive", "naptan:NaptanCode": "75237258", "naptan:PlusbusZoneRef": "GLGC", "naptan:Street": "Dukes Road", "naptan:verified": "no", "source": "naptan_import"}}, {"type": "node", "id": 565753354, "lat": 55.8173465, "lon": -4.1950784, "tags": {"highway": "bus_stop", "name": "Stanhope Drive", "naptan:AtcoCode": "6150546", "naptan:Bearing": "SW", "naptan:CommonName": "Stanhope Drive", "naptan:Indicator": "At Stanhope Drive", "naptan:Landmark": "Stanhope Drive", "naptan:NaptanCode": "75232938", "naptan:PlusbusZoneRef": "GLGC", "naptan:Street": "Dukes Road", "naptan:verified": "no", "source": "naptan_import"}}, {"type": "node", "id": 565753355, "lat": 55.8181893, "lon": -4.1921727, "tags": {"highway": "bus_stop", "name": "Calderwood Road", "naptan:AtcoCode": "6150547", "naptan:Bearing": "NE", "naptan:CommonName": "Calderwood Road", "naptan:Indicator": "Near Calderwood Road", "naptan:Landmark": "Calderwood Road", "naptan:NaptanCode": "75237239", "naptan:PlusbusZoneRef": "GLGC", "naptan:Street": "Dukes Road", "naptan:verified": "no", "source": "naptan_import"}}, {"type": "node", "id": 565753356, "lat": 55.8185707, "lon": -4.1904382, "tags": {"highway": "bus_stop", "name": "Calderwood Road", "naptan:AtcoCode": "6150548", "naptan:Bearing": "NE", "naptan:CommonName": "Calderwood Road", "naptan:Indicator": "At Calderwood Road", "naptan:Landmark": "Calderwood Road", "naptan:NaptanCode": "75232845", "naptan:PlusbusZoneRef": "GLGC", "naptan:Street": "Dukes Road", "naptan:verified": "no", "source": "naptan_import"}}, {"type": "node", "id": 565753357, "lat": 55.818545, "lon": -4.189862, "tags": {"highway": "bus_stop", "name": "Hawthorn Walk", "naptan:AtcoCode": "6150549", "naptan:Bearing": "SW", "naptan:CommonName": "Hawthorn Walk", "naptan:Indicator": "Near Hawthorn Walk", "naptan:Landmark": "Hawthorn Walk", "naptan:NaptanCode": "75234595", "naptan:PlusbusZoneRef": "GLGC", "naptan:Street": "Dukes Road", "naptan:verified": "no", "source": "naptan_import"}}, {"type": "node", "id": 565753359, "lat": 55.8197251, "lon": -4.1861768, "tags": {"highway": "bus_stop", "name": "Cathkin Place", "naptan:AtcoCode": "6150550", "naptan:Bearing": "NE", "naptan:CommonName": "Cathkin Place", "naptan:Indicator": "Near Cathkin Place", "naptan:Landmark": "Cathkin Place", "naptan:NaptanCode": "75236893", "naptan:PlusbusZoneRef": "GLGC", "naptan:Street": "Dukes Road", "naptan:verified": "no", "source": "naptan_import"}}, {"type": "node", "id": 565753360, "lat": 55.8197501, "lon": -4.1857791, "tags": {"highway": "bus_stop", "name": "Eastfield Avenue", "naptan:AtcoCode": "6150551", "naptan:Bearing": "SW", "naptan:CommonName": "Eastfield Avenue", "naptan:Indicator": "Near Eastfield Avenue", "naptan:Landmark": "Eastfield Avenue", "naptan:NaptanCode": "75232982", "naptan:PlusbusZoneRef": "GLGC", "naptan:Street": "Dukes Road", "naptan:verified": "no", "source": "naptan_import"}}, {"type": "node", "id": 565753361, "lat": 55.8216035, "lon": -4.183648, "tags": {"highway": "bus_stop", "name": "Bullionslaw Road", "naptan:AtcoCode": "6150552", "naptan:Bearing": "SW", "naptan:CommonName": "Bullionslaw Road", "naptan:Indicator": "Opp Bullionslaw Road", "naptan:Landmark": "Bullionslaw Road", "naptan:NaptanCode": "75236983", "naptan:PlusbusZoneRef": "GLGC", "naptan:Street": "Dukes Road", "naptan:verified": "no", "source": "naptan_import"}}, {"type": "node", "id": 565753362, "lat": 55.8219556, "lon": -4.183556, "tags": {"highway": "bus_stop", "name": "Bullionslaw Road", "naptan:AtcoCode": "6150553", "naptan:Bearing": "NE", "naptan:CommonName": "Bullionslaw Road", "naptan:Indicator": "At Bullionslaw Road", "naptan:Landmark": "Bullionslaw Road", "naptan:NaptanCode": "75234323", "naptan:PlusbusZoneRef": "GLGC", "naptan:Street": "Dukes Road", "naptan:verified": "no", "source": "naptan_import"}}, {"type": "node", "id": 565753363, "lat": 55.8230783, "lon": -4.183092, "tags": {"highway": "bus_stop", "name": "Burn Terrace", "naptan:AtcoCode": "6150554", "naptan:Bearing": "N", "naptan:CommonName": "Burn Terrace", "naptan:Indicator": "At Burn Terrace", "naptan:Landmark": "Burn Terrace", "naptan:NaptanCode": "75232427", "naptan:PlusbusZoneRef": "GLGC", "naptan:Street": "Dukes Road", "naptan:verified": "no", "source": "naptan_import"}}, {"type": "node", "id": 565753365, "lat": 55.8196993, "lon": -4.2017243, "tags": {"highway": "bus_stop", "name": "Stonelaw Road", "naptan:AtcoCode": "6150560", "naptan:Bearing": "W", "naptan:CommonName": "Stonelaw Road", "naptan:Indicator": "Near Stonelaw Road", "naptan:Landmark": "Stonelaw Road", "naptan:NaptanCode": "75236958", "naptan:PlusbusZoneRef": "GLGC", "naptan:Street": "Greystone Avenue", "naptan:verified": "no", "source": "naptan_import"}}, {"type": "node", "id": 565753366, "lat": 55.8198044, "lon": -4.1973561, "tags": {"highway": "bus_stop", "name": "Underwood Road", "naptan:AtcoCode": "6150561", "naptan:Bearing": "E", "naptan:CommonName": "Underwood Road", "naptan:Indicator": "At Underwood Road", "naptan:Landmark": "Underwood Road", "naptan:NaptanCode": "75235867", "naptan:PlusbusZoneRef": "GLGC", "naptan:Street": "Greystone Avenue", "naptan:verified": "no", "source": "naptan_import"}}, {"type": "node", "id": 565753367, "lat": 55.8194719, "lon": -4.1973533, "tags": {"highway": "bus_stop", "name": "Cleveden Drive", "naptan:AtcoCode": "6150562", "naptan:Bearing": "W", "naptan:CommonName": "Cleveden Drive", "naptan:Indicator": "Opp Cleveden Drive", "naptan:Landmark": "Cleveden Drive", "naptan:NaptanCode": "75236524", "naptan:PlusbusZoneRef": "GLGC", "naptan:Street": "Greystone Avenue", "naptan:verified": "no", "source": "naptan_import"}}, {"type": "node", "id": 565753368, "lat": 55.820441, "lon": -4.1934168, "tags": {"highway": "bus_stop", "name": "Coldstream Drive", "naptan:AtcoCode": "6150564", "naptan:Bearing": "NE", "naptan:CommonName": "Coldstream Drive", "naptan:Indicator": "Near Coldstream Drive", "naptan:Landmark": "Coldstream Drive", "naptan:NaptanCode": "75232489", "naptan:PlusbusZoneRef": "GLGC", "naptan:Street": "Greystone Avenue", "naptan:verified": "no", "source": "naptan_import"}}, {"type": "node", "id": 565753369, "lat": 55.821255, "lon": -4.1921216, "tags": {"highway": "bus_stop", "name": "Greystone Avenue", "naptan:AtcoCode": "6150565", "naptan:Bearing": "SE", "naptan:CommonName": "Greystone Avenue", "naptan:Indicator": "Opp Greystone Avenue", "naptan:Landmark": "Greystone Avenue", "naptan:NaptanCode": "75236854", "naptan:PlusbusZoneRef": "GLGC", "naptan:Street": "Berwick Drive", "naptan:verified": "no", "source": "naptan_import"}}, {"type": "node", "id": 565753370, "lat": 55.8218024, "lon": -4.1931742, "tags": {"highway": "bus_stop", "name": "Bullionslaw Drive", "naptan:AtcoCode": "6150566", "naptan:Bearing": "NW", "naptan:CommonName": "Bullionslaw Drive", "naptan:Indicator": "Opp Bullionslaw Drive", "naptan:Landmark": "Bullionslaw Drive", "naptan:NaptanCode": "75235428", "naptan:PlusbusZoneRef": "GLGC", "naptan:Street": "Berwick Drive", "naptan:verified": "no", "source": "naptan_import"}}, {"type": "node", "id": 565753371, "lat": 55.8223654, "lon": -4.1938604, "tags": {"highway": "bus_stop", "name": "Bullionslaw Drive", "naptan:AtcoCode": "6150567", "naptan:Bearing": "SE", "naptan:CommonName": "Bullionslaw Drive", "naptan:Indicator": "At Bullionslaw Drive", "naptan:Landmark": "Bullionslaw Drive", "naptan:NaptanCode": "75236738", "naptan:PlusbusZoneRef": "GLGC", "naptan:Street": "Berwick Drive", "naptan:verified": "no", "source": "naptan_import"}}, {"type": "node", "id": 565753373, "lat": 55.824679, "lon": -4.2047039, "tags": {"bench": "no", "bin": "no", "highway": "bus_stop", "name": "Lindores Avenue", "naptan:AtcoCode": "6150571", "naptan:Bearing": "NE", "naptan:CommonName": "Lindores Avenue", "naptan:Indicator": "Opp Lindores Avenue", "naptan:Landmark": "Lindores Avenue", "naptan:NaptanCode": "75236793", "naptan:PlusbusZoneRef": "GLGC", "naptan:Street": "Dryburgh Avenue", "naptan:verified": "no", "shelter": "no", "source": "naptan_import", "tactile_paving": "no"}}, {"type": "node", "id": 565753374, "lat": 55.8241193, "lon": -4.2078494, "tags": {"bus": "yes", "highway": "bus_stop", "name": "Abbotsford Avenue", "naptan:AtcoCode": "6150572", "naptan:Bearing": "SW", "naptan:CommonName": "Abbotsford Avenue", "naptan:Indicator": "At Abbotsford Avenue", "naptan:Landmark": "Abbotsford Avenue", "naptan:NaptanCode": "75235863", "naptan:PlusbusZoneRef": "GLGC", "naptan:Street": "Dryburgh Avenue", "naptan:verified": "no", "public_transport": "platform", "shelter": "no", "source": "naptan_import"}}, {"type": "node", "id": 565753375, "lat": 55.8268884, "lon": -4.1952487, "tags": {"highway": "bus_stop", "name": "Richmond Drive", "naptan:AtcoCode": "6150573", "naptan:Bearing": "SE", "naptan:CommonName": "Richmond Drive", "naptan:Indicator": "Opp Richmond Drive", "naptan:Landmark": "Richmond Drive", "naptan:NaptanCode": "75232483", "naptan:PlusbusZoneRef": "GLGC", "naptan:Street": "Main Street", "naptan:verified": "no", "source": "naptan_import"}}, {"type": "node", "id": 565753376, "lat": 55.8269371, "lon": -4.1965448, "tags": {"highway": "bus_stop", "name": "Hamilton Road", "naptan:AtcoCode": "6150574", "naptan:Bearing": "NW", "naptan:CommonName": "Hamilton Road", "naptan:Indicator": "At Hamilton Road", "naptan:Landmark": "Hamilton Road", "naptan:NaptanCode": "75235945", "naptan:PlusbusZoneRef": "GLGC", "naptan:Street": "Main Street", "naptan:verified": "no", "source": "naptan_import"}}, {"type": "node", "id": 565753377, "lat": 55.8276778, "lon": -4.1998599, "tags": {"highway": "bus_stop", "name": "Richmond Place", "naptan:AtcoCode": "6150575", "naptan:Bearing": "SE", "naptan:CommonName": "Richmond Place", "naptan:Indicator": "At Richmond Court House", "naptan:Landmark": "Richmond Place", "naptan:NaptanCode": "75235278", "naptan:PlusbusZoneRef": "GLGC", "naptan:Street": "Main Street", "naptan:verified": "no", "source": "naptan_import"}}, {"type": "node", "id": 565753378, "lat": 55.8276997, "lon": -4.2006435, "tags": {"highway": "bus_stop", "name": "Fraser Avenue", "naptan:AtcoCode": "6150576", "naptan:Bearing": "NW", "naptan:CommonName": "Fraser Avenue", "naptan:Indicator": "At Fraser Avenue", "naptan:Landmark": "Fraser Avenue", "naptan:NaptanCode": "75232763", "naptan:PlusbusZoneRef": "GLGC", "naptan:Street": "Main Street", "naptan:verified": "no", "source": "naptan_import"}}, {"type": "node", "id": 565753379, "lat": 55.8281657, "lon": -4.2042306, "tags": {"highway": "bus_stop", "name": "McCallum Avenue", "naptan:AtcoCode": "6150577", "naptan:Bearing": "W", "naptan:CommonName": "McCallum Avenue", "naptan:Indicator": "At McCallum Avenue Westbound", "naptan:Landmark": "McCallum Avenue", "naptan:NaptanCode": "75232785", "naptan:PlusbusZoneRef": "GLGC", "naptan:Street": "Main Street", "naptan:verified": "no", "source": "naptan_import"}}, {"type": "node", "id": 565753380, "lat": 55.8283327, "lon": -4.2049426, "tags": {"highway": "bus_stop", "name": "McCallum Avenue", "naptan:AtcoCode": "6150578", "naptan:Bearing": "E", "naptan:CommonName": "McCallum Avenue", "naptan:Indicator": "opp McCallum Avenue Eastbound", "naptan:Landmark": "McCallum Avenue", "naptan:NaptanCode": "75235357", "naptan:PlusbusZoneRef": "GLGC", "naptan:Street": "Main Street", "naptan:verified": "no", "source": "naptan_import"}}, {"type": "node", "id": 565753381, "lat": 55.8284737, "lon": -4.2091022, "tags": {"bus": "yes", "highway": "bus_stop", "name": "Caledonia Avenue", "naptan:AtcoCode": "6150579", "naptan:Bearing": "E", "naptan:CommonName": "Caledonia Avenue", "naptan:Indicator": "Near Caledonia Avenue", "naptan:Landmark": "Caledonia Avenue", "naptan:NaptanCode": "75234346", "naptan:PlusbusZoneRef": "GLGC", "naptan:Street": "Main Street", "naptan:verified": "no", "public_transport": "platform", "source": "naptan_import"}}, {"type": "node", "id": 565753383, "lat": 55.8288017, "lon": -4.2083543, "tags": {"bus": "yes", "highway": "bus_stop", "name": "King Street", "naptan:AtcoCode": "6150580", "naptan:Bearing": "N", "naptan:CommonName": "King Street", "naptan:Indicator": "At King Street", "naptan:Landmark": "King Street", "naptan:NaptanCode": "75236565", "naptan:PlusbusZoneRef": "GLGC", "naptan:Street": "Caledonia Avenue", "naptan:verified": "no", "public_transport": "platform", "source": "naptan_import"}}, {"type": "node", "id": 565753384, "lat": 55.8282962, "lon": -4.2124772, "tags": {"bus": "yes", "highway": "bus_stop", "name": "Castle Street", "naptan:AtcoCode": "6150584", "naptan:Bearing": "W", "naptan:CommonName": "Castle Street", "naptan:Indicator": "Opp Castle Street", "naptan:Landmark": "Castle street", "naptan:NaptanCode": "75236295", "naptan:PlusbusZoneRef": "GLGC", "naptan:Street": "Main Street", "naptan:verified": "no", "public_transport": "platform", "source": "naptan_import"}}, {"type": "node", "id": 565753387, "lat": 55.8282873, "lon": -4.2129717, "tags": {"bus": "yes", "highway": "bus_stop", "name": "Kirkwood Street", "naptan:AtcoCode": "6150585", "naptan:Bearing": "W", "naptan:CommonName": "Kirkwood Street", "naptan:Indicator": "At Kirkwood Street", "naptan:Landmark": "Kirkwood Street", "naptan:NaptanCode": "75234532", "naptan:PlusbusZoneRef": "GLGC", "naptan:Street": "Main Street", "naptan:verified": "no", "public_transport": "platform", "source": "naptan_import"}}, {"type": "node", "id": 565753388, "lat": 55.8284403, "lon": -4.2129644, "tags": {"bus": "yes", "highway": "bus_stop", "name": "Castle Street", "naptan:AtcoCode": "6150586", "naptan:Bearing": "E", "naptan:CommonName": "Castle Street", "naptan:Indicator": "At Castle Street", "naptan:Landmark": "Castle Street", "naptan:NaptanCode": "75232375", "naptan:PlusbusZoneRef": "GLGC", "naptan:Street": "Main Street", "naptan:verified": "no", "public_transport": "platform", "source": "naptan_import"}}, {"type": "node", "id": 565753389, "lat": 55.828268, "lon": -4.2150464, "tags": {"bus": "yes", "highway": "bus_stop", "name": "Queen Street", "naptan:AtcoCode": "6150587", "naptan:Bearing": "W", "naptan:CommonName": "Queen Street", "naptan:Indicator": "Opp Rutherglen Parish Church", "naptan:Landmark": "Queen Street", "naptan:NaptanCode": "75232462", "naptan:PlusbusZoneRef": "GLGC", "naptan:Street": "Main Street", "naptan:verified": "no", "public_transport": "platform", "source": "naptan_import"}}, {"type": "node", "id": 565753390, "lat": 55.8282778, "lon": -4.216995, "tags": {"bus": "yes", "highway": "bus_stop", "name": "Mill Street", "naptan:AtcoCode": "6150589", "naptan:Bearing": "W", "naptan:CommonName": "Mill Street", "naptan:Indicator": "Near Mill Street", "naptan:Landmark": "Mill Street", "naptan:NaptanCode": "75234626", "naptan:PlusbusZoneRef": "GLGC", "naptan:Street": "Main Street", "naptan:verified": "no", "public_transport": "platform", "source": "naptan_import"}}, {"type": "node", "id": 565753392, "lat": 55.8284252, "lon": -4.2167958, "tags": {"bus": "yes", "highway": "bus_stop", "name": "Queen Street", "naptan:AtcoCode": "6150590", "naptan:Bearing": "E", "naptan:CommonName": "Queen Street", "naptan:Indicator": "Near Queen Street", "naptan:Landmark": "Queen Street", "naptan:NaptanCode": "75235695", "naptan:PlusbusZoneRef": "GLGC", "naptan:Street": "Main Street", "naptan:verified": "no", "public_transport": "platform", "source": "naptan_import"}}, {"type": "node", "id": 565753393, "lat": 55.8281297, "lon": -4.221218, "tags": {"bus": "yes", "highway": "bus_stop", "name": "Cathcart Road", "naptan:AtcoCode": "6150591", "naptan:Bearing": "E", "naptan:CommonName": "Cathcart Road", "naptan:Indicator": "Opp Cathcart Road", "naptan:Landmark": "Cathcart Road", "naptan:NaptanCode": "75235973", "naptan:PlusbusZoneRef": "GLGC", "naptan:Street": "Burnhill Street", "naptan:verified": "no", "public_transport": "platform", "shelter": "yes", "source": "naptan_import"}}, {"type": "node", "id": 565753394, "lat": 55.8279873, "lon": -4.2226309, "tags": {"bus": "yes", "highway": "bus_stop", "name": "Toryglen Road", "naptan:AtcoCode": "6150592", "naptan:Bearing": "W", "naptan:CommonName": "Toryglen Road", "naptan:Indicator": "Opp Toryglen Road", "naptan:Landmark": "Toryglen Road", "naptan:NaptanCode": "75235829", "naptan:PlusbusZoneRef": "GLGC", "naptan:Street": "Burnhill Street", "naptan:verified": "no", "public_transport": "platform", "source": "naptan_import"}}, {"type": "node", "id": 565753395, "lat": 55.8276935, "lon": -4.2249614, "tags": {"highway": "bus_stop", "name": "Pinkerton Avenue", "naptan:AtcoCode": "6150593", "naptan:Bearing": "NE", "naptan:CommonName": "Pinkerton Avenue", "naptan:Indicator": "Near Pinkerton Avenue", "naptan:Landmark": "Pinkerton Avenue", "naptan:NaptanCode": "75232735", "naptan:PlusbusZoneRef": "GLGC", "naptan:Street": "Burnhill Street", "naptan:verified": "no", "source": "naptan_import"}}, {"type": "node", "id": 565753396, "lat": 55.8274534, "lon": -4.2253149, "tags": {"highway": "bus_stop", "name": "Newfield Place", "naptan:AtcoCode": "6150594", "naptan:Bearing": "SW", "naptan:CommonName": "Newfield Place", "naptan:Indicator": "Near Newfield Place", "naptan:Landmark": "Newfield Place", "naptan:NaptanCode": "75232835", "naptan:PlusbusZoneRef": "GLGC", "naptan:Street": "Burnhill Street", "naptan:verified": "no", "source": "naptan_import"}}, {"type": "node", "id": 565753397, "lat": 55.8278393, "lon": -4.2273329, "tags": {"bus": "yes", "highway": "bus_stop", "name": "Acredyke Road", "naptan:AtcoCode": "6150595", "naptan:Bearing": "NW", "naptan:CommonName": "Acredyke Road", "naptan:Indicator": "before Acredyke Road", "naptan:Landmark": "Acredyke Road", "naptan:NaptanCode": "75232646", "naptan:PlusbusZoneRef": "GLGC", "naptan:Street": "Westmuir Place", "naptan:verified": "no", "public_transport": "platform", "source": "naptan_import"}}, {"type": "node", "id": 565753398, "lat": 55.8280612, "lon": -4.2274893, "tags": {"bus": "yes", "highway": "bus_stop", "name": "Penman Avenue", "naptan:AtcoCode": "6150596", "naptan:Bearing": "SE", "naptan:CommonName": "Penman Avenue", "naptan:Indicator": "At Penman Avenue", "naptan:Landmark": "Penman Avenue", "naptan:NaptanCode": "75234565", "naptan:PlusbusZoneRef": "GLGC", "naptan:Street": "Westmuir Place", "naptan:verified": "no", "public_transport": "platform", "source": "naptan_import"}}, {"type": "node", "id": 565753399, "lat": 55.8270437, "lon": -4.2261058, "tags": {"bus": "yes", "highway": "bus_stop", "name": "Drummond Avenue", "naptan:AtcoCode": "6150597", "naptan:Bearing": "NE", "naptan:CommonName": "Drummond Avenue", "naptan:Indicator": "Opp Drummond Avenue", "naptan:Landmark": "Drummond Avenue", "naptan:NaptanCode": "75232682", "naptan:PlusbusZoneRef": "GLGC", "naptan:Street": "Newfield Place", "naptan:verified": "no", "public_transport": "platform", "source": "naptan_import"}}, {"type": "node", "id": 565753400, "lat": 55.8273787, "lon": -4.2209995, "tags": {"bench": "no", "bin": "no", "bus": "yes", "highway": "bus_stop", "lit": "no", "name": "Burnhill Street", "naptan:AtcoCode": "6150598", "naptan:Bearing": "N", "naptan:CommonName": "Burnhill Street", "naptan:Indicator": "Near Burnhill Street", "naptan:Landmark": "Burnhill Street", "naptan:NaptanCode": "75234378", "naptan:PlusbusZoneRef": "GLGC", "naptan:Street": "Cathcart Road", "naptan:verified": "no", "public_transport": "platform", "shelter": "no", "source": "naptan_import", "tactile_paving": "no"}}, {"type": "node", "id": 565753401, "lat": 55.827171, "lon": -4.2210515, "tags": {"bench": "no", "bin": "no", "bus": "yes", "highway": "bus_stop", "lit": "no", "name": "Farie Street", "naptan:AtcoCode": "6150599", "naptan:Bearing": "SW", "naptan:CommonName": "Farie Street", "naptan:Indicator": "Near Farie Street", "naptan:Landmark": "Farie Street", "naptan:NaptanCode": "75232386", "naptan:PlusbusZoneRef": "GLGC", "naptan:Street": "Cathcart Road", "naptan:verified": "no", "public_transport": "platform", "shelter": "no", "source": "naptan_import", "tactile_paving": "no"}}, {"type": "node", "id": 565753404, "lat": 55.8261089, "lon": -4.2236255, "tags": {"bus": "yes", "highway": "bus_stop", "name": "Glencairn Drive", "naptan:AtcoCode": "6150600", "naptan:Bearing": "NE", "naptan:CommonName": "Glencairn Drive", "naptan:Indicator": "Near Glencairn Drive", "naptan:Landmark": "Glencairn Drive", "naptan:NaptanCode": "75235253", "naptan:PlusbusZoneRef": "GLGC", "naptan:Street": "Cathcart Road", "naptan:verified": "no", "public_transport": "platform", "source": "naptan_import"}}, {"type": "node", "id": 565753405, "lat": 55.8258937, "lon": -4.2240922, "tags": {"bus": "yes", "highway": "bus_stop", "name": "Brownsdale Road", "naptan:AtcoCode": "6150601", "naptan:Bearing": "SW", "naptan:CommonName": "Brownsdale Road", "naptan:Indicator": "Near Brownsdale Road", "naptan:Landmark": "Brownsdale Road", "naptan:NaptanCode": "75235296", "naptan:PlusbusZoneRef": "GLGC", "naptan:Street": "Cathcart Road", "naptan:verified": "no", "public_transport": "platform", "source": "naptan_import"}}, {"type": "node", "id": 565753406, "lat": 55.8254505, "lon": -4.2272283, "tags": {"bus": "yes", "highway": "bus_stop", "name": "Berelands Place", "naptan:AtcoCode": "6150602", "naptan:Bearing": "E", "naptan:CommonName": "Berelands Place", "naptan:Indicator": "Near Berelands Place", "naptan:Landmark": "Berelands Place", "naptan:NaptanCode": "75232976", "naptan:PlusbusZoneRef": "GLGC", "naptan:Street": "Cathcart Road", "naptan:verified": "no", "public_transport": "platform", "source": "naptan_import"}}, {"type": "node", "id": 565753407, "lat": 55.8248345, "lon": -4.2279914, "tags": {"bus": "yes", "highway": "bus_stop", "name": "Westfield Avenue", "naptan:AtcoCode": "6150603", "naptan:Bearing": "SW", "naptan:CommonName": "Westfield Avenue", "naptan:Indicator": "Near Westfield Avenue", "naptan:Landmark": "Westfield Avenue", "naptan:NaptanCode": "75236767", "naptan:PlusbusZoneRef": "GLGC", "naptan:Street": "Cathcart Road", "naptan:verified": "no", "public_transport": "platform", "source": "naptan_import"}}, {"type": "node", "id": 565753408, "lat": 55.8240754, "lon": -4.2297042, "tags": {"bus": "yes", "highway": "bus_stop", "name": "Westhouse Avenue", "naptan:AtcoCode": "6150604", "naptan:Bearing": "SW", "naptan:CommonName": "Westhouse Avenue", "naptan:Indicator": "At Westhouse Avenue", "naptan:Landmark": "Montford Avenue", "naptan:NaptanCode": "75236253", "naptan:PlusbusZoneRef": "GLGC", "naptan:Street": "Curtis Avenue", "naptan:verified": "no", "public_transport": "platform", "source": "naptan_import"}}, {"type": "node", "id": 565753409, "lat": 55.8225877, "lon": -4.2344247, "tags": {"highway": "bus_stop", "name": "Kingsacre Road", "naptan:AtcoCode": "6150605", "naptan:Bearing": "S", "naptan:CommonName": "Kingsacre Road", "naptan:Indicator": "Near Kingsacre Road", "naptan:Landmark": "Kingsacre Road", "naptan:NaptanCode": "75234786", "naptan:PlusbusZoneRef": "GLGC", "naptan:Street": "Castlemilk Road", "naptan:verified": "no", "source": "naptan_import"}}, {"type": "node", "id": 565753410, "lat": 55.8200949, "lon": -4.2335594, "tags": {"highway": "bus_stop", "name": "Kingsheath Avenue", "naptan:AtcoCode": "6150606", "naptan:Bearing": "S", "naptan:CommonName": "Kingsheath Avenue", "naptan:Indicator": "At Kings Park Library", "naptan:Landmark": "Kings Park Library", "naptan:NaptanCode": "75234756", "naptan:PlusbusZoneRef": "GLGC", "naptan:Street": "Castlemilk Road", "naptan:verified": "no", "source": "naptan_import"}}, {"type": "node", "id": 565753411, "lat": 55.818887, "lon": -4.2283538, "tags": {"highway": "bus_stop", "name": "Bankhead Road", "naptan:AtcoCode": "6150607", "naptan:Bearing": "E", "naptan:CommonName": "Bankhead Road", "naptan:Indicator": "before Bankhead Road", "naptan:Landmark": "Bankhead Road", "naptan:NaptanCode": "75232782", "naptan:PlusbusZoneRef": "GLGC", "naptan:Street": "Kings Park Avenue", "naptan:verified": "no", "source": "naptan_import"}}, {"type": "node", "id": 565753412, "lat": 55.8186988, "lon": -4.2278322, "tags": {"highway": "bus_stop", "name": "Bankhead Road", "naptan:AtcoCode": "6150608", "naptan:Bearing": "W", "naptan:CommonName": "Bankhead Road", "naptan:Indicator": "Opp Bankhead Road", "naptan:Landmark": "Bankhead Road", "naptan:NaptanCode": "75232926", "naptan:PlusbusZoneRef": "GLGC", "naptan:Street": "Kings Park Avenue", "naptan:verified": "no", "source": "naptan_import"}}, {"type": "node", "id": 565753414, "lat": 55.8134836, "lon": -4.2201797, "tags": {"bus": "yes", "highway": "bus_stop", "name": "Bowhouse Drive", "naptan:AtcoCode": "6150615", "naptan:Bearing": "NE", "naptan:CommonName": "Bowhouse Drive", "naptan:Indicator": "opp Bowhouse Drive", "naptan:Landmark": "Spittal Road", "naptan:NaptanCode": "75232392", "naptan:PlusbusZoneRef": "GLGC", "naptan:Street": "Croftfoot Road", "naptan:verified": "no", "public_transport": "platform", "shelter": "yes", "source": "naptan_import"}}, {"type": "node", "id": 565753415, "lat": 55.8129143, "lon": -4.2221705, "tags": {"highway": "bus_stop", "name": "Alloway Drive", "naptan:AtcoCode": "6150616", "naptan:Bearing": "SW", "naptan:CommonName": "Alloway Drive", "naptan:Indicator": "Opp Alloway Drive", "naptan:Landmark": "Alloway Drive", "naptan:NaptanCode": "75232492", "naptan:PlusbusZoneRef": "GLGC", "naptan:Street": "Croftfoot Road", "naptan:verified": "no", "source": "naptan_import"}}, {"type": "node", "id": 565753416, "lat": 55.8161598, "lon": -4.2255959, "tags": {"bus": "yes", "highway": "bus_stop", "name": "Dunure Drive", "naptan:AtcoCode": "6150619", "naptan:Bearing": "SW", "naptan:CommonName": "Dunure Drive", "naptan:Indicator": "after Dunure Drive", "naptan:Landmark": "Dunure Drive", "naptan:NaptanCode": "75235462", "naptan:PlusbusZoneRef": "GLGC", "naptan:Street": "Kirkconnel Drive", "naptan:verified": "no", "public_transport": "platform", "source": "naptan_import"}}, {"type": "node", "id": 565753418, "lat": 55.8161521, "lon": -4.2230415, "tags": {"bus": "yes", "highway": "bus_stop", "name": "Alloway Drive", "naptan:AtcoCode": "6150620", "naptan:Bearing": "NW", "naptan:CommonName": "Alloway Drive", "naptan:Indicator": "near Alloway Drive", "naptan:Landmark": "Alloway Drive", "naptan:NaptanCode": "75234792", "naptan:PlusbusZoneRef": "GLGC", "naptan:Street": "Kirkconnel Drive", "naptan:verified": "no", "public_transport": "platform", "source": "naptan_import"}}, {"type": "node", "id": 565753419, "lat": 55.8166182, "lon": -4.2181355, "tags": {"bus": "yes", "highway": "bus_stop", "name": "Carrick Drive", "naptan:AtcoCode": "6150627", "naptan:Bearing": "W", "naptan:CommonName": "Carrick Drive", "naptan:Indicator": "Near Carrick Drive", "naptan:Landmark": "Carrick Drive", "naptan:NaptanCode": "75236545", "naptan:PlusbusZoneRef": "GLGC", "naptan:Street": "Carrick Road", "naptan:verified": "no", "public_transport": "platform", "source": "naptan_import"}}, {"type": "node", "id": 565753420, "lat": 55.8165929, "lon": -4.2175435, "tags": {"bus": "yes", "highway": "bus_stop", "name": "Mossgiel Avenue", "naptan:AtcoCode": "6150628", "naptan:Bearing": "SE", "naptan:CommonName": "Mossgeil Avenue", "naptan:Indicator": "Opp Mossgeil Avenue", "naptan:Landmark": "Mossgeil Avenue", "naptan:NaptanCode": "75232942", "naptan:PlusbusZoneRef": "GLGC", "naptan:Street": "Carrick Road", "naptan:verified": "no", "public_transport": "platform", "source": "naptan_import"}}, {"type": "node", "id": 565753422, "lat": 55.8153433, "lon": -4.2165625, "tags": {"bus": "yes", "highway": "bus_stop", "name": "Croftfoot Road", "naptan:AtcoCode": "6150630", "naptan:Bearing": "S", "naptan:CommonName": "Croftfoot Road", "naptan:Indicator": "before Croftfoot Road", "naptan:Landmark": "Croftfoot Road", "naptan:NaptanCode": "75236735", "naptan:PlusbusZoneRef": "GLGC", "naptan:Street": "Carrick Road", "naptan:verified": "no", "public_transport": "platform", "source": "naptan_import"}}, {"type": "node", "id": 565753423, "lat": 55.8190344, "lon": -4.2276598, "tags": {"highway": "bus_stop", "name": "Kings Park Avenue", "naptan:AtcoCode": "6150633", "naptan:Bearing": "S", "naptan:CommonName": "Kings Park Avenue", "naptan:Indicator": "Near Kings Park Avenue", "naptan:Landmark": "Kings Park Avenue", "naptan:NaptanCode": "75234269", "naptan:PlusbusZoneRef": "GLGC", "naptan:Street": "Bankhead Road", "naptan:verified": "no", "source": "naptan_import"}}, {"type": "node", "id": 565753424, "lat": 55.8206129, "lon": -4.2273509, "tags": {"highway": "bus_stop", "name": "Kingsheath Avenue", "naptan:AtcoCode": "6150634", "naptan:Bearing": "S", "naptan:CommonName": "Kingsheath Avenue", "naptan:Indicator": "Near Kingsheath Avenue", "naptan:Landmark": "Kingsheath Avenue", "naptan:NaptanCode": "75236465", "naptan:PlusbusZoneRef": "GLGC", "naptan:Street": "Bankhead Road", "naptan:verified": "no", "source": "naptan_import"}}, {"type": "node", "id": 565753425, "lat": 55.8223265, "lon": -4.225533, "tags": {"highway": "bus_stop", "name": "Cityford Drive", "naptan:AtcoCode": "6150635", "naptan:Bearing": "NE", "naptan:CommonName": "Cityford Drive", "naptan:Indicator": "Opp Cityford Drive", "naptan:Landmark": "Cityford Drive", "naptan:NaptanCode": "75232539", "naptan:PlusbusZoneRef": "GLGC", "naptan:Street": "Bankhead Road", "naptan:verified": "no", "source": "naptan_import"}}, {"type": "node", "id": 565753426, "lat": 55.8220902, "lon": -4.2256792, "tags": {"highway": "bus_stop", "name": "Cityford Drive", "naptan:AtcoCode": "6150636", "naptan:Bearing": "SW", "naptan:CommonName": "Cityford Drive", "naptan:Indicator": "At Cityford Drive", "naptan:Landmark": "Cityford Drive", "naptan:NaptanCode": "75236452", "naptan:PlusbusZoneRef": "GLGC", "naptan:Street": "Bankhead Road", "naptan:verified": "no", "source": "naptan_import"}}, {"type": "node", "id": 565753427, "lat": 55.8230597, "lon": -4.2232599, "tags": {"highway": "bus_stop", "name": "Quarryknowe", "naptan:AtcoCode": "6150637", "naptan:Bearing": "SW", "naptan:CommonName": "Quarryknowe", "naptan:Indicator": "Opp Quarryknowe", "naptan:Landmark": "Quarryknowe", "naptan:NaptanCode": "75234283", "naptan:PlusbusZoneRef": "GLGC", "naptan:Street": "Bankhead Road", "naptan:verified": "no", "source": "naptan_import"}}, {"type": "node", "id": 565753428, "lat": 55.8233232, "lon": -4.2230993, "tags": {"highway": "bus_stop", "name": "Avonbank", "naptan:AtcoCode": "6150638", "naptan:Bearing": "NE", "naptan:CommonName": "Avonbank", "naptan:Indicator": "Near Avonbank", "naptan:Landmark": "Avonbank", "naptan:NaptanCode": "75234837", "naptan:PlusbusZoneRef": "GLGC", "naptan:Street": "Bankhead Road", "naptan:verified": "no", "source": "naptan_import"}}, {"type": "node", "id": 565753429, "lat": 55.8239304, "lon": -4.2213298, "tags": {"highway": "bus_stop", "name": "Watson Avenue", "naptan:AtcoCode": "6150639", "naptan:Bearing": "SW", "naptan:CommonName": "Watson Avenue", "naptan:Indicator": "Near Watson Avenue", "naptan:Landmark": "Watson Avenue", "naptan:NaptanCode": "75232678", "naptan:PlusbusZoneRef": "GLGC", "naptan:Street": "Bankhead Road", "naptan:verified": "no", "source": "naptan_import"}}, {"type": "node", "id": 565753431, "lat": 55.8244079, "lon": -4.2207663, "tags": {"highway": "bus_stop", "name": "Chesters Place", "naptan:AtcoCode": "6150640", "naptan:Bearing": "NE", "naptan:CommonName": "Chesters Place", "naptan:Indicator": "Near Chesters Place", "naptan:Landmark": "Chesters Place", "naptan:NaptanCode": "75235942", "naptan:PlusbusZoneRef": "GLGC", "naptan:Street": "Bankhead Road", "naptan:verified": "no", "source": "naptan_import"}}, {"type": "node", "id": 565753432, "lat": 55.8250568, "lon": -4.2191747, "tags": {"highway": "bus_stop", "name": "Ewing Street", "naptan:AtcoCode": "6150641", "naptan:Bearing": "SW", "naptan:CommonName": "Ewing Street", "naptan:Indicator": "At Ewing Street", "naptan:Landmark": "Ewing Street", "naptan:NaptanCode": "75232486", "naptan:PlusbusZoneRef": "GLGC", "naptan:Street": "Bankhead Road", "naptan:verified": "no", "source": "naptan_import"}}, {"type": "node", "id": 565753433, "lat": 55.8257434, "lon": -4.2184794, "tags": {"bus": "yes", "highway": "bus_stop", "name": "Mill Street", "naptan:AtcoCode": "6150642", "naptan:Bearing": "NE", "naptan:CommonName": "Mill Street", "naptan:Indicator": "Near Mill Street", "naptan:Landmark": "Mill Street", "naptan:NaptanCode": "75234698", "naptan:PlusbusZoneRef": "GLGC", "naptan:Street": "Bankhead Road", "naptan:verified": "no", "public_transport": "platform", "source": "naptan_import"}}, {"type": "node", "id": 565753434, "lat": 55.8206885, "lon": -4.2132107, "tags": {"bus": "yes", "highway": "bus_stop", "name": "Broomieknowe Road", "naptan:AtcoCode": "6150644", "naptan:Bearing": "NE", "naptan:CommonName": "Broomieknowe Road", "naptan:Indicator": "Opp Broomieknowe Road", "naptan:Landmark": "Broomieknowe Road", "naptan:NaptanCode": "75235395", "naptan:PlusbusZoneRef": "GLGC", "naptan:Street": "Rodger Drive", "naptan:verified": "no", "public_transport": "platform", "source": "naptan_import"}}, {"type": "node", "id": 565753435, "lat": 55.8204893, "lon": -4.2137901, "tags": {"bus": "yes", "highway": "bus_stop", "name": "Roger Place", "naptan:AtcoCode": "6150645", "naptan:Bearing": "SW", "naptan:CommonName": "Roger Place", "naptan:Indicator": "At Roger Place", "naptan:Landmark": "Roger Place", "naptan:NaptanCode": "75236757", "naptan:PlusbusZoneRef": "GLGC", "naptan:Street": "Rodger Drive", "naptan:verified": "no", "public_transport": "platform", "source": "naptan_import"}}, {"type": "node", "id": 565753436, "lat": 55.8380067, "lon": -4.2306774, "tags": {"bus": "yes", "highway": "bus_stop", "name": "Shawfield Drive", "naptan:AtcoCode": "6150649", "naptan:Bearing": "SE", "naptan:CommonName": "Shawfield Drive", "naptan:Indicator": "At Shawfield Stadium", "naptan:Landmark": "Shawfield Drive", "naptan:NaptanCode": "75235478", "naptan:PlusbusZoneRef": "GLGC", "naptan:Street": "Rutherglen Road", "naptan:verified": "no", "public_transport": "platform", "source": "naptan_import"}}, {"type": "node", "id": 565753438, "lat": 55.8374908, "lon": -4.2298813, "tags": {"bus": "yes", "highway": "bus_stop", "name": "Shawfield Drive", "naptan:AtcoCode": "6150650", "naptan:Bearing": "NW", "naptan:CommonName": "Shawfield Drive", "naptan:Indicator": "opp Shawfield Stadium", "naptan:Landmark": "Shawfield Drive", "naptan:NaptanCode": "75236293", "naptan:PlusbusZoneRef": "GLGC", "naptan:Street": "Rutherglen Road", "naptan:verified": "no", "public_transport": "platform", "source": "naptan_import"}}, {"type": "node", "id": 565753439, "lat": 55.83659, "lon": -4.2275139, "tags": {"bus": "yes", "highway": "bus_stop", "name": "Glasgow Road", "naptan:AtcoCode": "6150651", "naptan:Bearing": "SE", "naptan:CommonName": "Glasgow Road", "naptan:Indicator": "At Glasgow Road", "naptan:Landmark": "Glasgow Road", "naptan:NaptanCode": "75232638", "naptan:PlusbusZoneRef": "GLGC", "naptan:Street": "Rutherglen Road", "naptan:verified": "no", "public_transport": "platform", "source": "naptan_import"}}, {"type": "node", "id": 565753440, "lat": 55.8359341, "lon": -4.2269385, "tags": {"bench": "yes", "bin": "no", "bus": "yes", "highway": "bus_stop", "lit": "no", "name": "Millcroft Road", "naptan:AtcoCode": "6150652", "naptan:Bearing": "NW", "naptan:CommonName": "Millcroft Road", "naptan:Indicator": "Opp Millcroft Road", "naptan:Landmark": "Millcroft Road", "naptan:NaptanCode": "75234287", "naptan:PlusbusZoneRef": "GLGC", "naptan:Street": "Glasgow Road", "naptan:verified": "no", "public_transport": "platform", "shelter": "yes", "source": "naptan_import", "tactile_paving": "no"}}, {"type": "node", "id": 565753441, "lat": 55.8357582, "lon": -4.2264768, "tags": {"bench": "yes", "bin": "no", "bus": "yes", "highway": "bus_stop", "lit": "no", "name": "Millcroft Road", "naptan:AtcoCode": "6150653", "naptan:Bearing": "SE", "naptan:CommonName": "Millcroft Road", "naptan:Indicator": "At Millcroft Road", "naptan:Landmark": "Millcroft Road", "naptan:NaptanCode": "75236364", "naptan:PlusbusZoneRef": "GLGC", "naptan:Street": "Glasgow Road", "naptan:verified": "no", "public_transport": "platform", "shelter": "yes", "source": "naptan_import", "tactile_paving": "no"}}, {"type": "node", "id": 565753442, "lat": 55.8340571, "lon": -4.2249416, "tags": {"bus": "yes", "highway": "bus_stop", "name": "Southcroft Road", "naptan:AtcoCode": "6150654", "naptan:Bearing": "NW", "naptan:CommonName": "Southcroft Road", "naptan:Indicator": "Past Southcroft Road", "naptan:Landmark": "Southcroft Road", "naptan:NaptanCode": "75236873", "naptan:PlusbusZoneRef": "GLGC", "naptan:Street": "Glasgow Road", "naptan:verified": "no", "public_transport": "platform", "source": "naptan_import"}}, {"type": "node", "id": 565753443, "lat": 55.8329622, "lon": -4.223362, "tags": {"bus": "yes", "highway": "bus_stop", "name": "Southcroft Road", "naptan:AtcoCode": "6150655", "naptan:Bearing": "SE", "naptan:CommonName": "Southcroft Road", "naptan:Indicator": "Opp Southcroft Road", "naptan:Landmark": "Southcroft Road", "naptan:NaptanCode": "75235729", "naptan:PlusbusZoneRef": "GLGC", "naptan:Street": "Glasgow Road", "naptan:verified": "no", "public_transport": "platform", "source": "naptan_import"}}, {"type": "node", "id": 565753444, "lat": 55.8300959, "lon": -4.22034, "tags": {"bus": "yes", "highway": "bus_stop", "name": "Quay Road", "naptan:AtcoCode": "6150656", "naptan:Bearing": "SE", "naptan:CommonName": "Quay Road", "naptan:Indicator": "Opp Esso Garage", "naptan:Landmark": "Quay Road", "naptan:NaptanCode": "75232527", "naptan:PlusbusZoneRef": "GLGC", "naptan:Street": "Glasgow Road", "naptan:verified": "no", "public_transport": "platform", "source": "naptan_import"}}, {"type": "node", "id": 565753445, "lat": 55.8299024, "lon": -4.2206005, "tags": {"bus": "yes", "highway": "bus_stop", "name": "Western Avenue", "naptan:AtcoCode": "6150657", "naptan:Bearing": "NW", "naptan:CommonName": "Western Avenue", "naptan:Indicator": "At Western Avenue", "naptan:Landmark": "Western Avenue", "naptan:NaptanCode": "75235737", "naptan:PlusbusZoneRef": "GLGC", "naptan:Street": "Glasgow Road", "naptan:verified": "no", "public_transport": "platform", "source": "naptan_import"}}, {"type": "node", "id": 565753446, "lat": 55.8277028, "lon": -4.2184792, "tags": {"bench": "yes", "bus": "yes", "highway": "bus_stop", "name": "Main Street", "naptan:AtcoCode": "6150658", "naptan:Bearing": "S", "naptan:CommonName": "Main Street", "naptan:Indicator": "Near Greenhill Road", "naptan:Landmark": "Main Street", "naptan:NaptanCode": "75234942", "naptan:PlusbusZoneRef": "GLGC", "naptan:Street": "Mill Street", "naptan:verified": "no", "public_transport": "platform", "shelter": "yes", "source": "naptan_import"}}, {"type": "node", "id": 565753447, "lat": 55.827445, "lon": -4.2188158, "tags": {"bus": "yes", "highway": "bus_stop", "name": "Burnhill Street", "naptan:AtcoCode": "6150659", "naptan:Bearing": "N", "naptan:CommonName": "Burnhill Street", "naptan:Indicator": "Near Burnhill Street", "naptan:Landmark": "Burnhill Street", "naptan:NaptanCode": "75236584", "naptan:PlusbusZoneRef": "GLGC", "naptan:Street": "Mill Street", "naptan:verified": "no", "public_transport": "platform", "source": "naptan_import"}}, {"type": "node", "id": 565753449, "lat": 55.8251102, "lon": -4.2177089, "tags": {"bus": "yes", "highway": "bus_stop", "name": "Bankhead Road", "naptan:AtcoCode": "6150660", "naptan:Bearing": "N", "naptan:CommonName": "Bankhead Road", "naptan:Indicator": "Near Bankhead Road", "naptan:Landmark": "Bankhead Road", "naptan:NaptanCode": "75235468", "naptan:PlusbusZoneRef": "GLGC", "naptan:Street": "Mill Street", "naptan:verified": "no", "public_transport": "platform", "source": "naptan_import"}}, {"type": "node", "id": 565753450, "lat": 55.8251276, "lon": -4.2172468, "tags": {"bus": "yes", "highway": "bus_stop", "name": "Bankhead Road", "naptan:AtcoCode": "6150661", "naptan:Bearing": "S", "naptan:CommonName": "Bankhead Road", "naptan:Indicator": "Near Johnstone Drive", "naptan:Landmark": "Johnstone Drive", "naptan:NaptanCode": "75232595", "naptan:PlusbusZoneRef": "GLGC", "naptan:Street": "Mill Street", "naptan:verified": "no", "public_transport": "platform", "source": "naptan_import"}}, {"type": "node", "id": 565753451, "lat": 55.8208907, "lon": -4.2159521, "tags": {"highway": "bus_stop", "name": "Millburn Avenue", "naptan:AtcoCode": "6150662", "naptan:Bearing": "N", "naptan:CommonName": "Millburn Avenue", "naptan:Indicator": "Opp Rodger Drive", "naptan:Landmark": "Rodger Drive", "naptan:NaptanCode": "75235952", "naptan:PlusbusZoneRef": "GLGC", "naptan:Street": "Mill Street", "naptan:verified": "no", "source": "naptan_import"}}, {"type": "node", "id": 565753452, "lat": 55.8208099, "lon": -4.2154526, "tags": {"highway": "bus_stop", "name": "Rodger Drive", "naptan:AtcoCode": "6150663", "naptan:Bearing": "S", "naptan:CommonName": "Rodger Drive", "naptan:Indicator": "Rodger Drive", "naptan:Landmark": "Rodger Drive", "naptan:NaptanCode": "75234692", "naptan:PlusbusZoneRef": "GLGC", "naptan:Street": "Mill Street", "naptan:verified": "no", "source": "naptan_import"}}, {"type": "node", "id": 565753453, "lat": 55.8183136, "lon": -4.2153267, "tags": {"bus": "yes", "highway": "bus_stop", "name": "Rutherglen Cemetery", "naptan:AtcoCode": "6150664", "naptan:Bearing": "N", "naptan:CommonName": "Rutherglen Cemetery", "naptan:Indicator": "At Kingsburn Avenue", "naptan:Landmark": "Kingsburn Avenue", "naptan:NaptanCode": "75232894", "naptan:PlusbusZoneRef": "GLGC", "naptan:Street": "Mill Street", "naptan:verified": "no", "public_transport": "platform", "source": "naptan_import"}}, {"type": "node", "id": 565753454, "lat": 55.8180736, "lon": -4.2150591, "tags": {"bus": "yes", "highway": "bus_stop", "name": "Rutherglen Cemetery", "naptan:AtcoCode": "6150665", "naptan:Bearing": "S", "naptan:CommonName": "Rutherglen Cemetery", "naptan:Indicator": "Opp Kingsburn Avenue", "naptan:Landmark": "Kingsburn Avenue", "naptan:NaptanCode": "75236868", "naptan:PlusbusZoneRef": "GLGC", "naptan:Street": "Mill Street", "naptan:verified": "no", "public_transport": "platform", "source": "naptan_import"}}, {"type": "node", "id": 565753455, "lat": 55.8164429, "lon": -4.2150367, "tags": {"bus": "yes", "highway": "bus_stop", "name": "Kingsburn Avenue", "naptan:AtcoCode": "6150666", "naptan:Bearing": "N", "naptan:CommonName": "Kingsburn Avenue", "naptan:Indicator": "Opp Cemetery", "naptan:Landmark": "Kingsburn Avenue", "naptan:NaptanCode": "75236745", "naptan:PlusbusZoneRef": "GLGC", "naptan:Street": "Mill Street", "naptan:verified": "no", "public_transport": "platform", "source": "naptan_import"}}, {"type": "node", "id": 565753456, "lat": 55.8159227, "lon": -4.2145581, "tags": {"bus": "yes", "highway": "bus_stop", "name": "Croftfoot Road", "naptan:AtcoCode": "6150667", "naptan:Bearing": "S", "naptan:CommonName": "Croftfoot Road", "naptan:Indicator": "Opp Croftfoot Road", "naptan:Landmark": "Croftfoot Road", "naptan:NaptanCode": "75234372", "naptan:PlusbusZoneRef": "GLGC", "naptan:Street": "Mill Street", "naptan:verified": "no", "public_transport": "platform", "source": "naptan_import"}}, {"type": "node", "id": 565753457, "lat": 55.8138214, "lon": -4.2140181, "tags": {"bus": "yes", "highway": "bus_stop", "name": "Woodend Road", "naptan:AtcoCode": "6150668", "naptan:Bearing": "S", "naptan:CommonName": "Woodend Road", "naptan:Indicator": "Opp Stathmore elderly home", "naptan:Landmark": "Woodend Road", "naptan:NaptanCode": "75234965", "naptan:PlusbusZoneRef": "GLGC", "naptan:Street": "Fernhill Road", "naptan:verified": "no", "public_transport": "platform", "source": "naptan_import"}}, {"type": "node", "id": 565753459, "lat": 55.8105875, "lon": -4.2126774, "tags": {"highway": "bus_stop", "name": "Woodend Road", "naptan:AtcoCode": "6150669", "naptan:Bearing": "S", "naptan:CommonName": "Woodend Road", "naptan:Crossing": "Woodend Road", "naptan:Indicator": "At Woodend Road", "naptan:Landmark": "St Marks", "naptan:NaptanCode": "75235378", "naptan:PlusbusZoneRef": "GLGC", "naptan:Street": "Fernhill Road", "naptan:verified": "no", "source": "naptan_import"}}, {"type": "node", "id": 565753466, "lat": 55.8106557, "lon": -4.2128486, "tags": {"highway": "bus_stop", "name": "Woodend Road", "naptan:AtcoCode": "6150670", "naptan:Bearing": "N", "naptan:CommonName": "Woodend Road", "naptan:Crossing": "Woodend Road", "naptan:Indicator": "Opp Woodend Road", "naptan:Landmark": "St Marks", "naptan:NaptanCode": "75236354", "naptan:PlusbusZoneRef": "GLGC", "naptan:Street": "Fernhill Road", "naptan:verified": "no", "source": "naptan_import"}}, {"type": "node", "id": 565753470, "lat": 55.809511, "lon": -4.2120335, "tags": {"highway": "bus_stop", "name": "Bowhouse Way", "naptan:AtcoCode": "6150672", "naptan:Bearing": "SE", "naptan:CommonName": "Bowhouse Way", "naptan:Indicator": "Opp Bowhouse Way", "naptan:Landmark": "Bowhouse Way", "naptan:NaptanCode": "75232342", "naptan:PlusbusZoneRef": "GLGC", "naptan:Street": "Fernhill Road", "naptan:verified": "no", "source": "naptan_import"}}, {"type": "node", "id": 565753474, "lat": 55.8091295, "lon": -4.2117565, "tags": {"highway": "bus_stop", "name": "Castlefern Road", "naptan:AtcoCode": "6150673", "naptan:Bearing": "NW", "naptan:CommonName": "Castlefern Road", "naptan:Indicator": "At Castlefern Road", "naptan:Landmark": "Castlefern Road", "naptan:NaptanCode": "75235246", "naptan:PlusbusZoneRef": "GLGC", "naptan:Street": "Fernhill Road", "naptan:verified": "no", "source": "naptan_import"}}, {"type": "node", "id": 565753498, "lat": 55.8156736, "lon": -4.2031889, "tags": {"highway": "bus_stop", "name": "Burnside Road", "naptan:AtcoCode": "6150703", "naptan:Bearing": "E", "naptan:CommonName": "Burnside Road", "naptan:Indicator": "Near Burnside Road", "naptan:Landmark": "Burnside Road", "naptan:NaptanCode": "75235247", "naptan:PlusbusZoneRef": "GLGC", "naptan:Street": "Blairbeth Road", "naptan:verified": "no", "source": "naptan_import"}}, {"type": "node", "id": 565753500, "lat": 55.8099854, "lon": -4.1875299, "tags": {"highway": "bus_stop", "name": "Atholl Gardens", "naptan:AtcoCode": "6150710", "naptan:Bearing": "S", "naptan:CommonName": "Atholl Gardens", "naptan:Indicator": "At Atholl Gardens", "naptan:Landmark": "Atholl Gardens", "naptan:NaptanCode": "75236936", "naptan:PlusbusZoneRef": "GLGC", "naptan:Street": "Cruachan Road", "naptan:verified": "no", "source": "naptan_import"}}, {"type": "node", "id": 565753501, "lat": 55.8101963, "lon": -4.1877971, "tags": {"highway": "bus_stop", "name": "Lochaber Drive", "naptan:AtcoCode": "6150711", "naptan:Bearing": "N", "naptan:CommonName": "Lochaber Drive", "naptan:Indicator": "At Lochaber Drive", "naptan:Landmark": "Lochaber Drive", "naptan:NaptanCode": "75235834", "naptan:PlusbusZoneRef": "GLGC", "naptan:Street": "Cruachan Road", "naptan:verified": "no", "source": "naptan_import"}}, {"type": "node", "id": 565753515, "lat": 55.8158903, "lon": -4.1981091, "tags": {"bench": "no", "bin": "no", "highway": "bus_stop", "name": "Fishescoates Gardens", "naptan:AtcoCode": "6150722", "naptan:Bearing": "SE", "naptan:CommonName": "Fishescoates Gardens", "naptan:Indicator": "At Burnside Hotel", "naptan:Landmark": "Fishescoates Gardens", "naptan:NaptanCode": "75234278", "naptan:PlusbusZoneRef": "GLGC", "naptan:Street": "East Kilbride Road", "naptan:verified": "no", "shelter": "no", "source": "naptan_import"}}, {"type": "node", "id": 565753516, "lat": 55.8148412, "lon": -4.1949533, "tags": {"highway": "bus_stop", "name": "Fishescoates Avenue", "naptan:AtcoCode": "6150723", "naptan:Bearing": "SE", "naptan:CommonName": "Fishescoates Avenue", "naptan:Indicator": "Opp Fishescoates Avenue", "naptan:Landmark": "Fishescoates Avenue", "naptan:NaptanCode": "75234248", "naptan:PlusbusZoneRef": "GLGC", "naptan:Street": "East Kilbride Road", "naptan:verified": "no", "source": "naptan_import"}}, {"type": "node", "id": 565753517, "lat": 55.8146115, "lon": -4.1947329, "tags": {"highway": "bus_stop", "name": "Fishescoates Avenue", "naptan:AtcoCode": "6150724", "naptan:Bearing": "NW", "naptan:CommonName": "Fishescoates Avenue", "naptan:Indicator": "Near Fishescoates Avenue", "naptan:Landmark": "Fishescoates Avenue", "naptan:NaptanCode": "75234872", "naptan:PlusbusZoneRef": "GLGC", "naptan:Street": "East Kilbride Road", "naptan:verified": "no", "shelter": "no", "source": "naptan_import"}}, {"type": "node", "id": 565753520, "lat": 55.8135631, "lon": -4.1929304, "tags": {"highway": "bus_stop", "name": "Strenabey Avenue", "naptan:AtcoCode": "6150725", "naptan:Bearing": "NW", "naptan:CommonName": "Strenabey Avenue", "naptan:Indicator": "At Strenabey Avenue", "naptan:Landmark": "Strenabey Avenue", "naptan:NaptanCode": "75235894", "naptan:PlusbusZoneRef": "GLGC", "naptan:Street": "East Kilbride Road", "naptan:verified": "no", "shelter": "yes", "source": "naptan_import"}}, {"type": "node", "id": 565753522, "lat": 55.8137924, "lon": -4.1927873, "tags": {"highway": "bus_stop", "name": "Strenabey Avenue", "naptan:AtcoCode": "6150726", "naptan:Bearing": "S", "naptan:CommonName": "Strenabey Avenue", "naptan:Indicator": "Opp Strenabey Avenue", "naptan:Landmark": "Strenabey Avenue", "naptan:NaptanCode": "75237263", "naptan:PlusbusZoneRef": "GLGC", "naptan:Street": "East Kilbride Road", "naptan:verified": "no", "shelter": "no", "source": "naptan_import"}}, {"type": "node", "id": 565753523, "lat": 55.8104283, "lon": -4.1868844, "tags": {"highway": "bus_stop", "name": "Cruachan Road", "naptan:AtcoCode": "6150727", "naptan:Bearing": "NW", "naptan:CommonName": "Cruachan Road", "naptan:Indicator": "Near Cruachan Road", "naptan:Landmark": "Cruachan Road", "naptan:NaptanCode": "75234648", "naptan:PlusbusZoneRef": "GLGC", "naptan:Street": "East Kilbride Road", "naptan:verified": "no", "source": "naptan_import"}}, {"type": "node", "id": 565753526, "lat": 55.8099973, "lon": -4.185344, "tags": {"highway": "bus_stop", "name": "Western Road", "naptan:AtcoCode": "6150728", "naptan:Bearing": "SE", "naptan:CommonName": "Western Road", "naptan:Indicator": "Near Western Road", "naptan:Landmark": "Western Road", "naptan:NaptanCode": "75234598", "naptan:PlusbusZoneRef": "GLGC", "naptan:Street": "East Kilbride Road", "naptan:verified": "no", "source": "naptan_import"}}, {"type": "node", "id": 565753533, "lat": 55.8099239, "lon": -4.1940062, "tags": {"highway": "bus_stop", "name": "Morar Terrace", "naptan:AtcoCode": "6150733", "naptan:Bearing": "SE", "naptan:CommonName": "Morar Terrace", "naptan:Indicator": "Opp Morar Terrace", "naptan:Landmark": "Morar Terrace", "naptan:NaptanCode": "75235672", "naptan:PlusbusZoneRef": "GLGC", "naptan:Street": "Lochbrae Drive", "naptan:verified": "no", "source": "naptan_import"}}, {"type": "node", "id": 583558971, "lat": 55.823023, "lon": -4.1706448}, {"type": "node", "id": 583586769, "lat": 55.8310024, "lon": -4.1744524}, {"type": "node", "id": 583586772, "lat": 55.8309775, "lon": -4.1749773}, {"type": "node", "id": 583587592, "lat": 55.8307019, "lon": -4.1799657}, {"type": "node", "id": 583587593, "lat": 55.8307986, "lon": -4.178085}, {"type": "node", "id": 838977089, "lat": 55.8376892, "lon": -4.1690125}, {"type": "node", "id": 838977090, "lat": 55.8389685, "lon": -4.1715408}, {"type": "node", "id": 838977092, "lat": 55.8404019, "lon": -4.1738308}, {"type": "node", "id": 940068639, "lat": 55.8311771, "lon": -4.1716252}, {"type": "node", "id": 940068838, "lat": 55.8310407, "lon": -4.1737688}, {"type": "node", "id": 977442278, "lat": 55.8283197, "lon": -4.1955586}, {"type": "node", "id": 977442283, "lat": 55.8272987, "lon": -4.1895028}, {"type": "node", "id": 977442469, "lat": 55.8280097, "lon": -4.1927495, "tags": {"railway": "switch"}}, {"type": "node", "id": 977442656, "lat": 55.8283984, "lon": -4.1962165}, {"type": "node", "id": 983238017, "lat": 55.8190426, "lon": -4.1714012}, {"type": "node", "id": 983238423, "lat": 55.8174724, "lon": -4.1607294}, {"type": "node", "id": 983238599, "lat": 55.8173941, "lon": -4.1592855}, {"type": "node", "id": 983238735, "lat": 55.819494, "lon": -4.173083}, {"type": "node", "id": 1027954456, "lat": 55.8175708, "lon": -4.1535932}, {"type": "node", "id": 1292026590, "lat": 55.8133254, "lon": -4.1639165}, {"type": "node", "id": 1347357071, "lat": 55.8186554, "lon": -4.2336299}, {"type": "node", "id": 1347357072, "lat": 55.8186698, "lon": -4.2338701}, {"type": "node", "id": 1378755735, "lat": 55.8303031, "lon": -4.212339}, {"type": "node", "id": 1378755742, "lat": 55.8316506, "lon": -4.2139731}, {"type": "node", "id": 1378755744, "lat": 55.8328781, "lon": -4.2141643}, {"type": "node", "id": 1378755745, "lat": 55.8326867, "lon": -4.2141301}, {"type": "node", "id": 1378755762, "lat": 55.8303541, "lon": -4.2124804}, {"type": "node", "id": 1378755763, "lat": 55.8327523, "lon": -4.2142884}, {"type": "node", "id": 1378755764, "lat": 55.8309821, "lon": -4.2134966}, {"type": "node", "id": 1378755776, "lat": 55.8304592, "lon": -4.2127244}, {"type": "node", "id": 1378755785, "lat": 55.8310965, "lon": -4.213609}, {"type": "node", "id": 1378755787, "lat": 55.8314949, "lon": -4.2138934}, {"type": "node", "id": 1378755791, "lat": 55.8330759, "lon": -4.214226}, {"type": "node", "id": 1378755792, "lat": 55.8298756, "lon": -4.2084654}, {"type": "node", "id": 1378755796, "lat": 55.8320048, "lon": -4.2140792}, {"type": "node", "id": 1378755799, "lat": 55.8319364, "lon": -4.2140677, "tags": {"railway": "signal", "railway:signal:direction": "forward", "railway:signal:main": "GB-NR:main", "railway:signal:main:form": "light", "ref": "GR885"}}, {"type": "node", "id": 1378755802, "lat": 55.830803, "lon": -4.2131946}, {"type": "node", "id": 1378755803, "lat": 55.8308385, "lon": -4.213108}, {"type": "node", "id": 1378755808, "lat": 55.8306525, "lon": -4.2130665}, {"type": "node", "id": 1378755814, "lat": 55.8305071, "lon": -4.2128204}, {"type": "node", "id": 1378755815, "lat": 55.8301148, "lon": -4.2107483}, {"type": "node", "id": 1378755817, "lat": 55.8313559, "lon": -4.2138105, "tags": {"name": "Rutherglen", "public_transport": "stop_position", "railway": "stop", "ref": "1", "train": "yes"}}, {"type": "node", "id": 1378755822, "lat": 55.8298465, "lon": -4.2081644}, {"type": "node", "id": 1378755835, "lat": 55.831737, "lon": -4.2140107}, {"type": "node", "id": 1378755842, "lat": 55.8323548, "lon": -4.214116}, {"type": "node", "id": 1378765929, "lat": 55.8307904, "lon": -4.2132281}, {"type": "node", "id": 1378765930, "lat": 55.8313219, "lon": -4.2135513}, {"type": "node", "id": 1378765931, "lat": 55.8305034, "lon": -4.2196432}, {"type": "node", "id": 1378765933, "lat": 55.8319133, "lon": -4.2138527}, {"type": "node", "id": 1378765934, "lat": 55.8321435, "lon": -4.2144545, "tags": {"crossing:barrier": "no", "railway": "level_crossing"}}, {"type": "node", "id": 1378765935, "lat": 55.8310225, "lon": -4.2132764}, {"type": "node", "id": 1378765939, "lat": 55.8319072, "lon": -4.2139414}, {"type": "node", "id": 1378765940, "lat": 55.83141, "lon": -4.213613}, {"type": "node", "id": 1378765941, "lat": 55.8307384, "lon": -4.2158264}, {"type": "node", "id": 1378765942, "lat": 55.8317128, "lon": -4.2146349}, {"type": "node", "id": 1378765943, "lat": 55.8310894, "lon": -4.2151828}, {"type": "node", "id": 1378765944, "lat": 55.8306857, "lon": -4.2159739}, {"type": "node", "id": 1378765947, "lat": 55.8318064, "lon": -4.2145905}, {"type": "node", "id": 1378765948, "lat": 55.8306465, "lon": -4.2161}, {"type": "node", "id": 1378765951, "lat": 55.8311825, "lon": -4.213436}, {"type": "node", "id": 1378765953, "lat": 55.8304176, "lon": -4.2183691}, {"type": "node", "id": 1378765954, "lat": 55.8314747, "lon": -4.213859}, {"type": "node", "id": 1378765955, "lat": 55.8316754, "lon": -4.2137518}, {"type": "node", "id": 1378765956, "lat": 55.831144, "lon": -4.2136237}, {"type": "node", "id": 1378765958, "lat": 55.8316014, "lon": -4.2146978}, {"type": "node", "id": 1378765960, "lat": 55.831457, "lon": -4.2147912}, {"type": "node", "id": 1378765961, "lat": 55.8316883, "lon": -4.213965}, {"type": "node", "id": 1378765963, "lat": 55.8317681, "lon": -4.2139945}, {"type": "node", "id": 1378765964, "lat": 55.8310179, "lon": -4.2134963}, {"type": "node", "id": 1378765965, "lat": 55.8330213, "lon": -4.2143432, "tags": {"railway": "switch"}}, {"type": "node", "id": 1378765968, "lat": 55.831871, "lon": -4.2138394}, {"type": "node", "id": 1378765970, "lat": 55.831538, "lon": -4.213894}, {"type": "node", "id": 1378765971, "lat": 55.830897, "lon": -4.2133615}, {"type": "node", "id": 1378765973, "lat": 55.8315029, "lon": -4.2136573}, {"type": "node", "id": 1378765976, "lat": 55.8308906, "lon": -4.2154938}, {"type": "node", "id": 1378765978, "lat": 55.8337632, "lon": -4.2147697, "tags": {"railway": "switch"}}, {"type": "node", "id": 1378765980, "lat": 55.8328972, "lon": -4.2143215}, {"type": "node", "id": 1378765981, "lat": 55.8318309, "lon": -4.2140133}, {"type": "node", "id": 1378765983, "lat": 55.8304944, "lon": -4.2172024}, {"type": "node", "id": 1378765984, "lat": 55.8308518, "lon": -4.2130725}, {"type": "node", "id": 1378765985, "lat": 55.8312468, "lon": -4.2134929}, {"type": "node", "id": 1378765988, "lat": 55.8318209, "lon": -4.2138189}, {"type": "node", "id": 1378765990, "lat": 55.8308985, "lon": -4.2131316}, {"type": "node", "id": 1378765992, "lat": 55.8311147, "lon": -4.213373}, {"type": "node", "id": 1378765995, "lat": 55.8308409, "lon": -4.2132965}, {"type": "node", "id": 1378766002, "lat": 55.8309915, "lon": -4.2153329}, {"type": "node", "id": 1378766003, "lat": 55.8308017, "lon": -4.2156628}, {"type": "node", "id": 1378766005, "lat": 55.8304266, "lon": -4.2178622}, {"type": "node", "id": 1378766006, "lat": 55.8306089, "lon": -4.2162555}, {"type": "node", "id": 1378766007, "lat": 55.8313559, "lon": -4.213791}, {"type": "node", "id": 1378766008, "lat": 55.8312571, "lon": -4.2137207}, {"type": "node", "id": 1378766009, "lat": 55.8304115, "lon": -4.2181841}, {"type": "node", "id": 1378766010, "lat": 55.8304146, "lon": -4.2180419}, {"type": "node", "id": 1378766020, "lat": 55.8312943, "lon": -4.2149441}, {"type": "node", "id": 1378766023, "lat": 55.8315844, "lon": -4.2137056}, {"type": "node", "id": 1378766024, "lat": 55.8305863, "lon": -4.2163762}, {"type": "node", "id": 1378766025, "lat": 55.8321433, "lon": -4.2140955, "tags": {"crossing:barrier": "no", "railway": "level_crossing"}}, {"type": "node", "id": 1378766028, "lat": 55.8319, "lon": -4.2140299}, {"type": "node", "id": 1378766032, "lat": 55.8311964, "lon": -4.2150514}, {"type": "node", "id": 1378766758, "lat": 55.8329703, "lon": -4.213757, "tags": {"railway": "switch", "railway:switch:electric": "no", "railway:switch:heated": "no", "railway:switch:local_operated": "yes"}}, {"type": "node", "id": 1378766759, "lat": 55.8307693, "lon": -4.2128184}, {"type": "node", "id": 1378766760, "lat": 55.8302067, "lon": -4.2113573}, {"type": "node", "id": 1378766761, "lat": 55.8324733, "lon": -4.2136529, "tags": {"railway": "switch", "railway:switch:electric": "no", "railway:switch:heated": "no", "railway:switch:local_operated": "yes"}}, {"type": "node", "id": 1378766762, "lat": 55.8301423, "lon": -4.2109496}, {"type": "node", "id": 1378766763, "lat": 55.8332057, "lon": -4.213782, "tags": {"railway": "switch", "railway:switch:electric": "no", "railway:switch:heated": "no", "railway:switch:local_operated": "yes"}}, {"type": "node", "id": 1378766764, "lat": 55.831484, "lon": -4.2134115, "tags": {"railway": "switch", "railway:switch:electric": "yes", "railway:switch:local_operated": "no", "ref": "933"}}, {"type": "node", "id": 1378766765, "lat": 55.8308955, "lon": -4.2129753}, {"type": "node", "id": 1378766766, "lat": 55.8333242, "lon": -4.2138118}, {"type": "node", "id": 1378766767, "lat": 55.8303286, "lon": -4.2118683}, {"type": "node", "id": 1378766768, "lat": 55.8304696, "lon": -4.2122753}, {"type": "node", "id": 1378766769, "lat": 55.8348651, "lon": -4.2143904}, {"type": "node", "id": 1378766770, "lat": 55.8301852, "lon": -4.2112292}, {"type": "node", "id": 1378766771, "lat": 55.8310631, "lon": -4.213155}, {"type": "node", "id": 1378766772, "lat": 55.8302553, "lon": -4.2115993}, {"type": "node", "id": 1378766773, "lat": 55.8340672, "lon": -4.2141069}, {"type": "node", "id": 1378766774, "lat": 55.8346157, "lon": -4.2142824}, {"type": "node", "id": 1378766775, "lat": 55.8306282, "lon": -4.2125992}, {"type": "node", "id": 1378766777, "lat": 55.8312231, "lon": -4.2132811}, {"type": "node", "id": 1378766780, "lat": 55.8316894, "lon": -4.2134827, "tags": {"railway": "switch", "railway:switch:electric": "no", "railway:switch:heated": "no", "railway:switch:local_operated": "yes"}}, {"type": "node", "id": 1378766782, "lat": 55.8337332, "lon": -4.2139706}, {"type": "node", "id": 1378766784, "lat": 55.8334626, "lon": -4.2138638}, {"type": "node", "id": 1378766786, "lat": 55.8313201, "lon": -4.2133416}, {"type": "node", "id": 1378766788, "lat": 55.8344151, "lon": -4.2141944}, {"type": "node", "id": 1378766790, "lat": 55.8351647, "lon": -4.214544, "tags": {"railway": "buffer_stop"}}, {"type": "node", "id": 1378766793, "lat": 55.830578, "lon": -4.2125047}, {"type": "node", "id": 1378766794, "lat": 55.8314069, "lon": -4.2133831}, {"type": "node", "id": 1378766795, "lat": 55.831781, "lon": -4.2135022}, {"type": "node", "id": 1378768556, "lat": 55.8366688, "lon": -4.2156881}, {"type": "node", "id": 1378768558, "lat": 55.8389785, "lon": -4.2170673}, {"type": "node", "id": 1378768560, "lat": 55.838604, "lon": -4.216952}, {"type": "node", "id": 1378768574, "lat": 55.8380798, "lon": -4.2167085}, {"type": "node", "id": 1378768576, "lat": 55.837188, "lon": -4.2160429}, {"type": "node", "id": 1378768579, "lat": 55.8373989, "lon": -4.2162166}, {"type": "node", "id": 1378768595, "lat": 55.8369279, "lon": -4.215849}, {"type": "node", "id": 1378768597, "lat": 55.8377523, "lon": -4.2165021}, {"type": "node", "id": 1379835471, "lat": 55.8307851, "lon": -4.222242, "tags": {"railway": "buffer_stop"}}, {"type": "node", "id": 1379835473, "lat": 55.8360955, "lon": -4.2380446}, {"type": "node", "id": 1379835474, "lat": 55.8331729, "lon": -4.2311395}, {"type": "node", "id": 1379835475, "lat": 55.8336794, "lon": -4.2335431}, {"type": "node", "id": 1379835476, "lat": 55.8301752, "lon": -4.2177289}, {"type": "node", "id": 1379835478, "lat": 55.8302303, "lon": -4.2184155}, {"type": "node", "id": 1379835481, "lat": 55.8300863, "lon": -4.2165713}, {"type": "node", "id": 1379835482, "lat": 55.8310352, "lon": -4.2241893}, {"type": "node", "id": 1379835483, "lat": 55.8324153, "lon": -4.2299283}, {"type": "node", "id": 1379835484, "lat": 55.8309206, "lon": -4.2243821}, {"type": "node", "id": 1379835485, "lat": 55.8303974, "lon": -4.2196903, "tags": {"name": "Rutherglen West Junction", "railway": "switch", "railway:switch:electric": "yes", "railway:switch:heated": "yes", "railway:switch:local_operated": "no", "ref": "965A"}}, {"type": "node", "id": 1379835486, "lat": 55.831222, "lon": -4.2253373}, {"type": "node", "id": 1379835487, "lat": 55.8359788, "lon": -4.237611}, {"type": "node", "id": 1379835488, "lat": 55.8365687, "lon": -4.2422159}, {"type": "node", "id": 1379835489, "lat": 55.8317074, "lon": -4.2276984},