{"version": 0.6, "generator": "Overpass API 0.7.62.8 e802775f", "osm3s": {"timestamp_osm_base": "2026-01-13T07:59:44Z", "copyright": "The data included in this document is from www.openstreetmap.org. The data is made available under ODbL."}, "elements": [{"type": "node", "id": 1356234984, "lat": 19.0698454, "lon": 72.9873953, "tags": {"addr:district": "Thane", "addr:full": "On Sion-Panvel Exprsssway Sector - 7 Vashi Navi Mumbai", "addr:housenumber": "Sector 7", "addr:postcode": "400703", "addr:state": "Maharashtra", "addr:street": "Sion Panvel Highway", "amenity": "hospital", "emergency": "yes", "healthcare": "hospital", "name": "Dr Kasbekar Sterling Hospital", "name:en": "Dr Kasbekar Sterling Hospital", "opening_hours": "24/7", "phone": "02266804444", "source": "OpenGovernmentData", "website": "http://www.navimumbai.wockhardthospitals.com"}}, {"type": "node", "id": 1366795256, "lat": 19.0687005, "lon": 72.9223936}, {"type": "node", "id": 1855812192, "lat": 19.1246531, "lon": 72.9172844, "tags": {"amenity": "hospital", "emergency": "no", "name": "Powai Dental Clinic"}}, {"type": "node", "id": 1855812194, "lat": 19.124088, "lon": 72.9164511, "tags": {"addr:district": "Mumbai Suburban", "addr:full": "1-A, BSNL Colony, Powai, Mumbai", "addr:postcode": "400076", "addr:state": "Maharastra", "amenity": "hospital", "name": "Powai Hospital", "source": "Local Knowledge"}}, {"type": "node", "id": 2629911301, "lat": 19.0821345, "lon": 72.9960687}, {"type": "node", "id": 2629911303, "lat": 19.0827854, "lon": 72.9950919}, {"type": "node", "id": 2629911308, "lat": 19.0833514, "lon": 72.9969617}, {"type": "node", "id": 2629911326, "lat": 19.0839364, "lon": 72.9960826}, {"type": "node", "id": 2913810856, "lat": 19.1085023, "lon": 73.0017953, "tags": {"addr:district": "Thane", "addr:full": "Plot 12-13, Sector-20, Koparkhairane", "addr:postcode": "400709", "addr:state": "Maharashtra", "amenity": "hospital", "building": "hospital", "name": "Sai Snehdeep Hospital KK", "source": "OpenGovernmentData"}}, {"type": "node", "id": 2930722306, "lat": 19.0615785, "lon": 72.9282129, "tags": {"amenity": "hospital", "name": "Dr.zamil"}}, {"type": "node", "id": 3204211842, "lat": 19.0501477, "lon": 72.9193344, "tags": {"amenity": "hospital", "name": "jonsons diagnostics"}}, {"type": "node", "id": 3205777380, "lat": 19.0628029, "lon": 72.9187087}, {"type": "node", "id": 3205935610, "lat": 19.0677525, "lon": 72.9275925, "tags": {"amenity": "hospital", "name": "mahaveer hospital"}}, {"type": "node", "id": 3213764477, "lat": 19.0608709, "lon": 72.9247689, "tags": {"addr:city": "mumbai", "addr:housenumber": "room no:10,line no:q,plot no:12", "addr:postcode": "400043", "addr:street": "Jeejabai Bhosle Marg", "amenity": "hospital", "emergency": "yes", "name": "sanjeevan hospital"}}, {"type": "node", "id": 3213767187, "lat": 19.0668912, "lon": 72.9134181, "tags": {"amenity": "hospital", "name": "Metalife"}}, {"type": "node", "id": 3215517363, "lat": 19.0524549, "lon": 72.9185421, "tags": {"amenity": "hospital", "name": "AMAN"}}, {"type": "node", "id": 3215654162, "lat": 19.0694984, "lon": 72.922163}, {"type": "node", "id": 3215654163, "lat": 19.069459, "lon": 72.922551}, {"type": "node", "id": 3215654165, "lat": 19.0689462, "lon": 72.9218717}, {"type": "node", "id": 3226211962, "lat": 19.0688224, "lon": 72.9220954}, {"type": "node", "id": 3546099443, "lat": 19.103538, "lon": 72.927049}, {"type": "node", "id": 3589059585, "lat": 19.1199252, "lon": 72.9169426}, {"type": "node", "id": 3589059586, "lat": 19.1194659, "lon": 72.9165097}, {"type": "node", "id": 3589059589, "lat": 19.1203754, "lon": 72.916834}, {"type": "node", "id": 3589059590, "lat": 19.120384, "lon": 72.9173107}, {"type": "node", "id": 3589059693, "lat": 19.1205569, "lon": 72.9169067}, {"type": "node", "id": 3589059694, "lat": 19.1207223, "lon": 72.9175821}, {"type": "node", "id": 3589059695, "lat": 19.1209386, "lon": 72.9175925}, {"type": "node", "id": 3589059696, "lat": 19.1210592, "lon": 72.9172368}, {"type": "node", "id": 3595978146, "lat": 19.0730277, "lon": 72.9985548}, {"type": "node", "id": 3595978151, "lat": 19.0730657, "lon": 72.9981327}, {"type": "node", "id": 3595978327, "lat": 19.0732863, "lon": 72.9985808}, {"type": "node", "id": 3595978336, "lat": 19.0733243, "lon": 72.9981587}, {"type": "node", "id": 3596277926, "lat": 19.0871471, "lon": 73.0003864}, {"type": "node", "id": 3596277927, "lat": 19.0871823, "lon": 73.0002639}, {"type": "node", "id": 3596277928, "lat": 19.0872528, "lon": 73.0004203}, {"type": "node", "id": 3596277929, "lat": 19.087288, "lon": 73.0002979}, {"type": "node", "id": 3643855725, "lat": 19.0731464, "lon": 72.9984228}, {"type": "node", "id": 3643855738, "lat": 19.0731716, "lon": 72.9981433}, {"type": "node", "id": 3643855747, "lat": 19.0731939, "lon": 72.9984275}, {"type": "node", "id": 3643855753, "lat": 19.073219, "lon": 72.9981481}, {"type": "node", "id": 3958000626, "lat": 19.0391617, "lon": 72.9488101, "tags": {"amenity": "hospital", "name": "Aryan Hospital"}}, {"type": "node", "id": 3981413826, "lat": 19.0626455, "lon": 72.9190606}, {"type": "node", "id": 3981413827, "lat": 19.0626742, "lon": 72.9190735}, {"type": "node", "id": 3981413833, "lat": 19.0631962, "lon": 72.9193221}, {"type": "node", "id": 4344894369, "lat": 19.1031857, "lon": 72.9278858}, {"type": "node", "id": 4344894373, "lat": 19.1033428, "lon": 72.9285564}, {"type": "node", "id": 4344894376, "lat": 19.1036292, "lon": 72.928095}, {"type": "node", "id": 4344894379, "lat": 19.1038244, "lon": 72.92872}, {"type": "node", "id": 4344894381, "lat": 19.1041108, "lon": 72.9280709}, {"type": "node", "id": 4344894382, "lat": 19.1043617, "lon": 72.9279126}, {"type": "node", "id": 4344894386, "lat": 19.1046455, "lon": 72.9275291}, {"type": "node", "id": 4344894387, "lat": 19.1046684, "lon": 72.9280038}, {"type": "node", "id": 4344894389, "lat": 19.1048204, "lon": 72.9280253}, {"type": "node", "id": 4344894390, "lat": 19.1049319, "lon": 72.9276149}, {"type": "node", "id": 4344894392, "lat": 19.1050029, "lon": 72.9279743}, {"type": "node", "id": 4344894394, "lat": 19.1050739, "lon": 72.9278912}, {"type": "node", "id": 4344894395, "lat": 19.1051372, "lon": 72.9276337}, {"type": "node", "id": 4812725189, "lat": 19.0730116, "lon": 72.993445}, {"type": "node", "id": 4812725190, "lat": 19.0729355, "lon": 72.994357}, {"type": "node", "id": 4812725191, "lat": 19.0722815, "lon": 72.9942926}, {"type": "node", "id": 4812725192, "lat": 19.0723373, "lon": 72.9933914}, {"type": "node", "id": 5496386517, "lat": 19.0749895, "lon": 72.9893399}, {"type": "node", "id": 5496386518, "lat": 19.074902, "lon": 72.9903494}, {"type": "node", "id": 5496386519, "lat": 19.0738369, "lon": 72.9902459}, {"type": "node", "id": 5496386520, "lat": 19.0739245, "lon": 72.9892366}, {"type": "node", "id": 7043182325, "lat": 19.0624707, "lon": 73.0060434, "tags": {"addr:district": "Thane", "addr:full": "Plot No.-1&1A, Sun Palm View Bldg., Sanapada, Sector-15, Navi Mumbai", "addr:postcode": "400705", "addr:state": "Maharashtra", "amenity": "hospital", "name": "Dr. R.N. Patil's Suraj Neurologiacal and Multispeciality Hospital", "source": "OpenGovernmentData"}}, {"type": "node", "id": 7043399089, "lat": 19.081001, "lon": 72.9988839, "tags": {"addr:district": "Thane", "addr:full": "F2/D2 Sector 9 Vashi, Navi Mumbai", "addr:postcode": "400703", "addr:state": "Maharashtra", "amenity": "hospital", "name": "Dr. Kunnure Hospital and Iccu", "source": "OpenGovernmentData"}}, {"type": "node", "id": 7044376947, "lat": 19.0628176, "lon": 72.9207404, "tags": {"addr:district": "Mumbai", "addr:full": "Plot No-18-U-1-1(A) & 2, Near Bhaji Market, Shivaji Nagar, Govandi", "addr:postcode": "400043", "addr:state": "Maharashtra", "amenity": "hospital", "name": "Vikas Nursing Home, Mumbai", "source": "OpenGovernmentData"}}, {"type": "node", "id": 7047301433, "lat": 19.0823723, "lon": 72.9998548, "tags": {"addr:district": "Thane", "addr:full": "F-7/A-1,Sector-10,(Above Hotel Trimurti),Near Vijaya Bank,Vashi,Navi Mumbai", "addr:postcode": "400703", "addr:state": "Maharashtra", "amenity": "hospital", "name": "Uma Hospital", "source": "OpenGovernmentData"}}, {"type": "node", "id": 7048131891, "lat": 19.1006081, "lon": 72.9986988, "tags": {"addr:district": "Thane", "addr:full": "1st Floor, Natasha Towers, Plot No.84, Sector No.17,OppositeMmmc Hospital,Khairane,Navi Mumbai", "addr:postcode": "400709", "addr:state": "Maharashtra", "amenity": "hospital", "name": "Vedaant Multispeciality Hospital", "source": "OpenGovernmentData"}}, {"type": "node", "id": 7048950247, "lat": 19.1154687, "lon": 72.9306605, "tags": {"addr:district": "Mumbai", "addr:full": "237/3258, Tagore Nagar, Opp: Muncipal Market, Vikroli - East", "addr:postcode": "400083", "addr:state": "Maharashtra", "amenity": "hospital", "name": "Modi General Hospital and Iccu", "source": "OpenGovernmentData"}}, {"type": "node", "id": 7049182746, "lat": 19.0926292, "lon": 72.9125141, "tags": {"addr:district": "Mumbai", "addr:full": "C Wing, 4th Floor, Bhaveshwar Plaza, L.B.S.Marg, Ghatkopar (West)", "addr:postcode": "400086", "addr:state": "Maharashtra", "amenity": "hospital", "email": "drgujars@yahoo.com", "name": "Amruta Surgical and Maternity Home", "operator:type": "private", "source": "OpenGovernmentData", "website": "http://www.amrutasurgicalandmaternityhome.com/"}}, {"type": "node", "id": 7049253111, "lat": 19.0805599, "lon": 73.0030265, "tags": {"addr:district": "Thane", "addr:full": "Plot No:57, Sector 15-A,Vashi", "addr:postcode": "400705", "addr:state": "Maharashtra", "amenity": "hospital", "name": "Pkc Hospital", "source": "OpenGovernmentData"}}, {"type": "node", "id": 7049803405, "lat": 19.0931817, "lon": 72.9131524, "tags": {"addr:district": "Mumbai", "addr:full": "401, Rajshree Plaza, L.B.S. Marg, Opposite Shreyas Theatre, Ghatkopar(West)", "addr:postcode": "400086", "addr:state": "Maharashtra", "amenity": "hospital", "name": "Suyog Urology Centre", "source": "OpenGovernmentData"}}, {"type": "node", "id": 7050247346, "lat": 19.0994752, "lon": 73.005757, "tags": {"addr:district": "Thane", "addr:full": "Giriraj Dham Plot. No11, Sector -10,1st Floor, Nxt 2 Pancharatna Hotel,Koparkhairane,Navi Mumbai", "addr:postcode": "400709", "addr:state": "Maharashtra", "amenity": "hospital", "name": "Vidhi Eye and Skin Care Centre", "source": "OpenGovernmentData"}}, {"type": "node", "id": 7050525480, "lat": 19.0739489, "lon": 72.9993063, "tags": {"addr:district": "Thane", "addr:full": "New Bombay", "addr:postcode": "400705", "addr:state": "Maharashtra", "amenity": "hospital", "name": "Thanawala Maternity Home", "source": "OpenGovernmentData"}}, {"type": "node", "id": 7050593685, "lat": 19.0980824, "lon": 73.0056068, "tags": {"addr:district": "Thane", "addr:full": "A/42, Sagar Co.Ophousing Society, Sector-10, Koparkhairane, Navi Mumbai", "addr:postcode": "400709", "addr:state": "Maharashtra", "amenity": "hospital", "name": "Saraswati Skin and Eye Care Centre", "source": "OpenGovernmentData"}}, {"type": "node", "id": 7050603512, "lat": 19.1134362, "lon": 72.9315296, "tags": {"addr:district": "Mumbai", "addr:full": "210/3042, Near Sangali Sahakari Bank, Tagore Nagar No.1, Vikhroli(E)", "addr:postcode": "400083", "addr:state": "Maharashtra", "amenity": "hospital", "name": "Laxmi Health Care Center and Iccu", "source": "OpenGovernmentData"}}, {"type": "node", "id": 7051344976, "lat": 19.1024207, "lon": 73.0037589, "tags": {"addr:district": "Thane", "addr:full": "102, Shubham Cooperative Society, Sector-18, Plot-77, Near Kotak Mahindra Bank, Koparkhairane", "addr:postcode": "400709", "addr:state": "Maharashtra", "amenity": "hospital", "name": "Om Gagangiri Hospital, Thane, NAVI MUMBAI", "source": "OpenGovernmentData"}}, {"type": "node", "id": 7051759654, "lat": 19.0737816, "lon": 72.9997086, "tags": {"addr:district": "Thane", "addr:full": "Rosewood, Sector 2, Airoli Navi Mumbai", "addr:postcode": "400708", "addr:state": "Maharashtra", "amenity": "hospital", "name": "Thanawalas Maternity Home & IVF Clinic", "source": "OpenGovernmentData"}}, {"type": "node", "id": 7051990083, "lat": 19.0817095, "lon": 72.9966067, "tags": {"addr:district": "Thane", "addr:full": "Plot 6B, Sector 9, Vashi, Navi Mumbai", "addr:postcode": "400703", "addr:state": "Maharashtra", "amenity": "hospital", "name": "Dr Yewale Multispeciality Hospital For Children", "source": "OpenGovernmentData"}}, {"type": "node", "id": 7052767202, "lat": 19.1095801, "lon": 72.9264937, "tags": {"addr:district": "Mumbai", "addr:full": "A- Kumar Apartments, Behind St.Joseph School,Vikhroli(W)", "addr:postcode": "400079", "addr:state": "Maharashtra", "amenity": "hospital", "name": "Samarth Hospital, Mumbai", "source": "OpenGovernmentData"}}, {"type": "node", "id": 7054152139, "lat": 19.1152368, "lon": 72.9335748, "tags": {"addr:district": "Mumbai", "addr:full": "No. 199/2952, Group No. 08/B,Opposite Old Tagore Nagar Post Office,Vikhroli East", "addr:postcode": "400083", "addr:state": "Maharashtra", "amenity": "hospital", "name": "Yashwant Hospital, Mumbai", "source": "OpenGovernmentData"}}, {"type": "node", "id": 7055034735, "lat": 19.1206928, "lon": 73.0028686, "tags": {"addr:district": "Thane", "addr:full": "Plot No.21 , Sector 6, Ghansoli, Navi Mumbai", "addr:postcode": "400701", "addr:state": "Maharashtra", "amenity": "hospital", "name": "Divine Multispecialty Hospital and Research Centre", "source": "OpenGovernmentData"}}, {"type": "node", "id": 7055082976, "lat": 19.0897992, "lon": 73.0047123, "tags": {"addr:district": "Thane", "addr:full": "A-01, Mahavir Dham Plot No 112, Sector 12, Vashi, Navi Mumbai", "addr:postcode": "400703", "addr:state": "Maharashtra", "amenity": "hospital", "name": "Ashirwad Hospital Maternity Surgical and General", "source": "OpenGovernmentData"}}, {"type": "node", "id": 7055110020, "lat": 19.1013786, "lon": 73.0046265, "tags": {"addr:district": "Thane", "addr:full": "Amar House, 1st Floor,Plot No.98, Sector - 7, Kopar Khairne Main Road", "addr:postcode": "400601", "addr:state": "Maharashtra", "amenity": "hospital", "name": "Aakashdeep Hospital and I.C.U", "source": "OpenGovernmentData"}}, {"type": "node", "id": 7062539947, "lat": 19.1161551, "lon": 72.9306163, "tags": {"addr:district": "Mumbai", "addr:full": "2/252/3369, Tagore Nagar, Vikhroli", "addr:postcode": "400089", "addr:state": "Maharashtra", "amenity": "hospital", "name": "Priya Maternity Home", "source": "OpenGovernmentData"}}, {"type": "node", "id": 7063805560, "lat": 19.1190712, "lon": 72.9344156, "tags": {"addr:district": "Mumbai", "addr:full": "139/2447, Group Vii, Tagore Nagar, Vikhroli (E)", "addr:postcode": "400083", "addr:state": "Maharashtra", "amenity": "hospital", "name": "Atul - Lok Hospital", "source": "OpenGovernmentData"}}, {"type": "node", "id": 7064346355, "lat": 19.0705622, "lon": 72.998676, "tags": {"addr:district": "Thane", "addr:full": "Archana Jyoti, 1st Floor, Plot No. 18, Sector 17 Dbc, Vashi, , Navi Mumbai", "addr:postcode": "400705", "addr:state": "Maharashtra", "amenity": "hospital", "healthcare": "hospital", "name": "Navjeevan Hospital", "source": "OpenGovernmentData"}}, {"type": "node", "id": 7064400808, "lat": 19.0719742, "lon": 72.9999232, "tags": {"addr:district": "Thane", "addr:full": "102/A, Anand Sagar, Abhyudaya Bank Marg, Sector-17, Vashi, Navi Mumbai", "addr:postcode": "400705", "addr:state": "Maharashtra", "amenity": "hospital", "healthcare": "hospital", "healthcare:speciality": "maternity", "name": "Dr. Tilwe Maternity and Nursing Home", "source": "OpenGovernmentData"}}, {"type": "node", "id": 7065817370, "lat": 19.0990443, "lon": 73.0046439, "tags": {"addr:district": "Thane", "addr:full": "Plot No.12, Sec-14, Opposite D-Mart Circle, Koparkhairane, Navi Mumbai", "addr:postcode": "400709", "addr:state": "Maharashtra", "amenity": "hospital", "name": "Satyam Multispeciality Hospital and Trauma Centre", "source": "OpenGovernmentData"}}, {"type": "node", "id": 7067113507, "lat": 19.0814104, "lon": 73.0005576, "tags": {"addr:district": "Thane", "addr:full": "Plot No.:51, Sector -15, Near Maratha Bhavan, Opposite Cidco Samaj Mandir, Vashi, Navi Mumbaai", "addr:postcode": "400705", "addr:state": "Maharashtra", "amenity": "hospital", "name": "Mohanlal Jivandas Hospital managed by Krishnai Hospital", "source": "OpenGovernmentData"}}, {"type": "node", "id": 7070857457, "lat": 19.0738577, "lon": 72.9993036, "tags": {"addr:district": "Thane", "addr:full": "20,30 & 31, Mahavir Centre, Sector 17", "addr:postcode": "400703", "addr:state": "Maharashtra", "amenity": "hospital", "name": "Dr. Parikhs Nursing Home and Iccu - Vashi", "source": "OpenGovernmentData"}}, {"type": "node", "id": 7072535182, "lat": 19.0924974, "lon": 72.9124309, "tags": {"addr:district": "Mumbai", "addr:full": "Bhaveshwar Plaza, C Wing, 2nd Floor, Lal Bahadur Shastri Road, Ghatkoper West", "addr:postcode": "400086", "addr:state": "Maharashtra", "amenity": "hospital", "name": "Satyam Hospital", "source": "OpenGovernmentData"}}, {"type": "node", "id": 7072544639, "lat": 19.0995664, "lon": 73.006162, "tags": {"addr:district": "Thane", "addr:full": "Plot 13, Sector 10, D - Mart, Kopar Khairane, Navi Mumbai", "addr:postcode": "400709", "addr:state": "Maharashtra", "amenity": "hospital", "email": "info@rajpaloldagehome.com", "name": "Rajpal Hospital and I.C.U.", "source": "OpenGovernmentData", "website": "https://www.rajpaloldagehome.com/"}}, {"type": "node", "id": 7072544640, "lat": 19.0797703, "lon": 72.9981503, "tags": {"addr:district": "Thane", "addr:full": "F-2/D-1, Aditi Apartments, F-Type Building, Main Road, Sector No 9, Near Shabri Hotel, Vashi, Navi Mumbai", "addr:postcode": "400703", "addr:state": "Maharashtra", "amenity": "hospital", "email": "global5health@gmail.com", "name": "Global 5 Health Care Centre", "source": "OpenGovernmentData", "website": "https://www.global5hospital.com/"}}, {"type": "node", "id": 7073944650, "lat": 19.0787817, "lon": 73.0014119, "tags": {"addr:district": "Thane", "addr:full": "Unit 8-8A, Balaji Sadan, Plot 20-D, Sector-15, Opposite Icl School Ground,Near Modern College", "addr:postcode": "400705", "addr:state": "Maharashtra", "amenity": "hospital", "name": "Lotus Multispeciality Hospital and Icu", "source": "OpenGovernmentData"}}, {"type": "node", "id": 7085422788, "lat": 19.1166953, "lon": 72.9370737, "tags": {"addr:district": "Mumbai", "addr:full": "Sambhaji Maidan Circle,Sai Prasad Shopping Centre", "addr:postcode": "400083", "addr:state": "Maharashtra", "amenity": "hospital", "name": "Sai Hospital, Mumbai", "source": "OpenGovernmentData"}}, {"type": "node", "id": 7225067214, "lat": 19.06335, "lon": 72.9189903}, {"type": "node", "id": 7225067275, "lat": 19.1180038, "lon": 72.9394753, "tags": {"addr:district": "Mumbai", "addr:full": "Krantiveer Mahatma Jyotiba Phule Hospital, Vikas College Road, Kannamwar Nagar - 2", "addr:postcode": "400083", "addr:state": "Maharashtra", "amenity": "hospital", "description": "Sub District Hospital", "name": "Krantiveer Mahatma Jyotiba Phule Hospital, Vikhroli", "source": "OpenGovernmentData"}}, {"type": "node", "id": 7607631740, "lat": 19.0536272, "lon": 72.9232104, "tags": {"addr:district": "Mumbai", "addr:full": "Deonar", "addr:postcode": "400043", "addr:state": "Maharashtra", "amenity": "hospital", "name": "Deonar Maternity Home", "source": "Local Knowledge"}}, {"type": "node", "id": 7663961398, "lat": 19.0605847, "lon": 72.9169906, "tags": {"addr:district": "Mumbai Suburban", "addr:full": "Sonapur Road, New Gautam Nagar, Govandi East, Mumbai", "addr:postcode": "400043", "addr:state": "Maharastra", "amenity": "hospital", "name": "Dr. Ashfaque Shah's City Hospital", "source": "Local Knowledge"}}, {"type": "node", "id": 7663961401, "lat": 19.076394, "lon": 72.91527, "tags": {"addr:district": "Mumbai Suburban", "addr:full": "Eastern Express Highway, Ramabai Ambedkar Nagar, Mumbai", "addr:postcode": "400075", "addr:state": "Maharastra", "amenity": "hospital", "name": "Dadasaheb Gaikwad BMC Hospital", "source": "Local Knowledge"}}, {"type": "node", "id": 7663961413, "lat": 19.07815, "lon": 72.916753, "tags": {"addr:district": "Mumbai Suburban", "addr:full": "Kirol Gaon, Ramabai Ambedkar Nagar, Mankur, Mumbai", "addr:postcode": "400075", "addr:state": "Maharastra", "amenity": "hospital", "name": "Sona Maternity and Surgical Nursing Home", "source": "Local Knowledge"}}, {"type": "node", "id": 7663961445, "lat": 19.116499, "lon": 72.931802, "tags": {"addr:district": "Mumbai Suburban", "addr:full": "Seth Govindram Jolly Marg, Group 2, Sona Intp Colony, Tagore Nagar, Vikhroli, Mumbai", "addr:postcode": "400083", "addr:state": "Maharastra", "amenity": "hospital", "name": "Ruby Hospital", "source": "Local Knowledge"}}, {"type": "node", "id": 7663961457, "lat": 19.0632122, "lon": 72.9197954, "tags": {"addr:district": "Mumbai Suburban", "addr:full": "Baji Prabhu Deshpande Road, Govandi West, Phase 1, Shivaji Nagar, Mumbai", "addr:postcode": "400043", "addr:state": "Maharastra", "amenity": "hospital", "name": "Mahavir Hospital", "source": "Local Knowledge"}}, {"type": "node", "id": 7663961495, "lat": 19.0636814, "lon": 72.9199586, "tags": {"addr:district": "Mumbai Suburban", "addr:full": "Shivaji Nagar, Govandi West, Phase 1, Shivaji Nagar, Mumbai", "addr:postcode": "400043", "addr:state": "Maharastra", "amenity": "hospital", "name": "Jeevan Jyot Hospital and Nursing Home", "source": "Local Knowledge"}}, {"type": "node", "id": 8797173216, "lat": 19.0952772, "lon": 72.9137056, "tags": {"addr:district": "Mumbai", "addr:full": "E-1, Society, Ghatkopar West, Mumbai", "addr:postcode": "400086", "addr:state": "Maharashtra", "amenity": "hospital", "name": "Shantiniketan Hospital", "source": "Local Knowledge"}}, {"type": "node", "id": 8816437186, "lat": 19.1043782, "lon": 73.0037038, "tags": {"addr:district": "Thane", "addr:full": "Kopar Khairane, Navi Mumbai", "addr:postcode": "400709", "addr:state": "Maharashtra", "amenity": "hospital", "name": "Mathadi Hospital KK", "source": "Local Knowledge"}}, {"type": "node", "id": 8816579299, "lat": 19.0875015, "lon": 73.0030788, "tags": {"addr:district": "Thane", "addr:full": "plot 108, 109, Juhu ,Vashi, Navi Mumbai", "addr:postcode": "400703", "addr:state": "Maharashtra", "amenity": "hospital", "name": "Vinamra Swaraj Hospital", "source": "Local Knowledge"}}, {"type": "node", "id": 8817467502, "lat": 19.1124807, "lon": 72.9345149}, {"type": "node", "id": 8817571670, "lat": 19.062128, "lon": 72.921592, "tags": {"addr:district": "Thane", "addr:full": "Plot No. 46/K/1,2 3, Govandi West, Shivaji Nagar, Mumbai", "addr:postcode": "400043", "addr:state": "Maharashtra", "amenity": "hospital", "name": "S.N. Hospital", "source": "Local Knowledge"}}, {"type": "node", "id": 10276589054, "lat": 19.1119105, "lon": 72.9342708}, {"type": "node", "id": 10276589055, "lat": 19.1117736, "lon": 72.9346356}, {"type": "node", "id": 10276589056, "lat": 19.1122932, "lon": 72.9349655}, {"type": "node", "id": 11601087254, "lat": 19.0824624, "lon": 72.9205877}, {"type": "node", "id": 11601087255, "lat": 19.0797654, "lon": 72.9250938}, {"type": "node", "id": 11601087256, "lat": 19.0766221, "lon": 72.9206091}, {"type": "node", "id": 11601087257, "lat": 19.0798059, "lon": 72.9180771}, {"type": "node", "id": 11617868277, "lat": 19.1245264, "lon": 72.9160425, "tags": {"addr:city": "Mumbai", "addr:district": "Mumbai Suburban", "addr:postcode": "400076", "addr:street": "Adi Sankaracharya Marg", "amenity": "hospital", "healthcare": "hospital", "healthcare:speciality": "otolaryngology", "name": "dr.anjali's hospital", "opening_hours": "Mo-Su 09:00-21:00", "operator": "dr.anjali", "operator:type": "private"}}, {"type": "node", "id": 12506146623, "lat": 19.1199248, "lon": 72.9166566}, {"type": "node", "id": 12506146624, "lat": 19.1196328, "lon": 72.9165471}, {"type": "node", "id": 12506146625, "lat": 19.1196767, "lon": 72.9167307}, {"type": "node", "id": 12506146627, "lat": 19.1195522, "lon": 72.9165154}, {"type": "node", "id": 12506146630, "lat": 19.1206506, "lon": 72.9168786}, {"type": "node", "id": 12506146631, "lat": 19.1208599, "lon": 72.9169889}, {"type": "node", "id": 12506146632, "lat": 19.1210283, "lon": 72.9170719}, {"type": "node", "id": 12506146633, "lat": 19.1210925, "lon": 72.9171094}, {"type": "way", "id": 257479165, "nodes": [2629911308, 2629911326, 2629911303, 2629911301, 2629911308], "tags": {"addr:district": "Mumbai", "addr:full": "Vashi", "addr:postcode": "400703", "addr:state": "Maharashtra", "amenity": "hospital", "emergency": "yes", "name": "L H Fortis Hospital", "source": "OpenGovernmentData"}}, {"type": "way", "id": 315448033, "nodes": [3215654162, 3215654163, 1366795256, 3226211962, 3215654165, 3215654162], "tags": {"addr:district": "Mumbai", "addr:full": "Govandi Slums, Nirankar Nagar, Shivaji Nagar, Mumbai", "addr:postcode": "400043", "addr:state": "Maharashtra", "amenity": "hospital", "check_date": "2025-03-26", "name": "Rajeev Gandhi Medical Centre", "name:etymology:wikidata": "Q4593", "operator": "GOVT Dr", "source": "Local Knowledge"}}, {"type": "way", "id": 353139106, "nodes": [3589059696, 3589059695, 3589059694, 3589059590, 3589059585, 12506146625, 3589059586, 12506146627, 12506146624, 12506146623, 3589059589, 3589059693, 12506146630, 12506146631, 12506146632, 12506146633, 3589059696], "tags": {"addr:city": "Mumbai", "addr:district": "MUMBAI", "addr:full": "Hill Side Avenue, Hiranandani Gardens, Powai", "addr:postcode": "400076", "addr:state": "Maharashtra", "amenity": "hospital", "building": "yes", "contact:mobile": "9619597757", "contact:phone": "02225763355;02225763356;02225763357;02225763344;02225763311", "email": "wecare@hiranandanihospital.org", "emergency": "yes", "fax": "022 25763344", "healthcare": "hospital", "name": "Dr. L. H. Hiranandani Hospital", "opening_hours": "24/7", "operator:type": "ngo", "source": "OpenGovernmentData", "website": "https://www.hiranandanihospital.org"}}, {"type": "way", "id": 353789941, "nodes": [3595978336, 3595978327, 3595978146, 3595978151, 3643855738, 3643855725, 3643855747, 3643855753, 3595978336], "tags": {"addr:district": "Thane", "addr:full": "207-210, Nirman Vyapur Kendra, Plot No-10, Sector-17, Vashi, Navi Mumbai", "addr:postcode": "400703", "addr:state": "Maharashtra", "amenity": "hospital", "building": "yes", "name": "Jaydish Nursing Home", "source": "OpenGovernmentData"}}, {"type": "way", "id": 436606769, "nodes": [3546099443, 4344894369, 4344894376, 4344894373, 4344894379, 4344894381, 4344894382, 4344894387, 4344894389, 4344894392, 4344894394, 4344894395, 4344894390, 4344894386, 3546099443], "tags": {"addr:city": "mumbai", "addr:district": "Mumbai", "addr:full": "Pirojshanagar, Vikhroli(E)", "addr:postcode": "400083", "addr:state": "Maharashtra", "addr:street": "Pirojsha Godrej Marg", "amenity": "hospital", "healthcare": "hospital", "name": "Godrej Memorial Hospital, Mumbai", "source": "OpenGovernmentData"}}, {"type": "way", "id": 488981959, "nodes": [4812725189, 4812725190, 4812725191, 4812725192, 4812725189], "tags": {"addr:district": "Thane", "addr:full": "Plot - 35, Sector - 3, Vashi, Navi Mumbai", "addr:postcode": "400703", "addr:state": "Maharashtra", "alt_name": "MGM Hospital", "alt_name:en": "MGM Hospital", "amenity": "hospital", "healthcare": "hospital", "name": "Mahatma Gandhi Mission's New Bombay Hospital", "name:etymology:wikidata": "Q1001", "source": "OpenGovernmentData"}}, {"type": "way", "id": 572046185, "nodes": [5496386517, 5496386518, 5496386519, 5496386520, 5496386517], "tags": {"amenity": "hospital", "healthcare": "hospital", "name": "ESIC Hospital"}}, {"type": "way", "id": 1123726002, "nodes": [10276589056, 10276589055, 10276589054, 8817467502, 10276589056], "tags": {"addr:district": "Thane", "addr:full": "Vikhroli, Mumbai", "addr:postcode": "400083", "addr:state": "Maharashtra", "amenity": "hospital", "name": "Shushrusha Hospital", "source": "Local Knowledge"}}, {"type": "way", "id": 1127318871, "nodes": [3205777380, 7225067214, 3981413833, 3981413827, 3981413826, 3205777380], "tags": {"addr:district": "Nanded", "addr:full": "Shivaji Nagar Nanded", "addr:postcode": "431602", "addr:state": "Maharashtra", "amenity": "hospital", "name": "Shivaji Nagar Muncipal Hospital", "source": "OpenGovernmentData"}}, {"type": "way", "id": 1247980197, "nodes": [11601087254, 11601087255, 11601087256, 11601087257, 11601087254], "tags": {"amenity": "hospital", "emergency": "yes", "healthcare": "hospital", "healthcare:speciality": "emergency", "name": "jansava hospital"}}, {"type": "way", "id": 1360696541, "nodes": [3596277929, 3596277928, 3596277926, 3596277927, 3596277929], "tags": {"amenity": "hospital", "healthcare": "hospital", "name": "JUHUGAON NMMC"}}]}