{"version": 0.6, "generator": "Overpass API 0.7.62.8 e802775f", "osm3s": {"timestamp_osm_base": "2026-01-15T06:46:36Z", "copyright": "The data included in this document is from www.openstreetmap.org. The data is made available under ODbL."}, "elements": [{"type": "node", "id": 1262182499, "lat": 45.0296103, "lon": 7.7093028, "tags": {"GTT:Revised": "no", "bus": "yes", "gtfs_id": "52581002", "highway": "bus_stop", "name": "Maddalena", "operator": "Gruppo Torinese Trasporti", "public_transport": "platform", "ref": "2104"}}, {"type": "node", "id": 1262182520, "lat": 45.0136561, "lon": 7.7521554, "tags": {"GTT:Revised": "yes", "bench": "yes", "bin": "yes", "bus": "yes", "departures_board": "timetable", "gtfs_id": "56857001", "highway": "bus_stop", "lit": "yes", "name": "Pecetto", "operator": "Gruppo Torinese Trasporti", "public_transport": "platform", "ref": "3160", "shelter": "yes", "tactile_paving": "no"}}, {"type": "node", "id": 1262182900, "lat": 44.99943, "lon": 7.7053, "tags": {"GTT:Revised": "no", "bus": "yes", "gtfs_id": "52310004", "highway": "bus_stop", "name": "Revigliasco N.60", "operator": "Gruppo Torinese Trasporti", "public_transport": "platform", "ref": "8085"}}, {"type": "node", "id": 1262183052, "lat": 45.0070876, "lon": 7.7311361, "tags": {"GTT:Revised": "no", "bench": "yes", "bin": "yes", "bus": "yes", "gtfs_id": "52845001", "highway": "bus_stop", "lit": "no", "name": "Gorree", "operator": "Gruppo Torinese Trasporti", "public_transport": "platform", "ref": "3101", "shelter": "no", "tactile_paving": "no"}}, {"type": "node", "id": 1262185715, "lat": 45.01626, "lon": 7.70544, "tags": {"GTT:Revised": "no", "gtfs_id": "53720002", "highway": "bus_stop", "name": "Moncalvo", "operator": "Gruppo Torinese Trasporti", "public_transport": "platform", "ref": "6013"}}, {"type": "node", "id": 1262191638, "lat": 45.0119802, "lon": 7.7373666, "tags": {"GTT:Revised": "no", "bench": "no", "bin": "no", "bus": "yes", "gtfs_id": "52905001", "highway": "bus_stop", "lit": "no", "name": "Tigli", "operator": "Gruppo Torinese Trasporti", "public_transport": "platform", "ref": "3133", "shelter": "no", "tactile_paving": "no"}}, {"type": "node", "id": 1262192420, "lat": 45.0134715, "lon": 7.7412377, "tags": {"GTT:Revised": "no", "gtfs_id": "55074001", "highway": "bus_stop", "name": "Cimitero", "operator": "Gruppo Torinese Trasporti", "public_transport": "platform", "ref": "2383"}}, {"type": "node", "id": 1262195288, "lat": 45.00709, "lon": 7.730981, "tags": {"GTT:Revised": "no", "bench": "no", "bus": "yes", "gtfs_id": "52843001", "highway": "bus_stop", "name": "Gorree", "operator": "Gruppo Torinese Trasporti", "public_transport": "platform", "ref": "3102", "shelter": "no"}}, {"type": "node", "id": 1262195491, "lat": 45.0010757, "lon": 7.7239461, "tags": {"GTT:Revised": "no", "bench": "no", "bin": "no", "bus": "yes", "gtfs_id": "52787001", "highway": "bus_stop", "lit": "yes", "name": "Revigliasco N.150", "operator": "Gruppo Torinese Trasporti", "public_transport": "platform", "ref": "3115", "shelter": "no", "tactile_paving": "no"}}, {"type": "node", "id": 1262195773, "lat": 45.02103, "lon": 7.73179, "tags": {"GTT:Revised": "no", "gtfs_id": "52860001", "highway": "bus_stop", "name": "Maddalena N.39", "operator": "Gruppo Torinese Trasporti", "public_transport": "platform", "ref": "2915"}}, {"type": "node", "id": 1262195921, "lat": 45.02034, "lon": 7.70456, "tags": {"GTT:Revised": "no", "gtfs_id": "53719002", "highway": "bus_stop", "name": "Moncalvo N.10", "operator": "Gruppo Torinese Trasporti", "public_transport": "platform", "ref": "6073"}}, {"type": "node", "id": 1262196450, "lat": 45.0245028, "lon": 7.7117071, "tags": {"GTT:Revised": "no", "bus": "yes", "gtfs_id": "53731001", "highway": "bus_stop", "name": "Moncalvo Capolinea", "operator": "Gruppo Torinese Trasporti", "public_transport": "platform", "ref": "6011"}}, {"type": "node", "id": 1262197027, "lat": 45.0161744, "lon": 7.7412719, "tags": {"GTT:Revised": "yes", "bus": "yes", "gtfs_id": "52938002", "highway": "bus_stop", "name": "Bivio Pecetto", "operator": "Gruppo Torinese Trasporti", "public_transport": "platform", "ref": "2382", "shelter": "no"}}, {"type": "node", "id": 1262197118, "lat": 45.02131, "lon": 7.7313, "tags": {"GTT:Revised": "no", "gtfs_id": "52853001", "highway": "bus_stop", "name": "Maddalena N.20", "operator": "Gruppo Torinese Trasporti", "public_transport": "platform", "ref": "3134"}}, {"type": "node", "id": 1262197200, "lat": 45.0234473, "lon": 7.72269, "tags": {"GTT:Revised": "no", "gtfs_id": "52766001", "highway": "bus_stop", "name": "Maddalena N.98/104", "operator": "Gruppo Torinese Trasporti", "public_transport": "platform", "ref": "846"}}, {"type": "node", "id": 1262197461, "lat": 45.0137817, "lon": 7.7334429, "tags": {"GTT:Revised": "no", "bench": "no", "bin": "yes", "bus": "yes", "gtfs_id": "52870001", "highway": "bus_stop", "lit": "no", "name": "Moncalieri", "operator": "Gruppo Torinese Trasporti", "public_transport": "platform", "ref": "2779", "shelter": "no", "tactile_paving": "no"}}, {"type": "node", "id": 1262198039, "lat": 45.0294143, "lon": 7.7095126, "tags": {"GTT:Revised": "no", "bus": "yes", "gtfs_id": "52581003", "highway": "bus_stop", "name": "Maddalena", "operator": "Gruppo Torinese Trasporti", "public_transport": "platform", "ref": "2119"}}, {"type": "node", "id": 1262198612, "lat": 45.020307, "lon": 7.7341223, "tags": {"GTT:Revised": "no", "bus": "yes", "gtfs_id": "52899001", "highway": "bus_stop", "name": "Redentore", "operator": "Gruppo Torinese Trasporti", "public_transport": "platform", "ref": "2233"}}, {"type": "node", "id": 1262198790, "lat": 45.0014905, "lon": 7.7241574, "tags": {"GTT:Revised": "no", "bench": "no", "bin": "no", "gtfs_id": "52789001", "highway": "bus_stop", "lit": "no", "name": "Revigliasco N.143", "operator": "Gruppo Torinese Trasporti", "public_transport": "platform", "ref": "3116", "shelter": "no", "tactile_paving": "no"}}, {"type": "node", "id": 1262199243, "lat": 45.02109, "lon": 7.70576, "tags": {"GTT:Revised": "no", "gtfs_id": "53721001", "highway": "bus_stop", "name": "Moncalvo N.41", "operator": "Gruppo Torinese Trasporti", "public_transport": "platform", "ref": "6012"}}, {"type": "node", "id": 1262199706, "lat": 44.9966259, "lon": 7.7051622, "tags": {"GTT:Revised": "yes", "bench": "no", "bin": "yes", "bus": "yes", "gtfs_id": "52524004", "highway": "bus_stop", "lit": "no", "name": "Nasi", "operator": "Gruppo Torinese Trasporti", "public_transport": "platform", "ref": "1052", "shelter": "no", "tactile_paving": "no"}}, {"type": "node", "id": 1262199975, "lat": 44.99703, "lon": 7.70453, "tags": {"GTT:Revised": "yes", "bench": "no", "bin": "no", "bus": "yes", "gtfs_id": "52522003", "highway": "bus_stop", "lit": "no", "name": "Nasi", "operator": "Gruppo Torinese Trasporti", "public_transport": "platform", "ref": "1053", "shelter": "no", "tactile_paving": "no"}}, {"type": "node", "id": 1262202325, "lat": 45.02162, "lon": 7.72669, "tags": {"GTT:Revised": "no", "gtfs_id": "52809001", "highway": "bus_stop", "name": "Maddalena N.44", "operator": "Gruppo Torinese Trasporti", "public_transport": "platform", "ref": "1822"}}, {"type": "node", "id": 1262202566, "lat": 45.0188025, "lon": 7.7387562, "tags": {"GTT:Revised": "no", "gtfs_id": "52918001", "highway": "bus_stop", "name": "Baricco", "operator": "Gruppo Torinese Trasporti", "public_transport": "platform", "ref": "2379"}}, {"type": "node", "id": 1262202807, "lat": 45.0160272, "lon": 7.7389115, "tags": {"GTT:Revised": "yes", "bus": "yes", "departures_board": "yes", "gtfs_id": "52917001", "highway": "bus_stop", "name": "Sagna", "operator": "Gruppo Torinese Trasporti", "public_transport": "platform", "ref": "1823", "shelter": "yes"}}, {"type": "node", "id": 1262203308, "lat": 44.9967548, "lon": 7.7120149, "tags": {"GTT:Revised": "no", "bus": "yes", "gtfs_id": "52598004", "highway": "bus_stop", "name": "Campo Sportivo", "operator": "Gruppo Torinese Trasporti", "public_transport": "platform", "ref": "3122"}}, {"type": "node", "id": 1262203323, "lat": 45.01983, "lon": 7.73637, "tags": {"GTT:Revised": "no", "gtfs_id": "52902001", "highway": "bus_stop", "name": "Redentore", "operator": "Gruppo Torinese Trasporti", "public_transport": "platform", "ref": "2378"}}, {"type": "node", "id": 1262203717, "lat": 45.02066, "lon": 7.70656, "tags": {"GTT:Revised": "no", "gtfs_id": "53724001", "highway": "bus_stop", "name": "Moncalvo N.49", "operator": "Gruppo Torinese Trasporti", "public_transport": "platform", "ref": "6010"}}, {"type": "node", "id": 1262205319, "lat": 45.01609, "lon": 7.7055, "tags": {"GTT:Revised": "no", "gtfs_id": "53720001", "highway": "bus_stop", "name": "Moncalvo", "operator": "Gruppo Torinese Trasporti", "public_transport": "platform", "ref": "6009"}}, {"type": "node", "id": 1262206007, "lat": 45.02723, "lon": 7.7106766, "tags": {"GTT:Revised": "no", "bus": "yes", "gtfs_id": "52604002", "highway": "bus_stop", "name": "Della Viola", "operator": "Gruppo Torinese Trasporti", "public_transport": "platform", "ref": "2120"}}, {"type": "node", "id": 1262206326, "lat": 45.02132, "lon": 7.72724, "tags": {"GTT:Revised": "no", "gtfs_id": "52814001", "highway": "bus_stop", "name": "Maddalena N.44", "operator": "Gruppo Torinese Trasporti", "public_transport": "platform", "ref": "1820", "tactile_paving": "no"}}, {"type": "node", "id": 1262206427, "lat": 45.02487, "lon": 7.71283, "tags": {"GTT:Revised": "no", "bus": "yes", "gtfs_id": "52645003", "highway": "bus_stop", "name": "Moncalvo", "operator": "Gruppo Torinese Trasporti", "public_transport": "platform", "ref": "730"}}, {"type": "node", "id": 1262207393, "lat": 45.02565, "lon": 7.71577, "tags": {"GTT:Revised": "no", "bus": "yes", "departures_board": "timetable", "gtfs_id": "52691002", "highway": "bus_stop", "name": "Cadibona", "operator": "Gruppo Torinese Trasporti", "public_transport": "platform", "ref": "845", "shelter": "no"}}, {"type": "node", "id": 1262207431, "lat": 45.0045159, "lon": 7.7290646, "tags": {"GTT:Revised": "no", "bench": "no", "bin": "no", "bus": "yes", "gtfs_id": "52825001", "highway": "bus_stop", "lit": "no", "name": "Revigliasco N.187", "operator": "Gruppo Torinese Trasporti", "public_transport": "platform", "ref": "3114", "shelter": "no", "tactile_paving": "no"}}, {"type": "node", "id": 1262207493, "lat": 45.0107322, "lon": 7.7322668, "tags": {"GTT:Revised": "no", "bus": "yes", "gtfs_id": "52855001", "highway": "bus_stop", "name": "Revigliasco N.253", "operator": "Gruppo Torinese Trasporti", "public_transport": "platform", "ref": "3100", "shelter": "no"}}, {"type": "node", "id": 1262207629, "lat": 45.00022, "lon": 7.72309, "tags": {"GTT:Revised": "no", "bus": "yes", "gtfs_id": "52767001", "highway": "bus_stop", "name": "Ginestra", "operator": "Gruppo Torinese Trasporti", "public_transport": "platform", "ref": "3118"}}, {"type": "node", "id": 1262207817, "lat": 45.0235927, "lon": 7.7224725, "tags": {"GTT:Revised": "no", "gtfs_id": "52766002", "highway": "bus_stop", "name": "Maddalena N.98/104", "operator": "Gruppo Torinese Trasporti", "public_transport": "platform", "ref": "920"}}, {"type": "node", "id": 1262208159, "lat": 45.0134466, "lon": 7.7331749, "tags": {"GTT:Revised": "no", "bench": "yes", "bin": "yes", "bus": "yes", "gtfs_id": "52870002", "highway": "bus_stop", "lit": "no", "name": "Moncalieri", "operator": "Gruppo Torinese Trasporti", "public_transport": "platform", "ref": "2978", "shelter": "no", "tactile_paving": "no"}}, {"type": "node", "id": 1262208169, "lat": 45.0100562, "lon": 7.7414448, "tags": {"GTT:Revised": "no", "bench": "no", "bin": "no", "gtfs_id": "55073001", "highway": "bus_stop", "lit": "no", "name": "Trofarello", "operator": "Gruppo Torinese Trasporti", "public_transport": "platform", "ref": "2385", "shelter": "no", "tactile_paving": "no"}}, {"type": "node", "id": 1262208961, "lat": 45.02558, "lon": 7.71614, "tags": {"GTT:Revised": "no", "bus": "yes", "departures_board": "timetable", "gtfs_id": "52697003", "highway": "bus_stop", "name": "Cadibona", "operator": "Gruppo Torinese Trasporti", "public_transport": "platform", "ref": "804", "shelter": "no"}}, {"type": "node", "id": 1262209125, "lat": 45.02472, "lon": 7.71239, "tags": {"GTT:Revised": "no", "bus": "yes", "gtfs_id": "52636004", "highway": "bus_stop", "name": "Moncalvo", "operator": "Gruppo Torinese Trasporti", "public_transport": "platform", "ref": "437"}}, {"type": "node", "id": 1262209339, "lat": 45.0276522, "lon": 7.7106325, "tags": {"GTT:Revised": "no", "bus": "yes", "gtfs_id": "52607003", "highway": "bus_stop", "name": "Della Viola", "operator": "Gruppo Torinese Trasporti", "public_transport": "platform", "ref": "2121"}}, {"type": "node", "id": 1262209349, "lat": 45.01896, "lon": 7.73808, "tags": {"GTT:Revised": "no", "gtfs_id": "52912001", "highway": "bus_stop", "name": "Baricco", "operator": "Gruppo Torinese Trasporti", "public_transport": "platform", "ref": "2380", "tactile_paving": "no"}}, {"type": "node", "id": 1262210208, "lat": 45.0037336, "lon": 7.7281561, "tags": {"GTT:Revised": "no", "bench": "no", "bin": "no", "bus": "yes", "gtfs_id": "52827001", "highway": "bus_stop", "lit": "no", "name": "Revigliasco N.176", "operator": "Gruppo Torinese Trasporti", "public_transport": "platform", "ref": "3113", "shelter": "no", "tactile_paving": "no"}}, {"type": "node", "id": 1262210288, "lat": 45.0101727, "lon": 7.7322045, "tags": {"GTT:Revised": "no", "bench": "no", "bin": "no", "bus": "yes", "gtfs_id": "52859001", "highway": "bus_stop", "lit": "no", "name": "Revigliasco N.196", "operator": "Gruppo Torinese Trasporti", "public_transport": "platform", "ref": "3099", "shelter": "no", "tactile_paving": "no"}}, {"type": "node", "id": 1262210388, "lat": 45.02023, "lon": 7.70437, "tags": {"GTT:Revised": "no", "gtfs_id": "53719001", "highway": "bus_stop", "name": "Moncalvo N.10", "operator": "Gruppo Torinese Trasporti", "public_transport": "platform", "ref": "6072"}}, {"type": "node", "id": 1262211426, "lat": 44.9986269, "lon": 7.7197122, "tags": {"GTT:Revised": "no", "bench": "yes", "bin": "yes", "bus": "yes", "gtfs_id": "52733001", "highway": "bus_stop", "name": "Alberoni", "operator": "Gruppo Torinese Trasporti", "public_transport": "platform", "ref": "3117", "shelter": "yes", "tactile_paving": "no"}}, {"type": "node", "id": 1262212508, "lat": 45.0162569, "lon": 7.7414688, "tags": {"GTT:Revised": "no", "bus": "yes", "gtfs_id": "52938001", "highway": "bus_stop", "name": "Bivio Pecetto", "operator": "Gruppo Torinese Trasporti", "public_transport": "platform", "ref": "2381", "shelter": "no"}}, {"type": "node", "id": 1262212711, "lat": 45.0128237, "lon": 7.7369204, "tags": {"GTT:Revised": "no", "bus": "yes", "gtfs_id": "52903001", "highway": "bus_stop", "name": "Revigliasco N.303", "operator": "Gruppo Torinese Trasporti", "public_transport": "platform", "ref": "2665"}}, {"type": "node", "id": 10149267210, "lat": 45.0173944, "lon": 7.7493601, "tags": {"bench": "yes", "bin": "yes", "bus": "yes", "highway": "bus_stop", "lit": "yes", "name:signed": "no", "public_transport": "platform", "shelter": "yes", "tactile_paving": "no"}}, {"type": "node", "id": 10401467425, "lat": 45.0192697, "lon": 7.7523196, "tags": {"bench": "yes", "bin": "yes", "bus": "yes", "highway": "bus_stop", "lit": "yes", "name": "Circonvallazione Nord", "public_transport": "platform", "shelter": "yes", "tactile_paving": "no"}}, {"type": "node", "id": 10401467426, "lat": 45.0197902, "lon": 7.748284, "tags": {"bus": "yes", "highway": "bus_stop", "public_transport": "platform", "shelter": "no"}}, {"type": "node", "id": 10401467427, "lat": 45.0139342, "lon": 7.7523953, "tags": {"bench": "yes", "bin": "yes", "bus": "yes", "highway": "bus_stop", "lit": "no", "name": "San Sebastiano", "public_transport": "platform", "shelter": "yes", "tactile_paving": "no"}}, {"type": "node", "id": 12332018240, "lat": 44.9966304, "lon": 7.7104585, "tags": {"bus": "yes", "departures_board": "no", "highway": "bus_stop", "name": "Marconi Capolinea", "operator": "Gruppo Torinese Trasporti", "public_transport": "platform", "ref": "3570", "shelter": "no"}}]}