{"version": 0.6, "generator": "Overpass API 0.7.62.8 e802775f", "osm3s": {"timestamp_osm_base": "2026-01-09T11:03:32Z", "copyright": "The data included in this document is from www.openstreetmap.org. The data is made available under ODbL."}, "elements": [{"type": "node", "id": 289582012, "lat": 17.4245107, "lon": 78.4626514, "tags": {"name": "Necklace Road", "name:te": "\u0c28\u0c46\u0c15\u0c4d\u0c32\u0c46\u0c38\u0c4d \u0c30\u0c4b\u0c21\u0c4d\u0c21\u0c41", "public_transport": "stop_position", "railway": "stop", "ref": "1", "train": "yes"}}, {"type": "node", "id": 289582025, "lat": 17.4129744, "lon": 78.4610582, "tags": {"internet_access": "no", "name": "Khairatabad", "name:te": "\u0c16\u0c48\u0c30\u0c24\u0c3e\u0c2c\u0c3e\u0c26\u0c4d", "name:ur": "\u062e\u06cc\u0631\u062a \u0622\u0628\u0627\u062f", "network": "IR", "operator": "SCR", "platforms": "2", "public_transport": "station", "railway": "station", "ref": "KQD", "train": "yes", "wikidata": "Q6399082", "wikipedia": "en:Khairatabad railway station"}}, {"type": "node", "id": 289582401, "lat": 17.4233355, "lon": 78.4631857, "tags": {"internet_access": "no", "name": "Necklace Road", "name:te": "\u0c28\u0c46\u0c15\u0c4d\u0c32\u0c46\u0c38\u0c4d \u0c30\u0c4b\u0c21\u0c4d\u0c21\u0c41", "name:ur": "\u0646\u06a9\u0644\u06cc\u0633 \u0631\u0648\u0688", "network": "IR", "operator": "SCR", "platforms": "2", "public_transport": "station", "railway": "station", "ref": "NLRD", "train": "yes", "wikidata": "Q6985575", "wikipedia": "en:Necklace Road railway station"}}, {"type": "node", "id": 289656763, "lat": 17.3924223, "lon": 78.4675956, "tags": {"internet_access": "no", "name": "Hyderabad Deccan Nampally", "name:fa": "\u062d\u06cc\u062f\u0631\u0622\u0628\u0627\u062f \u062f\u06a9\u0646", "name:te": "\u0c39\u0c48\u0c26\u0c30\u0c3e\u0c2c\u0c3e\u0c26\u0c4d \u0c26\u0c15\u0c4d\u0c15\u0c28\u0c4d \u0c28\u0c3e\u0c02\u0c2a\u0c32\u0c4d\u0c32\u0c3f", "name:ur": "\u062d\u06cc\u062f\u0631\u0622\u0628\u0627\u062f \u062f\u06a9\u0646", "network": "IR", "operator": "SCR", "platforms": "6", "railway": "station", "ref": "HYB", "train": "yes", "wheelchair": "limited", "wikidata": "Q3633967", "wikipedia": "en:Hyderabad Deccan railway station"}}, {"type": "node", "id": 307015337, "lat": 17.3765035, "lon": 78.4948263, "tags": {"alt_name:ur": "\u0645\u0644\u06a9 \u067e\u06cc\u0679", "internet_access": "no", "name": "Malakpet", "name:ar": "\u0645\u0627\u0644\u0643 \u0628\u064a\u062a", "name:fa": "\u0645\u0644\u06a9 \u067e\u06cc\u062a", "name:ur": "\u0645\u0627\u0644\u06a9 \u067e\u06cc\u0679", "network": "IR", "operator": "SCR", "platforms": "2", "public_transport": "station", "railway": "station", "ref": "MXT", "train": "yes", "wikidata": "Q6741191", "wikipedia": "en:Malakpet railway station"}}, {"type": "node", "id": 307015338, "lat": 17.3758726, "lon": 78.494705, "tags": {"name": "Malakpet", "public_transport": "stop_position", "ref": "1", "train": "yes"}}, {"type": "node", "id": 307015360, "lat": 17.3661232, "lon": 78.4904751, "tags": {"name": "Dabirpura", "public_transport": "stop_position", "ref": "1", "train": "yes"}}, {"type": "node", "id": 307015407, "lat": 17.3413828, "lon": 78.4825938, "tags": {"name": "Huppuguda", "public_transport": "stop_position", "ref": "1", "train": "yes"}}, {"type": "node", "id": 307023348, "lat": 17.389311, "lon": 78.4992403, "tags": {"historic": "yes", "internet_access": "wlan", "name": "Kacheguda", "name:ml": "\u0d15\u0d3e\u0d1a\u0d4d\u0d1a\u0d3f\u0d17\u0d41\u0d21", "name:te": "\u0c15\u0c3e\u0c1a\u0c3f\u0c17\u0c42\u0c21", "name:ur": "\u06a9\u0627\u0686\u06cc \u06af\u0648\u0691\u06c1", "network": "IR", "operator": "SCR", "public_transport": "station", "railway": "station", "ref": "KCG", "train": "yes", "wikidata": "Q6344674", "wikipedia": "en:Kacheguda railway station"}}, {"type": "node", "id": 308586608, "lat": 17.4116226, "lon": 78.5181614, "tags": {"internet_access": "no", "name": "Jamai Osmania", "name:te": "\u0c1c\u0c3e\u0c2e\u0c48 \u0c09\u0c38\u0c4d\u0c2e\u0c3e\u0c28\u0c3f\u0c2f\u0c3e", "name:ur": "\u062c\u0627\u0645\u0639\u06c1 \u0639\u062b\u0645\u0627\u0646\u06cc\u06c1", "network": "IR", "operator": "SCR", "platforms": "2", "public_transport": "halt", "railway": "halt", "ref": "JOO", "train": "yes", "wikidata": "Q6146443", "wikipedia": "en:Jamia Osmania railway station"}}, {"type": "node", "id": 308586614, "lat": 17.417977, "lon": 78.5200383, "tags": {"internet_access": "no", "name": "Arts College", "name:te": "\u0c06\u0c30\u0c4d\u0c1f\u0c4d\u0c38\u0c4d \u0c15\u0c3e\u0c32\u0c47\u0c1c\u0c4d", "network": "IR", "operator": "SCR", "platforms": "2", "public_transport": "halt", "railway": "halt", "ref": "ATC", "train": "yes", "wikidata": "Q4801441", "wikipedia": "en:Arts College railway station"}}, {"type": "node", "id": 315063655, "lat": 17.4102472, "lon": 78.4865248, "tags": {"bus": "yes", "highway": "bus_stop", "name": "Domalguada Bus top", "public_transport": "platform"}}, {"type": "node", "id": 324858173, "lat": 17.4263175, "lon": 78.5313258, "tags": {"amenity": "bus_station", "bus": "yes", "highway": "bus_stop", "name": "Tarnaka Bus Stop", "public_transport": "station"}}, {"type": "node", "id": 324859710, "lat": 17.4259908, "lon": 78.5302396, "tags": {"highway": "bus_stop", "name": "TGSRTC Hospital Bus Stop"}}, {"type": "node", "id": 324859997, "lat": 17.4238103, "lon": 78.5274645, "tags": {"highway": "bus_stop", "name": "Old Dairy Farm"}}, {"type": "node", "id": 324870018, "lat": 17.4060326, "lon": 78.5169959, "tags": {"created_by": "Potlatch 0.10f", "highway": "bus_stop", "name": "NCC"}}, {"type": "node", "id": 324870393, "lat": 17.4091039, "lon": 78.5201029, "tags": {"created_by": "Potlatch 0.10f", "highway": "bus_stop", "name": "Engineering College"}}, {"type": "node", "id": 324870748, "lat": 17.4148776, "lon": 78.5250554, "tags": {"created_by": "Potlatch 0.10f", "highway": "bus_stop", "name": "Law College"}}, {"type": "node", "id": 324871124, "lat": 17.4118475, "lon": 78.5218367, "tags": {"created_by": "Potlatch 0.10f", "highway": "bus_stop", "name": "Ladies Hostel"}}, {"type": "node", "id": 324871542, "lat": 17.4203646, "lon": 78.527347, "tags": {"created_by": "Potlatch 0.10f", "highway": "bus_stop", "name": "Arts College"}}, {"type": "node", "id": 355690053, "lat": 17.4106114, "lon": 78.5180213}, {"type": "node", "id": 355690055, "lat": 17.4113069, "lon": 78.5181881}, {"type": "node", "id": 355690056, "lat": 17.4130034, "lon": 78.5185949}, {"type": "node", "id": 355690061, "lat": 17.4105938, "lon": 78.518092}, {"type": "node", "id": 355690064, "lat": 17.4129184, "lon": 78.5186478}, {"type": "node", "id": 626897247, "lat": 17.3665277, "lon": 78.4901244, "tags": {"alt_name": "Dabirpura", "internet_access": "no", "name": "Dabirpura", "name:fa": "\u062f\u0628\u06cc\u0631\u067e\u0648\u0631\u06c1", "network": "IR", "operator": "SCR", "platforms": "2", "public_transport": "halt", "railway": "halt", "ref": "DQR", "train": "yes", "wikidata": "Q5207493", "wikipedia": "en:Dabirpura railway station"}}, {"type": "node", "id": 626897367, "lat": 17.3744556, "lon": 78.4753984, "tags": {"highway": "bus_stop"}}, {"type": "node", "id": 626897410, "lat": 17.3730067, "lon": 78.4766562, "tags": {"amenity": "bus_station", "bus": "yes", "name": "Afzalgunj", "public_transport": "station"}}, {"type": "node", "id": 626897415, "lat": 17.3738598, "lon": 78.4779838, "tags": {"bench": "yes", "check_date:shelter": "2023-04-23", "highway": "bus_stop", "name": "Public Library", "shelter": "yes"}}, {"type": "node", "id": 634123581, "lat": 17.4107475, "lon": 78.5075901, "tags": {"bus": "yes", "highway": "bus_stop", "name": "Ramnagar Cross Roads Bus Stop", "public_transport": "platform"}}, {"type": "node", "id": 634123955, "lat": 17.4077286, "lon": 78.5120765, "tags": {"highway": "bus_stop", "name": "Ramnagar Gundu Bus Stop"}}, {"type": "node", "id": 634132021, "lat": 17.4018362, "lon": 78.5108121, "tags": {"internet_access": "no", "name": "Vidyanagar", "network": "IR", "operator": "SCR", "platforms": "2", "public_transport": "halt", "railway": "halt", "ref": "VAR", "train": "yes", "wikidata": "Q7928208", "wikipedia": "en:Vidyanagar railway station"}}, {"type": "node", "id": 675646786, "lat": 17.4048294, "lon": 78.5022525, "tags": {"highway": "bus_stop", "name": "VST Bus Stop"}}, {"type": "node", "id": 675647348, "lat": 17.4073169, "lon": 78.5033717, "tags": {"highway": "bus_stop", "name": "TSRTC BUS DEPOT, MUSHEERABAD 1"}}, {"type": "node", "id": 677300443, "lat": 17.3959051, "lon": 78.4909681, "tags": {"highway": "bus_stop", "name": "YMCA Bus Stop"}}, {"type": "node", "id": 682874256, "lat": 17.4116181, "lon": 78.4824323, "tags": {"highway": "bus_stop", "name": "Indira Park", "shelter": "yes"}}, {"type": "node", "id": 722273943, "lat": 17.4231252, "lon": 78.4546595, "tags": {"highway": "bus_stop", "name": "NIMS"}}, {"type": "node", "id": 726161087, "lat": 17.4072432, "lon": 78.4663365, "tags": {"highway": "bus_stop", "name": "Telephone Bhavan"}}, {"type": "node", "id": 726170683, "lat": 17.4034111, "lon": 78.4652115, "tags": {"bench": "yes", "bin": "no", "highway": "bus_stop", "lit": "yes", "name": "Lakdikapul Bus Stop", "shelter": "yes"}}, {"type": "node", "id": 727278310, "lat": 17.4022136, "lon": 78.4836242, "tags": {"highway": "bus_stop", "name": "Himayathnagar Bus stop", "name:te": "\u0c39\u0c3f\u0c2e\u0c3e\u0c2f\u0c24\u0c4d \u0c28\u0c17\u0c30\u0c4d \u0c2c\u0c38\u0c4d \u0c38\u0c4d\u0c1f\u0c3e\u0c2a\u0c4d"}}, {"type": "node", "id": 728331506, "lat": 17.4046345, "lon": 78.4676224, "tags": {"highway": "bus_stop", "name": "Birla Mandir", "name:te": "\u0c2c\u0c3f\u0c30\u0c4d\u0c32\u0c3e \u0c2e\u0c02\u0c26\u0c3f\u0c30\u0c4d"}}, {"type": "node", "id": 728919366, "lat": 17.39038, "lon": 78.4686267, "tags": {"highway": "bus_stop", "name": "Latha Talkies", "name:en": "Bus to Golcanda Fort"}}, {"type": "node", "id": 813570709, "lat": 17.4269784, "lon": 78.4396869, "tags": {"bus": "yes", "highway": "bus_stop", "name": "TV9 Bus Stop", "name:te": "\u0c1f\u0c40\u0c35\u0c40 9 \u0c2c\u0c38\u0c4d\u0c38\u0c41 \u0c38\u0c4d\u0c1f\u0c3e\u0c2a\u0c4d", "public_transport": "platform", "shelter": "yes"}}, {"type": "node", "id": 817354660, "lat": 17.4278269, "lon": 78.5292938, "tags": {"highway": "bus_stop"}}, {"type": "node", "id": 945061357, "lat": 17.407861, "lon": 78.4389668, "tags": {"highway": "bus_stop", "name": "Kaman"}}, {"type": "node", "id": 945064796, "lat": 17.4077258, "lon": 78.4509789, "tags": {"highway": "bus_stop", "name": "Pension Office Bus Stop"}}, {"type": "node", "id": 1118754452, "lat": 17.3910429, "lon": 78.4672901}, {"type": "node", "id": 1118754466, "lat": 17.3912162, "lon": 78.4673762}, {"type": "node", "id": 1118754578, "lat": 17.3930214, "lon": 78.4675638}, {"type": "node", "id": 1118754600, "lat": 17.3619252, "lon": 78.4799909, "tags": {"construction": "station", "disused": "yes", "name": "Charminar (u/c)", "name:te": "\u0c1a\u0c3e\u0c30\u0c4d\u0c2e\u0c3f\u0c28\u0c3e\u0c30\u0c4d", "network": "Hyderabad Metro", "note": "Contributors are requested to not edit the \"network\" and the \"operator\" tags. (2023/11/08)", "operator": "Hyderabad Metro Rail Limited", "railway": "station", "station": "subway", "subway": "yes"}}, {"type": "node", "id": 1118754606, "lat": 17.3912086, "lon": 78.4674641}, {"type": "node", "id": 1118754617, "lat": 17.3408101, "lon": 78.4683869, "tags": {"construction": "station", "disused:railway": "station", "name": "Shamserganj (u/c)", "name:te": "\u0c37\u0c02\u0c37\u0c47\u0c30\u0c4d\u0c17\u0c02\u0c1c\u0c4d", "network": "Hyderabad Metro", "note": "Contributors are requested to not edit the \"network\" and the \"operator\" tags. (2023/11/08)", "operator": "Hyderabad Metro Rail Limited", "public_transport": "station", "railway": "station", "station": "subway", "subway": "yes"}}, {"type": "node", "id": 1118754623, "lat": 17.3507744, "lon": 78.4723504, "tags": {"addr:city": "Hyderabad", "addr:district": "Hyderabad", "addr:postcode": "500065", "addr:street": "Shah Ali Banda", "construction": "station", "disused:railway": "station", "name": "Shah Ali Banda (u/c)", "name:te": "\u0c37\u0c3e \u0c05\u0c32\u0c40 \u0c2c\u0c02\u0c21\u0c3e", "name:ur": "\u0634\u0627\u06c1 \u0639\u0644\u06cc \u0628\u0646\u062f\u06c1", "network": "Hyderabad Metro", "note": "Contributors are requested to not edit the \"network\" and the \"operator\" tags. (2023/11/08)", "operator": "Hyderabad Metro Rail Limited", "public_transport": "station", "railway": "station", "station": "subway", "subway": "yes"}}, {"type": "node", "id": 1118754628, "lat": 17.3912005, "lon": 78.4669488}, {"type": "node", "id": 1118754671, "lat": 17.3717823, "lon": 78.4822609, "tags": {"construction": "station", "disused": "yes", "name": "Salar Jung Museum (u/c)", "name:te": "\u0c38\u0c3e\u0c32\u0c3e\u0c30\u0c4d \u0c1c\u0c02\u0c17\u0c4d \u0c2e\u0c4d\u0c2f\u0c42\u0c1c\u0c3f\u0c2f\u0c02", "network": "Hyderabad Metro", "note": "Contributors are requested to not edit the \"network\" and the \"operator\" tags. (2023/11/08)", "operator": "Hyderabad Metro Rail Limited", "railway": "station", "station": "subway", "subway": "yes"}}, {"type": "node", "id": 1152749054, "lat": 17.3920701, "lon": 78.5164734, "tags": {"highway": "bus_stop", "name": "amberpet bus stop"}}, {"type": "node", "id": 1152749067, "lat": 17.3915758, "lon": 78.5123889, "tags": {"highway": "bus_stop", "name": "chey number stop"}}, {"type": "node", "id": 1271924369, "lat": 17.395501, "lon": 78.5024402, "tags": {"highway": "bus_stop", "name": "Fever Hospital"}}, {"type": "node", "id": 1598136849, "lat": 17.3685468, "lon": 78.5329092, "tags": {"bus": "yes", "highway": "bus_stop", "name": "Chaitanyapuri Bus Stop", "public_transport": "platform", "shelter": "yes"}}, {"type": "node", "id": 1725150606, "lat": 17.3897353, "lon": 78.4986692, "tags": {"highway": "bus_stop", "name": "Kacheguda Railway Station Bus Stop"}}, {"type": "node", "id": 1779029051, "lat": 17.4070738, "lon": 78.4606872, "tags": {"highway": "bus_stop", "name": "Chintal Basti"}}, {"type": "node", "id": 1883412881, "lat": 17.4272928, "lon": 78.4450291, "tags": {"bench": "yes", "highway": "bus_stop", "name": "Nagarjuna Circle Bus Stop", "name:te": "\u0c28\u0c3e\u0c17\u0c3e\u0c30\u0c4d\u0c1c\u0c41\u0c28 \u0c38\u0c30\u0c4d\u0c15\u0c3f\u0c32\u0c4d \u0c2c\u0c38\u0c4d\u0c38\u0c41 \u0c38\u0c4d\u0c1f\u0c3e\u0c2a\u0c4d", "shelter": "yes"}}, {"type": "node", "id": 2003244260, "lat": 17.4035699, "lon": 78.495308, "tags": {"highway": "bus_stop", "name": "Chikkadpally"}}, {"type": "node", "id": 2003244265, "lat": 17.4020317, "lon": 78.4951256, "tags": {"highway": "bus_stop", "name": "Chikkadpally"}}, {"type": "node", "id": 2084119296, "lat": 17.4170924, "lon": 78.5196749}, {"type": "node", "id": 2084119297, "lat": 17.4271151, "lon": 78.5206417}, {"type": "node", "id": 2084119301, "lat": 17.4281607, "lon": 78.5195217}, {"type": "node", "id": 2084119302, "lat": 17.4272381, "lon": 78.5203127}, {"type": "node", "id": 2084119303, "lat": 17.4270321, "lon": 78.5204951}, {"type": "node", "id": 2084119304, "lat": 17.4272947, "lon": 78.5207231, "tags": {"alt_name": "Sitaphal Mandi", "internet_access": "no", "name": "Sitaphalmandi", "name:te": "\u0c38\u0c40\u0c24\u0c3e\u0c2b\u0c32\u0c4d\u200c\u0c2e\u0c02\u0c21\u0c3f", "name:ur": "\u0633\u06cc\u062a\u0627 \u067e\u06be\u0644 \u0645\u0646\u0688\u06cc", "network": "IR", "operator": "SCR", "public_transport": "station", "railway": "station", "ref": "STPD", "train": "yes", "wikidata": "Q7531662", "wikipedia": "en:Sitaphalmandi railway station"}}, {"type": "node", "id": 2084119305, "lat": 17.4270256, "lon": 78.5204775}, {"type": "node", "id": 2084119306, "lat": 17.4273246, "lon": 78.5203044}, {"type": "node", "id": 2084119307, "lat": 17.4200688, "lon": 78.5202471}, {"type": "node", "id": 2084119308, "lat": 17.4288778, "lon": 78.5189955}, {"type": "node", "id": 2084119309, "lat": 17.4284183, "lon": 78.519656}, {"type": "node", "id": 2084119310, "lat": 17.4170793, "lon": 78.5197346}, {"type": "node", "id": 2084119311, "lat": 17.4274813, "lon": 78.520193}, {"type": "node", "id": 2084119313, "lat": 17.4278642, "lon": 78.5198811}, {"type": "node", "id": 2084119314, "lat": 17.4199668, "lon": 78.5203647}, {"type": "node", "id": 2084119316, "lat": 17.4171481, "lon": 78.5196141}, {"type": "node", "id": 2084119319, "lat": 17.4285873, "lon": 78.519133}, {"type": "node", "id": 2084119321, "lat": 17.4284788, "lon": 78.5192398}, {"type": "node", "id": 2084119323, "lat": 17.4199539, "lon": 78.5204238}, {"type": "node", "id": 2084119324, "lat": 17.4171626, "lon": 78.5195476}, {"type": "node", "id": 2084119325, "lat": 17.4285896, "lon": 78.5194597}, {"type": "node", "id": 2084119327, "lat": 17.4273051, "lon": 78.5205569}, {"type": "node", "id": 2084119328, "lat": 17.42819, "lon": 78.5195737}, {"type": "node", "id": 2084119329, "lat": 17.4270824, "lon": 78.5205767}, {"type": "node", "id": 2084119330, "lat": 17.4276601, "lon": 78.5199332}, {"type": "node", "id": 2084119331, "lat": 17.4285996, "lon": 78.5191522}, {"type": "node", "id": 2084119333, "lat": 17.4271684, "lon": 78.520368}, {"type": "node", "id": 2084119335, "lat": 17.4272252, "lon": 78.5204887}, {"type": "node", "id": 2084119339, "lat": 17.4275368, "lon": 78.520287}, {"type": "node", "id": 2084119340, "lat": 17.4289007, "lon": 78.5190255}, {"type": "node", "id": 2084119341, "lat": 17.4287001, "lon": 78.5193084}, {"type": "node", "id": 2084119342, "lat": 17.4200543, "lon": 78.5203131}, {"type": "node", "id": 2084119344, "lat": 17.4279652, "lon": 78.5199284}, {"type": "node", "id": 2084119345, "lat": 17.4279955, "lon": 78.5196482}, {"type": "node", "id": 2084119346, "lat": 17.4276659, "lon": 78.520322}, {"type": "node", "id": 2084119347, "lat": 17.4281756, "lon": 78.5197344}, {"type": "node", "id": 2084119348, "lat": 17.4280412, "lon": 78.5200346}, {"type": "node", "id": 2174747672, "lat": 17.3978696, "lon": 78.4434153, "tags": {"highway": "bus_stop", "name": "Sarojini Devi Eye Hospital"}}, {"type": "node", "id": 2174747675, "lat": 17.3987911, "lon": 78.4448449, "tags": {"highway": "bus_stop", "name": "Sarojini Devi Eye Hospital"}}, {"type": "node", "id": 2174747679, "lat": 17.3956739, "lon": 78.4412338, "tags": {"highway": "bus_stop", "name": "Mehdipatnam"}}, {"type": "node", "id": 2174747680, "lat": 17.3946168, "lon": 78.4392847, "tags": {"highway": "bus_stop", "name": "Mehdipatnam"}}, {"type": "node", "id": 2174747681, "lat": 17.4047659, "lon": 78.4627335, "tags": {"name": "Lakdi-ka-pul", "public_transport": "stop_position", "railway": "stop", "ref": "1", "train": "yes"}}, {"type": "node", "id": 2177311051, "lat": 17.40478, "lon": 78.4610966, "tags": {"highway": "bus_stop", "name": "Lakdi-ka-pool"}}, {"type": "node", "id": 2181332979, "lat": 17.377189, "lon": 78.4945743}, {"type": "node", "id": 2181369994, "lat": 17.3773493, "lon": 78.4939991, "tags": {"highway": "bus_stop", "name": "Chaderghat"}}, {"type": "node", "id": 2181370040, "lat": 17.3772086, "lon": 78.4924782, "tags": {"highway": "bus_stop", "name": "Chaderghat"}}, {"type": "node", "id": 2183029318, "lat": 17.3696562, "lon": 78.516472, "tags": {"alt_name": "TV Tower", "bus": "yes", "highway": "bus_stop", "name": "Moosarambagh", "public_transport": "platform"}}, {"type": "node", "id": 2183029321, "lat": 17.3729311, "lon": 78.5055031, "tags": {"bus": "yes", "highway": "bus_stop", "name": "Chermas", "public_transport": "platform"}}, {"type": "node", "id": 2183029322, "lat": 17.3687814, "lon": 78.5240908, "tags": {"bus": "yes", "highway": "bus_stop", "name": "Dilsukhnagar", "public_transport": "platform"}}, {"type": "node", "id": 2183029325, "lat": 17.3684307, "lon": 78.5234283, "tags": {"bus": "yes", "highway": "bus_stop", "name": "Dilsukhnagar", "public_transport": "platform"}}, {"type": "node", "id": 2183029326, "lat": 17.3753647, "lon": 78.4985746, "tags": {"bus": "yes", "highway": "bus_stop", "name": "Nalgonda X Roads", "public_transport": "platform"}}, {"type": "node", "id": 2183029333, "lat": 17.3682899, "lon": 78.5302921, "tags": {"bus": "yes", "fixme": "name", "highway": "bus_stop", "name": "Chaitanyapuri", "operator": "APSRTC Hyderabad", "public_transport": "platform", "shelter": "yes"}}, {"type": "node", "id": 2183029335, "lat": 17.3743569, "lon": 78.5032335, "tags": {"alt_name": "Chermas", "bus": "yes", "highway": "bus_stop", "name": "Malakpet Market", "public_transport": "platform"}}, {"type": "node", "id": 2183029336, "lat": 17.3740315, "lon": 78.499935, "tags": {"bus": "yes", "fixme": "name", "highway": "bus_stop", "name": "Malakpet Bus Stop", "public_transport": "platform", "shelter": "no"}}, {"type": "node", "id": 2183029337, "lat": 17.3684129, "lon": 78.5245602, "tags": {"bus": "yes", "highway": "bus_stop", "name": "Dilsukhnagar", "public_transport": "platform"}}, {"type": "node", "id": 2183029341, "lat": 17.3700425, "lon": 78.5139933, "tags": {"bus": "yes", "fixme": "name", "highway": "bus_stop", "public_transport": "platform"}}, {"type": "node", "id": 2185005230, "lat": 17.3772034, "lon": 78.4865157, "tags": {"bus": "yes", "highway": "bus_stop", "name": "Imlibun", "name:te": "\u0c07\u0c2e\u0c4d\u0c32\u0c3f\u0c2c\u0c28\u0c4d", "public_transport": "platform"}}, {"type": "node", "id": 2185005241, "lat": 17.3766708, "lon": 78.4862341, "tags": {"bus": "yes", "highway": "bus_stop", "name": "Imlibun", "name:te": "\u0c07\u0c2e\u0c4d\u0c32\u0c3f\u0c2c\u0c28\u0c4d", "public_transport": "platform"}}, {"type": "node", "id": 2185045487, "lat": 17.3784864, "lon": 78.4817136, "tags": {"bus": "yes", "highway": "bus_stop", "name": "TSRTC CBS BUS STAND", "public_transport": "platform"}}, {"type": "node", "id": 2185045507, "lat": 17.3779509, "lon": 78.4813912, "tags": {"bus": "yes", "highway": "bus_stop", "name": "TSRTC CBS BUS STAND", "public_transport": "platform"}}, {"type": "node", "id": 2192962547, "lat": 17.3954587, "lon": 78.4705909, "tags": {"highway": "bus_stop", "name": "Nampally"}}, {"type": "node", "id": 2192962558, "lat": 17.3968067, "lon": 78.4708596, "tags": {"amenity": "toilets", "highway": "bus_stop", "name": "Public Gardens"}}, {"type": "node", "id": 2192962566, "lat": 17.400341, "lon": 78.469852, "tags": {"bench": "yes", "highway": "bus_stop", "shelter": "yes"}}, {"type": "node", "id": 2192962626, "lat": 17.4058277, "lon": 78.4674199, "tags": {"highway": "bus_stop", "name": "RBI", "name:te": "\u0c06\u0c30\u0c4d \u0c2c\u0c40 \u0c10"}}, {"type": "node", "id": 2192962685, "lat": 17.4127086, "lon": 78.4712086, "tags": {"highway": "bus_stop"}}, {"type": "node", "id": 2197048423, "lat": 17.3850259, "lon": 78.4884201, "tags": {"highway": "bus_stop", "name": "Koti Women's College", "name:te": "\u0c15\u0c4b\u0c1f\u0c3f \u0c09\u0c2e\u0c46\u0c28\u0c4d\u0c38\u0c4d \u0c15\u0c3e\u0c32\u0c47\u0c1c\u0c4d"}}, {"type": "node", "id": 2199466758, "lat": 17.3982153, "lon": 78.4437748, "tags": {"highway": "bus_stop", "name": "Sarojini Devi Eye Hospital"}}, {"type": "node", "id": 2199466759, "lat": 17.4032751, "lon": 78.4564939, "tags": {"highway": "bus_stop", "name": "Masab Tank JNTU"}}, {"type": "node", "id": 2199476224, "lat": 17.398973, "lon": 78.4495254, "tags": {"highway": "bus_stop", "name": "NMDC"}}, {"type": "node", "id": 2199476226, "lat": 17.3855251, "lon": 78.4816314, "tags": {"highway": "bus_stop", "name": "Bank Street", "name:te": "\u0c2c\u0c3e\u0c02\u0c15\u0c4d \u0c38\u0c4d\u0c1f\u0c4d\u0c30\u0c40\u0c1f\u0c4d"}}, {"type": "node", "id": 2199476229, "lat": 17.4019366, "lon": 78.4691377, "tags": {"highway": "bus_stop", "name": "All India Radio", "name:te": "\u0c06\u0c32\u0c4d \u0c07\u0c02\u0c21\u0c3f\u0c2f\u0c3e \u0c30\u0c47\u0c21\u0c3f\u0c2f\u0c4b"}}, {"type": "node", "id": 2199508157, "lat": 17.3724345, "lon": 78.5092099, "tags": {"alt_name": "Malakpet Super Bazaar", "bus": "yes", "highway": "bus_stop", "name": "Super Bazaar", "public_transport": "platform"}}, {"type": "node", "id": 2212520219, "lat": 17.4241182, "lon": 78.5019947, "tags": {"highway": "bus_stop", "name": "Gandhi Hospital"}}, {"type": "node", "id": 2217940686, "lat": 17.3976544, "lon": 78.4753629, "tags": {"bench": "yes", "bin": "yes", "highway": "bus_stop", "name": "Nizam College", "shelter": "yes"}}, {"type": "node", "id": 2217940689, "lat": 17.3930165, "lon": 78.4763954, "tags": {"bench": "yes", "bin": "yes", "highway": "bus_stop", "name": "Abids Grammar School", "shelter": "yes"}}, {"type": "node", "id": 2217960497, "lat": 17.3684433, "lon": 78.5228597, "tags": {"bus": "yes", "highway": "bus_stop", "name": "Dilsukhnagar", "public_transport": "platform"}}, {"type": "node", "id": 2217968813, "lat": 17.4028042, "lon": 78.4594873, "tags": {"highway": "bus_stop", "name": "A.C. Guards"}}, {"type": "node", "id": 2217968814, "lat": 17.3987603, "lon": 78.4494264, "tags": {"highway": "bus_stop", "name": "NMDC"}}, {"type": "node", "id": 2390894256, "lat": 17.4070448, "lon": 78.4967721, "tags": {"name": "RTC Cross Roads", "name:te": "\u0c06\u0c30\u0c4d \u0c1f\u0c40 \u0c38\u0c3f \u0c15\u0c4d\u0c30\u0c3e\u0c38\u0c4d \u0c30\u0c4b\u0c21\u0c4d\u0c38\u0c4d", "network": "Hyderabad Metro", "note": "Contributors are requested to not edit the \"network\" and the \"operator\" tags. (2023/11/08)", "operator": "Hyderabad Metro Rail Limited", "public_transport": "stop_position", "subway": "yes"}}, {"type": "node", "id": 2390894266, "lat": 17.4003684, "lon": 78.4948742, "tags": {"name": "Chikkadpally", "name:ml": "\u0d1a\u0d3f\u0d15\u0d4d\u0d15\u0d1f\u0d2a\u0d4d\u0d2a\u0d33\u0d4d\u0d33\u0d3f", "name:te": "\u0c1a\u0c3f\u0c15\u0c4d\u0c15\u0c21\u0c2a\u0c32\u0c4d\u0c32\u0c3f", "network": "Hyderabad Metro", "note": "Contributors are requested to not edit the \"network\" and the \"operator\" tags. (2023/11/08)", "operator": "Hyderabad Metro Rail Limited", "public_transport": "stop_position", "subway": "yes"}}, {"type": "node", "id": 2422173111, "lat": 17.4282733, "lon": 78.5284257, "tags": {"name": "Tarnaka", "name:te": "\u0c24\u0c3e\u0c30\u0c4d\u0c28\u0c3e\u0c15", "network": "Hyderabad Metro", "note": "Contributors are requested to not edit the \"network\" and the \"operator\" tags. (2023/11/08)", "operator": "Hyderabad Metro Rail Limited", "public_transport": "stop_position", "railway": "stop", "subway": "yes"}}, {"type": "node", "id": 2422989007, "lat": 17.3734454, "lon": 78.5031791, "tags": {"addr:city": "Hyderabad", "addr:city:ar": "\u062d\u064a\u062f\u0631 \u0622\u0628\u0627\u062f", "addr:city:ur": "\u062d\u06cc\u062f\u0631\u0622\u0628\u0627\u062f", "alt_name": "\u0645\u062d\u0628\u0648\u0628 \u06af\u0646\u062c", "name": "New Market", "name:ml": "\u0d28\u0d4d\u0d2f\u0d42\u0d2e\u0d3e\u0d7c\u0d15\u0d4d\u0d15\u0d31\u0d4d\u0d31\u0d4d", "name:te": "\u0c15\u0c4a\u0c24\u0c4d\u0c24 \u0c2e\u0c3e\u0c30\u0c4d\u0c15\u0c46\u0c1f\u0c4d", "name:ur": "\u0646\u0626\u06cc \u0645\u0627\u0631\u06a9\u06cc\u0679", "network": "Hyderabad Metro", "note": "Contributors are requested to not edit the \"network\" and the \"operator\" tags. (2023/11/08)", "operator": "Hyderabad Metro Rail Limited", "public_transport": "stop_position", "public_transport:version": "2", "railway": "stop", "subway": "yes"}}, {"type": "node", "id": 2422989049, "lat": 17.3821199, "lon": 78.4816145, "tags": {"addr:city": "Hyderabad", "addr:city:ar": "\u062d\u064a\u062f\u0631 \u0622\u0628\u0627\u062f", "addr:city:ur": "\u062d\u06cc\u062f\u0631\u0622\u0628\u0627\u062f", "alt_name": "OMC", "name": "Osmania Medical College", "name:ml": "\u0d09\u0d38\u0d4d\u0d2e\u0d3e\u0d28\u0d3f\u0d2f \u0d2e\u0d46\u0d21\u0d3f\u0d15\u0d4d\u0d15\u0d7d \u0d15\u0d4b\u0d33\u0d47\u0d1c\u0d4d", "name:te": "\u0c09\u0c38\u0c4d\u0c2e\u0c3e\u0c28\u0c3f\u0c2f\u0c3e \u0c35\u0c48\u0c26\u0c4d\u0c2f \u0c15\u0c33\u0c3e\u0c36\u0c3e\u0c32", "network": "Hyderabad Metro", "note": "Contributors are requested to not edit the \"network\" and the \"operator\" tags. (2023/11/08)", "operator": "Hyderabad Metro Rail Limited", "public_transport": "stop_position", "public_transport:version": "2", "railway": "stop", "subway": "yes"}}, {"type": "node", "id": 2422989058, "lat": 17.3772052, "lon": 78.4939044, "tags": {"addr:city": "Hyderabad", "addr:city:ar": "\u062d\u064a\u062f\u0631 \u0622\u0628\u0627\u062f", "addr:city:ur": "\u062d\u06cc\u062f\u0631\u0622\u0628\u0627\u062f", "addr:place": "Malakpet", "addr:place:ar": "\u0645\u0627\u0644\u0643 \u0628\u064a\u062a", "addr:place:ur": "\u0645\u0627\u0644\u06a9 \u067e\u06cc\u0679", "alt_name:ur": "\u0645\u0644\u06a9 \u067e\u06cc\u0679", "name": "Malakpet", "name:ar": "\u0645\u0627\u0644\u0643 \u0628\u064a\u062a", "name:te": "\u0c2e\u0c32\u0c15\u0c4d\u200c\u0c2a\u0c47\u0c1f\u0c4d", "name:ur": "\u0645\u0627\u0644\u06a9 \u067e\u06cc\u0679", "network": "Hyderabad Metro", "note": "Contributors are requested to not edit the \"network\" and the \"operator\" tags. (2023/11/08)", "operator": "Hyderabad Metro Rail Limited", "public_transport": "stop_position", "public_transport:version": "2", "railway": "stop", "subway": "yes"}}, {"type": "node", "id": 2422989068, "lat": 17.3979907, "lon": 78.4708797, "tags": {"addr:city": "Hyderabad", "addr:city:ar": "\u062d\u064a\u062f\u0631 \u0622\u0628\u0627\u062f", "addr:city:ur": "\u062d\u06cc\u062f\u0631\u0622\u0628\u0627\u062f", "name": "Assembly", "name:ml": "\u0d05\u0d38\u0d02\u0d2c\u0d4d\u0d32\u0d3f", "name:te": "\u0c05\u0c38\u0c46\u0c02\u0c2c\u0c4d\u0c32\u0c40", "network": "Hyderabad Metro", "note": "Contributors are requested to not edit the \"network\" and the \"operator\" tags. (2023/11/08)", "operator": "Hyderabad Metro Rail Limited", "public_transport": "stop_position", "public_transport:version": "2", "railway": "stop", "subway": "yes"}}, {"type": "node", "id": 2422989110, "lat": 17.3858253, "lon": 78.4733347, "tags": {"addr:city": "Hyderabad", "addr:city:ar": "\u062d\u064a\u062f\u0631 \u0622\u0628\u0627\u062f", "addr:city:ur": "\u062d\u06cc\u062f\u0631\u0622\u0628\u0627\u062f", "name": "Gandhi Bhavan", "name:ml": "\u0d17\u0d3e\u0d28\u0d4d\u0d27\u0d3f \u0d2d\u0d35\u0d7b", "name:te": "\u0c17\u0c3e\u0c02\u0c27\u0c40 \u0c2d\u0c35\u0c28\u0c4d", "network": "Hyderabad Metro", "note": "Contributors are requested to not edit the \"network\" and the \"operator\" tags. (2023/11/08)", "operator": "Hyderabad Metro Rail Limited", "public_transport": "stop_position", "public_transport:version": "2", "railway": "stop", "subway": "yes"}}, {"type": "node", "id": 2422989167, "lat": 17.3685631, "lon": 78.5257183, "tags": {"addr:city": "Hyderabad", "addr:city:ar": "\u062d\u064a\u062f\u0631 \u0622\u0628\u0627\u062f", "addr:city:ur": "\u062d\u06cc\u062f\u0631\u0622\u0628\u0627\u062f", "name": "Dilsukh Nagar", "name:ml": "\u0d26\u0d3f\u0d7d\u0d38\u0d41\u0d16\u0d4d\u0d28\u0d17\u0d7c", "name:te": "\u0c26\u0c3f\u0c32\u0c4d\u200c\u0c38\u0c41\u0c16\u0c4d\u200c\u0c28\u0c17\u0c30\u0c4d", "network": "Hyderabad Metro", "note": "Contributors are requested to not edit the \"network\" and the \"operator\" tags. (2023/11/08)", "operator": "Hyderabad Metro Rail Limited", "public_transport": "stop_position", "public_transport:version": "2", "railway": "stop", "subway": "yes", "wheelchair": "yes"}}, {"type": "node", "id": 2422989191, "lat": 17.4202292, "lon": 78.4563489, "tags": {"addr:city": "Hyderabad", "addr:city:ar": "\u062d\u064a\u062f\u0631 \u0622\u0628\u0627\u062f", "addr:city:ur": "\u062d\u06cc\u062f\u0631\u0622\u0628\u0627\u062f", "name": "Irrum Manzil", "name:ml": "\u0d0e\u0d31\u0d02 \u0d2e\u0d7b\u0d38\u0d3f\u0d7d", "name:te": "\u0c07\u0c31\u0c02 \u0c2e\u0c02\u0c1c\u0c3f\u0c32\u0c4d", "network": "Hyderabad Metro", "note": "Contributors are requested to not edit the \"network\" and the \"operator\" tags. (2023/11/08)", "operator": "Hyderabad Metro Rail Limited", "public_transport": "stop_position", "public_transport:version": "2", "railway": "stop", "subway": "yes"}}, {"type": "node", "id": 2422989207, "lat": 17.392222, "lon": 78.4701612, "tags": {"addr:city": "Hyderabad", "addr:city:ar": "\u062d\u064a\u062f\u0631 \u0622\u0628\u0627\u062f", "addr:city:ur": "\u062d\u06cc\u062f\u0631\u0622\u0628\u0627\u062f", "name": "Nampally", "name:ml": "\u0d28\u0d3e\u0d2e\u0d4d\u0d2a\u0d33\u0d4d\u0d33\u0d3f", "name:te": "\u0c28\u0c3e\u0c02\u0c2a\u0c32\u0c4d\u0c32\u0c3f", "network": "Hyderabad Metro", "note": "Contributors are requested to not edit the \"network\" and the \"operator\" tags. (2023/11/08)", "operator": "Hyderabad Metro Rail Limited", "public_transport": "stop_position", "public_transport:version": "2", "railway": "stop", "subway": "yes"}}, {"type": "node", "id": 2422989260, "lat": 17.3798092, "lon": 78.486212, "tags": {"addr:city": "Hyderabad", "addr:city:ar": "\u062d\u064a\u062f\u0631 \u0622\u0628\u0627\u062f", "addr:city:ur": "\u062d\u06cc\u062f\u0631\u0622\u0628\u0627\u062f", "alt_name": "M. G. Bus Station (Red Line)", "name": "Mahatma Gandhi Bus Station (Red Line)", "name:te": "\u0c0e\u0c02.\u0c1c\u0c3f. \u0c2c\u0c38\u0c4d. \u0c38\u0c4d\u0c1f\u0c47\u0c37\u0c28\u0c4d", "name:ur": "\u0645\u06c1\u0627\u062a\u0645\u0627 \u06af\u0627\u0646\u062f\u06be\u06cc \u0628\u0633 \u0627\u0633\u0679\u06cc\u0634\u0646 (\u0631\u06cc\u0688 \u0644\u0627\u0626\u0646)", "network": "Hyderabad Metro", "note": "Contributors are requested to not edit the \"network\" and the \"operator\" tags. (2023/11/08)", "operator": "Hyderabad Metro Rail Limited", "public_transport": "stop_position", "public_transport:version": "2", "railway": "stop", "subway": "yes"}}, {"type": "node", "id": 2424019772, "lat": 17.4284456, "lon": 78.4513095, "tags": {"addr:city": "Hyderabad", "addr:city:ar": "\u062d\u064a\u062f\u0631 \u0622\u0628\u0627\u062f", "addr:city:ur": "\u062d\u06cc\u062f\u0631\u0622\u0628\u0627\u062f", "name": "Panjagutta", "name:ml": "\u0d2a\u0d1e\u0d4d\u0d1a\u0d17\u0d41\u0d1f\u0d4d\u0d1f", "name:te": "\u0c2a\u0c02\u0c1c\u0c3e\u0c17\u0c41\u0c1f\u0c4d\u0c1f", "network": "Hyderabad Metro", "note": "Contributors are requested to not edit the \"network\" and the \"operator\" tags. (2023/11/08)", "operator": "Hyderabad Metro Rail Limited", "public_transport": "stop_position", "public_transport:version": "2", "railway": "stop", "subway": "yes"}}, {"type": "node", "id": 2429965407, "lat": 17.3831041, "lon": 78.4828127, "tags": {"highway": "bus_stop", "name": "Medical College Bus Stop", "shelter": "yes"}}, {"type": "node", "id": 2445999527, "lat": 17.3765437, "lon": 78.5145697, "tags": {"bus": "yes", "highway": "bus_stop", "name": "Moosarambagh Bus Stop", "public_transport": "platform"}}, {"type": "node", "id": 2458342380, "lat": 17.4190085, "lon": 78.4479002, "tags": {"highway": "bus_stop", "name": "Water Tank"}}, {"type": "node", "id": 2460409245, "lat": 17.3587239, "lon": 78.4739639}, {"type": "node", "id": 2460409246, "lat": 17.3587582, "lon": 78.4738584}, {"type": "node", "id": 2460409247, "lat": 17.3587703, "lon": 78.4737562}, {"type": "node", "id": 2460409253, "lat": 17.3588514, "lon": 78.4735888}, {"type": "node", "id": 2460409270, "lat": 17.3594296, "lon": 78.4737051}, {"type": "node", "id": 2460409274, "lat": 17.3594865, "lon": 78.4740936}, {"type": "node", "id": 2460409275, "lat": 17.3594941, "lon": 78.4737913}, {"type": "node", "id": 2460409278, "lat": 17.3595569, "lon": 78.4741069}, {"type": "node", "id": 2460493710, "lat": 17.3889614, "lon": 78.4990166}, {"type": "node", "id": 2460493725, "lat": 17.3895054, "lon": 78.4994973}, {"type": "node", "id": 2461282027, "lat": 17.4001075, "lon": 78.5095791}, {"type": "node", "id": 2461282028, "lat": 17.4001424, "lon": 78.5095326}, {"type": "node", "id": 2461282029, "lat": 17.4001867, "lon": 78.5094762}, {"type": "node", "id": 2461282030, "lat": 17.4002278, "lon": 78.5094298}, {"type": "node", "id": 2461282032, "lat": 17.4011017, "lon": 78.5104581}, {"type": "node", "id": 2461282036, "lat": 17.4013867, "lon": 78.5105344}, {"type": "node", "id": 2461282037, "lat": 17.401393, "lon": 78.5104614}, {"type": "node", "id": 2461282046, "lat": 17.4026662, "lon": 78.511906}, {"type": "node", "id": 2461282047, "lat": 17.4026979, "lon": 78.5118596}, {"type": "node", "id": 2461282048, "lat": 17.4027137, "lon": 78.51177}, {"type": "node", "id": 2461282050, "lat": 17.4027548, "lon": 78.5117136}, {"type": "node", "id": 2496720259, "lat": 17.4192552, "lon": 78.4479864, "tags": {"highway": "bus_stop", "name": "GVK One"}}, {"type": "node", "id": 2496725867, "lat": 17.4158228, "lon": 78.4489433, "tags": {"bus": "yes", "highway": "bus_stop", "name": "City Center", "public_transport": "platform"}}, {"type": "node", "id": 2578026375, "lat": 17.4066792, "lon": 78.4986216, "tags": {"amenity": "bus_station", "bus": "yes", "name": "TSRTC BUS BHAVAN", "public_transport": "station"}}, {"type": "node", "id": 2578033345, "lat": 17.4112354, "lon": 78.4829745, "tags": {"highway": "bus_stop"}}, {"type": "node", "id": 2578033346, "lat": 17.4107607, "lon": 78.4764285, "tags": {"highway": "bus_stop"}}, {"type": "node", "id": 2706868235, "lat": 17.3631643, "lon": 78.5305888}, {"type": "node", "id": 2706868237, "lat": 17.3628828, "lon": 78.5305134}, {"type": "node", "id": 2706868239, "lat": 17.3629234, "lon": 78.5303472}, {"type": "node", "id": 2708095579, "lat": 17.4084692, "lon": 78.4735778, "tags": {"highway": "bus_stop", "name": "APSRTC Pushpak", "name:te": "\u0c2a\u0c41\u0c37\u0c4d\u0c2a\u0c15\u0c4d"}}, {"type": "node", "id": 2708109161, "lat": 17.3911811, "lon": 78.5108995, "tags": {"highway": "bus_stop", "name": "Chey Number"}}, {"type": "node", "id": 2708113716, "lat": 17.3918602, "lon": 78.5107867, "tags": {"highway": "bus_stop", "name": "6 Number"}}, {"type": "node", "id": 2708229891, "lat": 17.3973693, "lon": 78.5120339, "tags": {"highway": "bus_stop", "name": "Syndicate Bank Bus Stop"}}, {"type": "node", "id": 2708238383, "lat": 17.3983884, "lon": 78.5123783, "tags": {"highway": "bus_stop", "name": "Syndicate Bank Bus Stop"}}, {"type": "node", "id": 2710816006, "lat": 17.4108441, "lon": 78.4849278, "tags": {"highway": "bus_stop", "name": "ntr stadium bus stop"}}, {"type": "node", "id": 2710944974, "lat": 17.4050023, "lon": 78.476374, "tags": {"highway": "bus_stop", "name": "hill fort", "name:te": "\u0c39\u0c3f\u0c32\u0c4d \u0c2b\u0c4b\u0c30\u0c4d\u0c1f\u0c4d"}}, {"type": "node", "id": 2710957775, "lat": 17.4005079, "lon": 78.4696684, "tags": {"bench": "yes", "highway": "bus_stop", "name": "Assembly", "shelter": "yes"}}, {"type": "node", "id": 2710974553, "lat": 17.4294982, "lon": 78.4881643, "tags": {"highway": "bus_stop", "name": "Ranigunj"}}, {"type": "node", "id": 2710984314, "lat": 17.4050023, "lon": 78.4769104, "tags": {"highway": "bus_stop", "name": "Basheerbagh", "name:te": "\u0c2c\u0c37\u0c40\u0c30\u0c4d \u0c2c\u0c3e\u0c17\u0c4d"}}, {"type": "node", "id": 2712432879, "lat": 17.413593, "lon": 78.4609563, "tags": {"highway": "bus_stop", "name": "khairatabad"}}, {"type": "node", "id": 2712437769, "lat": 17.4038328, "lon": 78.4635019, "tags": {"internet_access": "no", "name": "Lakdi-ka-pul", "name:te": "\u0c32\u0c15\u0c4d\u0c21\u0c3f\u0c15\u0c2a\u0c42\u0c32\u0c4d", "name:ur": "\u0644\u06a9\u0691\u06cc \u06a9\u0627 \u067e\u0644", "network": "IR", "operator": "SCR", "platforms": "2", "public_transport": "station", "railway": "station", "ref": "LKPL", "train": "yes", "wikidata": "Q6474590", "wikipedia": "en:Lakdi-ka-pul railway station"}}, {"type": "node", "id": 2712439279, "lat": 17.4029577, "lon": 78.4583929, "tags": {"alt_name": "Mahavir Hospital", "highway": "bus_stop", "name": "Mahavir Hospital"}}, {"type": "node", "id": 2712621717, "lat": 17.4089749, "lon": 78.4898639, "tags": {"highway": "bus_stop", "name": "ashok nagar"}}, {"type": "node", "id": 2712702745, "lat": 17.391604, "lon": 78.5162173, "tags": {"highway": "bus_stop", "name": "amber pet"}}, {"type": "node", "id": 2715277397, "lat": 17.4084652, "lon": 78.4896646, "tags": {"highway": "bus_stop", "local_ref": "40, Sec-Koti Bus stop", "name": "Ashok Nagar"}}, {"type": "node", "id": 2715279111, "lat": 17.4126307, "lon": 78.4885557, "tags": {"highway": "bus_stop", "local_ref": "Nampally - Sec, Koti-Sec bus stop", "name": "Gandhi Nagar"}}, {"type": "node", "id": 2766428029, "lat": 17.3415227, "lon": 78.4825047, "tags": {"internet_access": "no", "name": "Huppuguda", "network": "IR", "operator": "SCR", "platforms": "2", "public_transport": "halt", "railway": "halt", "ref": "HPG", "train": "yes", "wikidata": "Q16920777", "wikipedia": "en:Huppuguda railway station"}}, {"type": "node", "id": 2766428030, "lat": 17.3600834, "lon": 78.4921942, "tags": {"internet_access": "no", "name": "Yakutpura", "name:fa": "\u06cc\u0627\u0642\u0648\u062a \u067e\u0648\u0631\u06c1", "network": "IR", "operator": "SCR", "platforms": "2", "public_transport": "halt", "railway": "halt", "ref": "YKA", "train": "yes", "wikidata": "Q16930084", "wikipedia": "en:Yakutpura railway station"}}, {"type": "node", "id": 2766428051, "lat": 17.3401656, "lon": 78.4815021}, {"type": "node", "id": 2766428052, "lat": 17.340216, "lon": 78.4814451}, {"type": "node", "id": 2766428053, "lat": 17.3404809, "lon": 78.4819824}, {"type": "node", "id": 2766428054, "lat": 17.3405265, "lon": 78.4819313}, {"type": "node", "id": 2766428055, "lat": 17.3418992, "lon": 78.4830124}, {"type": "node", "id": 2766428056, "lat": 17.3419118, "lon": 78.4829267}, {"type": "node", "id": 2766428057, "lat": 17.3421836, "lon": 78.4834926}, {"type": "node", "id": 2766428058, "lat": 17.3422434, "lon": 78.4834333}, {"type": "node", "id": 2766428060, "lat": 17.3586895, "lon": 78.4914075}, {"type": "node", "id": 2766428062, "lat": 17.3587519, "lon": 78.4915555}, {"type": "node", "id": 2766428063, "lat": 17.3587632, "lon": 78.4915193}, {"type": "node", "id": 2766428064, "lat": 17.3604232, "lon": 78.4922732}, {"type": "node", "id": 2766428065, "lat": 17.3604517, "lon": 78.4922103}, {"type": "node", "id": 2766428066, "lat": 17.3604701, "lon": 78.4921259}, {"type": "node", "id": 2766428067, "lat": 17.360557, "lon": 78.4921016}, {"type": "node", "id": 2766428069, "lat": 17.3605422, "lon": 78.4921509}, {"type": "node", "id": 2766428071, "lat": 17.3650235, "lon": 78.4910348}, {"type": "node", "id": 2766428072, "lat": 17.3650441, "lon": 78.4910746}, {"type": "node", "id": 2766428074, "lat": 17.3650489, "lon": 78.4911733}, {"type": "node", "id": 2766428075, "lat": 17.3650728, "lon": 78.4912133}, {"type": "node", "id": 2766428077, "lat": 17.3663389, "lon": 78.4902803}, {"type": "node", "id": 2766428078, "lat": 17.3663568, "lon": 78.4903339}, {"type": "node", "id": 2766428079, "lat": 17.3666256, "lon": 78.490326}, {"type": "node", "id": 2766428080, "lat": 17.3664221, "lon": 78.4904779}, {"type": "node", "id": 2766428081, "lat": 17.3668273, "lon": 78.4900867}, {"type": "node", "id": 2766428082, "lat": 17.3668408, "lon": 78.4901468}, {"type": "node", "id": 2787194458, "lat": 17.3950152, "lon": 78.4408041}, {"type": "node", "id": 2817389631, "lat": 17.3865919, "lon": 78.4398828, "tags": {"addr:city": "Hyderabad", "addr:postcode": "500028", "addr:street": "Sai Baba Temple, Gudimalkapur, Mehedipatnam", "highway": "bus_stop", "name": "Sai Baba Temple, Gudimalkapur", "shelter": "no"}}, {"type": "node", "id": 2857849716, "lat": 17.3403611, "lon": 78.4815976}, {"type": "node", "id": 2857849722, "lat": 17.340778, "lon": 78.4819361}, {"type": "node", "id": 3157201754, "lat": 17.3844647, "lon": 78.484, "tags": {"name": "Sultan Bazar", "name:te": "\u0c38\u0c41\u0c32\u0c4d\u0c24\u0c3e\u0c28\u0c4d \u0c2c\u0c1c\u0c3e\u0c30\u0c4d", "network": "Hyderabad Metro", "note": "Contributors are requested to not edit the \"network\" and the \"operator\" tags. (2023/11/08)", "operator": "Hyderabad Metro Rail Limited", "public_transport": "stop_position", "subway": "yes"}}, {"type": "node", "id": 3157569719, "lat": 17.3467185, "lon": 78.5081947, "tags": {"bus": "yes", "highway": "bus_stop", "name": "Santoshnagar", "public_transport": "platform"}}, {"type": "node", "id": 3170093993, "lat": 17.4083494, "lon": 78.4720874, "tags": {"highway": "bus_stop", "name": "Secretriat Bus Stop", "name:te": "\u0c38\u0c46\u0c15\u0c4d\u0c30\u0c1f\u0c47\u0c30\u0c3f\u0c2f\u0c1f\u0c4d \u0c2c\u0c38\u0c4d \u0c38\u0c4d\u0c1f\u0c3e\u0c2a\u0c4d"}}, {"type": "node", "id": 3170114035, "lat": 17.407482, "lon": 78.4766011, "tags": {"highway": "bus_stop", "name": "Liberty", "name:te": "\u0c32\u0c3f\u0c2c\u0c30\u0c4d\u0c1f\u0c40"}}, {"type": "node", "id": 3170114036, "lat": 17.4071019, "lon": 78.4762585, "tags": {"highway": "bus_stop", "name": "Liberty", "name:te": "\u0c32\u0c3f\u0c2c\u0c30\u0c4d\u0c1f\u0c40"}}, {"type": "node", "id": 3170114037, "lat": 17.4055586, "lon": 78.4770552, "tags": {"highway": "bus_stop", "name": "Liberty"}}, {"type": "node", "id": 3205619987, "lat": 17.377086, "lon": 78.4945657}, {"type": "node", "id": 3461620089, "lat": 17.3411392, "lon": 78.4822466}, {"type": "node", "id": 3462885678, "lat": 17.3666452, "lon": 78.4901553}, {"type": "node", "id": 3462997820, "lat": 17.4019813, "lon": 78.5112642, "tags": {"entrance": "yes"}}, {"type": "node", "id": 3577123913, "lat": 17.3412397, "lon": 78.482335}, {"type": "node", "id": 3612559409, "lat": 17.3764232, "lon": 78.4950585}, {"type": "node", "id": 3612573966, "lat": 17.4110069, "lon": 78.4733865, "tags": {"amenity": "ferry_terminal", "ferry": "yes", "name": "Boats to Budha Statue", "name:te": "\u0c2c\u0c41\u0c26\u0c4d\u0c27 \u0c35\u0c3f\u0c17\u0c4d\u0c30\u0c39\u0c02 \u0c15\u0c4a\u0c30\u0c15\u0c41 \u0c2c\u0c4b\u0c1f\u0c4d\u0c38\u0c4d", "public_transport": "station"}}, {"type": "node", "id": 3619319599, "lat": 17.3878883, "lon": 78.498054}, {"type": "node", "id": 3619319637, "lat": 17.3879516, "lon": 78.4980687}, {"type": "node", "id": 3619320006, "lat": 17.3881923, "lon": 78.4982828}, {"type": "node", "id": 3619320026, "lat": 17.3882257, "lon": 78.4983257}, {"type": "node", "id": 3619320098, "lat": 17.3883508, "lon": 78.4984352}, {"type": "node", "id": 3619320143, "lat": 17.3884493, "lon": 78.498518}, {"type": "node", "id": 3619320168, "lat": 17.3885293, "lon": 78.4985848}, {"type": "node", "id": 3619320194, "lat": 17.388614, "lon": 78.4986922}, {"type": "node", "id": 3619320266, "lat": 17.3888001, "lon": 78.4988747}, {"type": "node", "id": 3782524808, "lat": 17.4187247, "lon": 78.5200434, "tags": {"name": "Arts College", "public_transport": "stop_position", "railway": "stop", "ref": "2", "train": "yes"}}, {"type": "node", "id": 3782524851, "lat": 17.4271792, "lon": 78.5204004}, {"type": "node", "id": 3782524857, "lat": 17.4273412, "lon": 78.5202249}, {"type": "node", "id": 3782524859, "lat": 17.4273704, "lon": 78.5203968}, {"type": "node", "id": 3782524860, "lat": 17.42748, "lon": 78.5204532}, {"type": "node", "id": 3782524865, "lat": 17.4276895, "lon": 78.5200356}, {"type": "node", "id": 3782524868, "lat": 17.4277995, "lon": 78.5200782}, {"type": "node", "id": 3782524870, "lat": 17.4278269, "lon": 78.5197837}, {"type": "node", "id": 3782524871, "lat": 17.4278378, "lon": 78.5201953}, {"type": "node", "id": 3782524873, "lat": 17.4280183, "lon": 78.5198369, "tags": {"name": "Sitafalmandi", "public_transport": "stop_position", "ref": "3", "train": "yes"}}, {"type": "node", "id": 3782524878, "lat": 17.4282338, "lon": 78.5198539}, {"type": "node", "id": 3782524881, "lat": 17.4282992, "lon": 78.5194701}, {"type": "node", "id": 3782524883, "lat": 17.4283299, "lon": 78.5195776}, {"type": "node", "id": 3782524885, "lat": 17.4283752, "lon": 78.5193366}, {"type": "node", "id": 3784358051, "lat": 17.3910572, "lon": 78.4672172}, {"type": "node", "id": 3784358052, "lat": 17.3911019, "lon": 78.46731}, {"type": "node", "id": 3784358053, "lat": 17.3911063, "lon": 78.4672274}, {"type": "node", "id": 3784358054, "lat": 17.3910419, "lon": 78.4673852}, {"type": "node", "id": 3784358055, "lat": 17.3910834, "lon": 78.4674573}, {"type": "node", "id": 3784358056, "lat": 17.3911727, "lon": 78.4671332}, {"type": "node", "id": 3784388057, "lat": 17.3911786, "lon": 78.4670413}, {"type": "node", "id": 3784388058, "lat": 17.3912039, "lon": 78.4670444}, {"type": "node", "id": 3784388059, "lat": 17.391211, "lon": 78.4669516}, {"type": "node", "id": 3784388062, "lat": 17.3913489, "lon": 78.4674057}, {"type": "node", "id": 3784388063, "lat": 17.3913503, "lon": 78.4673888}, {"type": "node", "id": 3784388065, "lat": 17.3929998, "lon": 78.4678142}, {"type": "node", "id": 3784388066, "lat": 17.3931034, "lon": 78.4676369}, {"type": "node", "id": 3784388067, "lat": 17.3931064, "lon": 78.4675637}, {"type": "node", "id": 3784388068, "lat": 17.3931429, "lon": 78.4678252}, {"type": "node", "id": 3784388069, "lat": 17.3931475, "lon": 78.4677732}, {"type": "node", "id": 3784388072, "lat": 17.3944685, "lon": 78.4678419}, {"type": "node", "id": 3784388074, "lat": 17.3947315, "lon": 78.4678496}, {"type": "node", "id": 3784388076, "lat": 17.3949573, "lon": 78.4678699}, {"type": "node", "id": 3784388078, "lat": 17.3950322, "lon": 78.4676899}, {"type": "node", "id": 3784388079, "lat": 17.3950541, "lon": 78.4676018}, {"type": "node", "id": 3784388081, "lat": 17.3951521, "lon": 78.4675178}, {"type": "node", "id": 3784388084, "lat": 17.3952848, "lon": 78.4677646}, {"type": "node", "id": 3784388087, "lat": 17.3954113, "lon": 78.4676228}, {"type": "node", "id": 3784388089, "lat": 17.3954155, "lon": 78.4677148}, {"type": "node", "id": 3784388091, "lat": 17.3954715, "lon": 78.4679174}, {"type": "node", "id": 3784388092, "lat": 17.3955047, "lon": 78.4678798}, {"type": "node", "id": 3784388093, "lat": 17.3955181, "lon": 78.4677817}, {"type": "node", "id": 3784388095, "lat": 17.3956522, "lon": 78.4679295}, {"type": "node", "id": 3784388097, "lat": 17.3956964, "lon": 78.4677148}, {"type": "node", "id": 3784388098, "lat": 17.3957013, "lon": 78.4676294}, {"type": "node", "id": 3784388099, "lat": 17.3957276, "lon": 78.4678861}, {"type": "node", "id": 3784388101, "lat": 17.3957439, "lon": 78.4677833}, {"type": "node", "id": 3784388102, "lat": 17.3958088, "lon": 78.4679284}, {"type": "node", "id": 3784388104, "lat": 17.3959326, "lon": 78.4678798}, {"type": "node", "id": 3784388105, "lat": 17.3959674, "lon": 78.4679218}, {"type": "node", "id": 3784388108, "lat": 17.3962424, "lon": 78.4676349}, {"type": "node", "id": 3784388109, "lat": 17.3962343, "lon": 78.467613}, {"type": "node", "id": 3784388113, "lat": 17.3961702, "lon": 78.4678954}, {"type": "node", "id": 3784388116, "lat": 17.3961997, "lon": 78.4678491}, {"type": "node", "id": 3784388122, "lat": 17.3962626, "lon": 78.4677108}, {"type": "node", "id": 3784388123, "lat": 17.3962794, "lon": 78.4677575}, {"type": "node", "id": 3784388124, "lat": 17.3963037, "lon": 78.4678348}, {"type": "node", "id": 3784388125, "lat": 17.3963121, "lon": 78.4678646}, {"type": "node", "id": 3784388166, "lat": 17.4047517, "lon": 78.4626985, "tags": {"name": "Lakdi-ka-pul", "public_transport": "stop_position", "railway": "stop", "ref": "2", "train": "yes"}}, {"type": "node", "id": 3784388178, "lat": 17.4126302, "lon": 78.4611515}, {"type": "node", "id": 3784388179, "lat": 17.4126356, "lon": 78.4612541}, {"type": "node", "id": 3784388181, "lat": 17.4138788, "lon": 78.4611376}, {"type": "node", "id": 3784388182, "lat": 17.4143648, "lon": 78.4611234}, {"type": "node", "id": 3784388183, "lat": 17.414354, "lon": 78.4609557}, {"type": "node", "id": 3784388184, "lat": 17.4143528, "lon": 78.4609816, "tags": {"name": "Khairatabad", "name:te": "\u0c16\u0c48\u0c30\u0c24\u0c3e\u0c2c\u0c3e\u0c26\u0c4d", "public_transport": "stop_position", "railway": "stop", "ref": "2", "train": "yes"}}, {"type": "node", "id": 3784388185, "lat": 17.4143598, "lon": 78.4610957, "tags": {"name": "Khairatabad", "name:te": "\u0c16\u0c48\u0c30\u0c24\u0c3e\u0c2c\u0c3e\u0c26\u0c4d", "public_transport": "stop_position", "railway": "stop", "ref": "1", "train": "yes"}}, {"type": "node", "id": 3784388186, "lat": 17.4147428, "lon": 78.4611274}, {"type": "node", "id": 3784388188, "lat": 17.4147511, "lon": 78.4609363}, {"type": "node", "id": 3784388189, "lat": 17.41507, "lon": 78.4611363}, {"type": "node", "id": 3784388190, "lat": 17.4151599, "lon": 78.4609531}, {"type": "node", "id": 3784388193, "lat": 17.4154254, "lon": 78.4611715}, {"type": "node", "id": 3784388204, "lat": 17.4231018, "lon": 78.4630036}, {"type": "node", "id": 3784388206, "lat": 17.4230448, "lon": 78.462878}, {"type": "node", "id": 3784388207, "lat": 17.42335, "lon": 78.4628506}, {"type": "node", "id": 3784388210, "lat": 17.4233585, "lon": 78.4629818}, {"type": "node", "id": 3784388211, "lat": 17.4237155, "lon": 78.4627811}, {"type": "node", "id": 3784388213, "lat": 17.4237347, "lon": 78.4629101}, {"type": "node", "id": 3784388214, "lat": 17.4241007, "lon": 78.4626542}, {"type": "node", "id": 3784388217, "lat": 17.4241561, "lon": 78.4627985}, {"type": "node", "id": 3784388218, "lat": 17.4245006, "lon": 78.4626111, "tags": {"name": "Necklace Road", "name:te": "\u0c28\u0c46\u0c15\u0c4d\u0c32\u0c46\u0c38\u0c4d \u0c30\u0c4b\u0c21\u0c4d\u0c21\u0c41", "public_transport": "stop_position", "railway": "stop", "ref": "2", "train": "yes"}}, {"type": "node", "id": 3784388220, "lat": 17.4256313, "lon": 78.4621049}, {"type": "node", "id": 3784388221, "lat": 17.4256813, "lon": 78.4622708}, {"type": "node", "id": 3969765540, "lat": 17.395382, "lon": 78.4406639, "tags": {"bus": "yes", "highway": "bus_stop", "name": "Mehdipatnam Bus Stop", "public_transport": "platform"}}, {"type": "node", "id": 4035985094, "lat": 17.3876805, "lon": 78.4980634}, {"type": "node", "id": 4035985095, "lat": 17.3877172, "lon": 78.4982769}, {"type": "node", "id": 4035985096, "lat": 17.3877404, "lon": 78.4979905}, {"type": "node", "id": 4035985097, "lat": 17.387751, "lon": 78.4982416}, {"type": "node", "id": 4035985098, "lat": 17.3878368, "lon": 78.4984287}, {"type": "node", "id": 4035985099, "lat": 17.3878549, "lon": 78.4980953}, {"type": "node", "id": 4035985100, "lat": 17.387875, "lon": 78.4986338}, {"type": "node", "id": 4035985101, "lat": 17.3878905, "lon": 78.4986161}, {"type": "node", "id": 4035985102, "lat": 17.3879109, "lon": 78.4980277}, {"type": "node", "id": 4035985103, "lat": 17.3879945, "lon": 78.4988091}, {"type": "node", "id": 4035985104, "lat": 17.3880733, "lon": 78.4988961}, {"type": "node", "id": 4035985105, "lat": 17.3885158, "lon": 78.4986071}, {"type": "node", "id": 4035985106, "lat": 17.3905131, "lon": 78.5004768}, {"type": "node", "id": 4035985107, "lat": 17.3905348, "lon": 78.500454}, {"type": "node", "id": 4035985108, "lat": 17.3916138, "lon": 78.5015507}, {"type": "node", "id": 4035985109, "lat": 17.3916281, "lon": 78.5015313}, {"type": "node", "id": 4035985110, "lat": 17.3916301, "lon": 78.5021364}, {"type": "node", "id": 4035985111, "lat": 17.3918263, "lon": 78.5021967}, {"type": "node", "id": 4035985112, "lat": 17.3918778, "lon": 78.5021205}, {"type": "node", "id": 4035985113, "lat": 17.3919354, "lon": 78.5020542}, {"type": "node", "id": 4035985114, "lat": 17.3919821, "lon": 78.501984}, {"type": "node", "id": 4035985115, "lat": 17.3920264, "lon": 78.5019322}, {"type": "node", "id": 4187283994, "lat": 17.4082906, "lon": 78.4731332, "tags": {"highway": "bus_stop"}}, {"type": "node", "id": 4187283995, "lat": 17.4100969, "lon": 78.4760235, "tags": {"highway": "bus_stop"}}, {"type": "node", "id": 4187300499, "lat": 17.3735421, "lon": 78.4759411, "tags": {"highway": "bus_stop"}}, {"type": "node", "id": 4187312089, "lat": 17.4215893, "lon": 78.4845915, "tags": {"highway": "bus_stop"}}, {"type": "node", "id": 4187313089, "lat": 17.371411, "lon": 78.478087, "tags": {"bench": "yes", "highway": "bus_stop", "shelter": "yes"}}, {"type": "node", "id": 4187313189, "lat": 17.371952, "lon": 78.4801645, "tags": {"highway": "bus_stop"}}, {"type": "node", "id": 4190967189, "lat": 17.4269282, "lon": 78.4527079, "tags": {"highway": "bus_stop", "name": "Panjagutta"}}, {"type": "node", "id": 4342904903, "lat": 17.3772926, "lon": 78.4932643}, {"type": "node", "id": 4415311692, "lat": 17.4059854, "lon": 78.4896534, "tags": {"highway": "bus_stop"}}, {"type": "node", "id": 4416374791, "lat": 17.4014511, "lon": 78.4888654, "tags": {"highway": "bus_stop"}}, {"type": "node", "id": 4418622010, "lat": 17.4004311, "lon": 78.4894669, "tags": {"highway": "bus_stop", "name": "Narayanaguda bus stop"}}, {"type": "node", "id": 4418622014, "lat": 17.3995935, "lon": 78.4864778, "tags": {"highway": "bus_stop"}}, {"type": "node", "id": 4432327892, "lat": 17.4059013, "lon": 78.4896108, "tags": {"highway": "bus_stop"}}, {"type": "node", "id": 4432379491, "lat": 17.3965091, "lon": 78.5293385, "tags": {"highway": "bus_stop", "name": "Ramantapur studio bustop", "name:en": "Ramantapur studio bustop", "name:hi": "Ramantapur studio bustop"}}, {"type": "node", "id": 4436525396, "lat": 17.3988371, "lon": 78.4940284, "tags": {"highway": "bus_stop"}}, {"type": "node", "id": 4683208291, "lat": 17.3553252, "lon": 78.4702895, "tags": {"highway": "bus_stop"}}, {"type": "node", "id": 4796526725, "lat": 17.3603573, "lon": 78.5045666, "tags": {"highway": "bus_stop", "name": "Saidabad bus stop", "name:en": "Saidabad bus stop"}}, {"type": "node", "id": 5214080468, "lat": 17.4041862, "lon": 78.4522692, "tags": {"bench": "yes", "bin": "yes", "highway": "bus_stop", "name": "Masab Tank Bus Stop", "operator": "TSRTC", "shelter": "yes"}}, {"type": "node", "id": 5471994926, "lat": 17.4026831, "lon": 78.4579947, "tags": {"highway": "bus_stop", "name": "Airport bus stop", "route": "A2"}}, {"type": "node", "id": 5486709289, "lat": 17.4100351, "lon": 78.4865195, "tags": {"bus": "yes", "highway": "bus_stop", "name": "Domalguada Bus top", "public_transport": "platform"}}, {"type": "node", "id": 5536020505, "lat": 17.410965, "lon": 78.4729424, "tags": {"amenity": "ferry_terminal", "ferry": "yes", "name": "Boats to Budha Statue", "public_transport": "station"}}, {"type": "node", "id": 5598599761, "lat": 17.3948107, "lon": 78.4406921}, {"type": "node", "id": 5608451366, "lat": 17.4201797, "lon": 78.5167256, "tags": {"highway": "bus_stop"}}, {"type": "node", "id": 5608451452, "lat": 17.4197433, "lon": 78.5173626, "tags": {"highway": "bus_stop"}}, {"type": "node", "id": 5608452002, "lat": 17.4176627, "lon": 78.5193059, "tags": {"highway": "bus_stop"}}, {"type": "node", "id": 5608452003, "lat": 17.4177407, "lon": 78.5194239, "tags": {"highway": "bus_stop"}}, {"type": "node", "id": 5787787745, "lat": 17.4070193, "lon": 78.4968324, "tags": {"name": "RTC Cross Roads", "name:te": "\u0c06\u0c30\u0c4d \u0c1f\u0c40 \u0c38\u0c3f \u0c15\u0c4d\u0c30\u0c3e\u0c38\u0c4d \u0c30\u0c4b\u0c21\u0c4d\u0c38\u0c4d", "network": "Hyderabad Metro", "note": "Contributors are requested to not edit the \"network\" and the \"operator\" tags. (2023/11/08)", "operator": "Hyderabad Metro Rail Limited", "public_transport": "stop_position", "subway": "yes"}}, {"type": "node", "id": 5787787751, "lat": 17.4003567, "lon": 78.4949221, "tags": {"name": "Chikkadpally", "name:ml": "\u0d1a\u0d3f\u0d15\u0d4d\u0d15\u0d1f\u0d2a\u0d4d\u0d2a\u0d33\u0d4d\u0d33\u0d3f", "name:te": "\u0c1a\u0c3f\u0c15\u0c4d\u0c15\u0c21\u0c2a\u0c32\u0c4d\u0c32\u0c3f", "network": "Hyderabad Metro", "note": "Contributors are requested to not edit the \"network\" and the \"operator\" tags. (2023/11/08)", "operator": "Hyderabad Metro Rail Limited", "public_transport": "stop_position", "subway": "yes"}}, {"type": "node", "id": 5787788011, "lat": 17.4289005, "lon": 78.4508989, "tags": {"addr:city": "Hyderabad", "addr:city:ar": "\u062d\u064a\u062f\u0631 \u0622\u0628\u0627\u062f", "addr:city:ur": "\u062d\u06cc\u062f\u0631\u0622\u0628\u0627\u062f", "name": "Panjagutta", "name:ml": "\u0d2a\u0d1e\u0d4d\u0d1a\u0d17\u0d41\u0d1f\u0d4d\u0d1f", "name:te": "\u0c2a\u0c02\u0c1c\u0c3e\u0c17\u0c41\u0c1f\u0c4d\u0c1f", "network": "Hyderabad Metro", "note": "Contributors are requested to not edit the \"network\" and the \"operator\" tags. (2023/11/08)", "operator": "Hyderabad Metro Rail Limited", "public_transport": "stop_position", "public_transport:version": "2", "railway": "stop", "subway": "yes"}}, {"type": "node", "id": 5787788261, "lat": 17.3685227, "lon": 78.5257174, "tags": {"addr:city": "Hyderabad", "addr:city:ar": "\u062d\u064a\u062f\u0631 \u0622\u0628\u0627\u062f", "addr:city:ur": "\u062d\u06cc\u062f\u0631\u0622\u0628\u0627\u062f", "name": "Dilsukh Nagar", "name:ml": "\u0d26\u0d3f\u0d7d\u0d38\u0d41\u0d16\u0d4d\u0d28\u0d17\u0d7c", "name:te": "\u0c26\u0c3f\u0c32\u0c4d\u200c\u0c38\u0c41\u0c16\u0c4d\u200c\u0c28\u0c17\u0c30\u0c4d", "network": "Hyderabad Metro", "note": "Contributors are requested to not edit the \"network\" and the \"operator\" tags. (2023/11/08)", "operator": "Hyderabad Metro Rail Limited", "public_transport": "stop_position", "public_transport:version": "2", "railway": "stop", "subway": "yes", "wheelchair": "yes"}}, {"type": "node", "id": 5787788976, "lat": 17.4283192, "lon": 78.5284576, "tags": {"name": "Tarnaka", "name:te": "\u0c24\u0c3e\u0c30\u0c4d\u0c28\u0c3e\u0c15", "network": "Hyderabad Metro", "note": "Contributors are requested to not edit the \"network\" and the \"operator\" tags. (2023/11/08)", "operator": "Hyderabad Metro Rail Limited", "public_transport": "stop_position", "railway": "stop", "subway": "yes"}}, {"type": "node", "id": 5936896978, "lat": 17.3413588, "lon": 78.4826173, "tags": {"name": "Huppuguda", "public_transport": "stop_position", "ref": "2", "train": "yes"}}, {"type": "node", "id": 5936912539, "lat": 17.3661398, "lon": 78.490508, "tags": {"name": "Dabirpura", "public_transport": "stop_position", "ref": "2", "train": "yes"}}, {"type": "node", "id": 5936912549, "lat": 17.3660384, "lon": 78.4906813}, {"type": "node", "id": 5936912550, "lat": 17.366846, "lon": 78.4902965}, {"type": "node", "id": 5936912551, "lat": 17.3668371, "lon": 78.4902455}, {"type": "node", "id": 5936912552, "lat": 17.3666016, "lon": 78.4902348}, {"type": "node", "id": 5936912553, "lat": 17.3660166, "lon": 78.4904534}, {"type": "node", "id": 5936912554, "lat": 17.366064, "lon": 78.4904815}, {"type": "node", "id": 5936912555, "lat": 17.3658297, "lon": 78.490617}, {"type": "node", "id": 5936912556, "lat": 17.3663891, "lon": 78.4904212}, {"type": "node", "id": 5936912557, "lat": 17.3661241, "lon": 78.4905526}, {"type": "node", "id": 5936912558, "lat": 17.3658553, "lon": 78.4907041}, {"type": "node", "id": 5961188254, "lat": 17.4111614, "lon": 78.4609532, "tags": {"addr:city": "Hyderabad", "addr:city:ar": "\u062d\u064a\u062f\u0631 \u0622\u0628\u0627\u062f", "addr:city:ur": "\u062d\u06cc\u062f\u0631\u0622\u0628\u0627\u062f", "name": "Khairatabad", "name:ml": "\u0d16\u0d48\u0d30\u0d24\u0d3e\u0d2c\u0d3e\u0d26\u0d4d", "name:te": "\u0c16\u0c48\u0c30\u0c24\u0c3e\u0c2c\u0c3e\u0c26\u0c4d", "network": "Hyderabad Metro", "note": "Contributors are requested to not edit the \"network\" and the \"operator\" tags. (2023/11/08)", "operator": "Hyderabad Metro Rail Limited", "public_transport": "stop_position", "public_transport:version": "2", "railway": "stop", "subway": "yes"}}, {"type": "node", "id": 5968369025, "lat": 17.4036398, "lon": 78.4653197, "tags": {"addr:city": "Hyderabad", "addr:city:ar": "\u062d\u064a\u062f\u0631 \u0622\u0628\u0627\u062f", "addr:city:ur": "\u062d\u06cc\u062f\u0631\u0622\u0628\u0627\u062f", "name": "Lakdi-ka-pul", "name:ml": "\u0d32\u0d15\u0d4d\u0d21\u0d3f-\u0d15\u0d3e-\u0d2a\u0d41\u0d7d", "name:te": "\u0c32\u0c15\u0c4d\u0c21\u0c3f-\u0c15\u0c3e-\u0c2a\u0c41\u0c32\u0c4d", "network": "Hyderabad Metro", "note": "Contributors are requested to not edit the \"network\" and the \"operator\" tags. (2023/11/08)", "operator": "Hyderabad Metro Rail Limited", "public_transport": "stop_position", "public_transport:version": "2", "railway": "stop", "subway": "yes", "wheelchair": "yes"}}, {"type": "node", "id": 5993751673, "lat": 17.3772405, "lon": 78.4945786}, {"type": "node", "id": 5993751674, "lat": 17.3770345, "lon": 78.4945615}, {"type": "node", "id": 5993751676, "lat": 17.3771355, "lon": 78.4932274}, {"type": "node", "id": 5993751677, "lat": 17.3773415, "lon": 78.4932445}, {"type": "node", "id": 5993751682, "lat": 17.3706972, "lon": 78.5124795}, {"type": "node", "id": 5993751683, "lat": 17.3708739, "lon": 78.5125864}, {"type": "node", "id": 5993751684, "lat": 17.3714919, "lon": 78.5114646}, {"type": "node", "id": 5993752585, "lat": 17.3713151, "lon": 78.5113577}, {"type": "node", "id": 6154498147, "lat": 17.3950598, "lon": 78.4407567}, {"type": "node", "id": 6154498148, "lat": 17.3949754, "lon": 78.4405868}, {"type": "node", "id": 6154498149, "lat": 17.3948521, "lon": 78.4403621}, {"type": "node", "id": 6154498150, "lat": 17.3947541, "lon": 78.4401551}, {"type": "node", "id": 6154498151, "lat": 17.3946646, "lon": 78.439833}, {"type": "node", "id": 6154498152, "lat": 17.394516, "lon": 78.440309}, {"type": "node", "id": 6154498321, "lat": 17.3944426, "lon": 78.4406085}, {"type": "node", "id": 6162823090, "lat": 17.4139112, "lon": 78.4646316, "tags": {"amenity": "ferry_terminal", "ferry": "yes", "name": "Boating", "public_transport": "station"}}, {"type": "node", "id": 6308211122, "lat": 17.3954325, "lon": 78.5024824, "tags": {"highway": "bus_stop", "name": "Fever Hospital"}}, {"type": "node", "id": 6369797515, "lat": 17.3902922, "lon": 78.5164631}, {"type": "node", "id": 6369797516, "lat": 17.3902935, "lon": 78.5164993}, {"type": "node", "id": 6369797517, "lat": 17.3902328, "lon": 78.5164978}, {"type": "node", "id": 6369797518, "lat": 17.3902341, "lon": 78.5164645}, {"type": "node", "id": 6624724909, "lat": 17.4187345, "lon": 78.5200045, "tags": {"name": "Arts College", "public_transport": "stop_position", "railway": "stop", "ref": "1", "train": "yes"}}, {"type": "node", "id": 6624724948, "lat": 17.3758566, "lon": 78.4947456, "tags": {"name": "Malakpet", "public_transport": "stop_position", "ref": "2", "train": "yes"}}, {"type": "node", "id": 6652949087, "lat": 17.3880126, "lon": 78.471976, "tags": {"highway": "bus_stop"}}, {"type": "node", "id": 6685486358, "lat": 17.4295326, "lon": 78.5127952, "tags": {"bench": "yes", "bus": "yes", "highway": "bus_stop", "lit": "yes", "name": "Chilkalguda bus Stop", "network": "17,86J, 107JD", "operator": "TSRTC", "public_transport": "platform", "shelter": "yes", "surface": "paved"}}, {"type": "node", "id": 6685486367, "lat": 17.4252981, "lon": 78.5148611, "tags": {"bench": "yes", "bus": "yes", "highway": "bus_stop", "lit": "yes", "name": "Namalagundu Bus Stop", "network": "86J, 107J/D", "operator": "TSRTC", "public_transport": "platform", "shelter": "yes", "surface": "paved", "wheelchair": "no"}}, {"type": "node", "id": 6693360860, "lat": 17.4275784, "lon": 78.5174116, "tags": {"bench": "no", "bus": "yes", "highway": "bus_stop", "name": "Seethafalmandi Bus Stop", "network": "17,86J, 107JD", "operator": "TSRTC", "public_transport": "platform", "shelter": "no"}}, {"type": "node", "id": 6693360863, "lat": 17.422247, "lon": 78.5169263, "tags": {"bench": "yes", "highway": "bus_stop", "name": "Namalagundu Bus Stop", "network": "86J, 107J/D", "operator": "TSRTC", "shelter": "yes"}}, {"type": "node", "id": 6799990962, "lat": 17.3772557, "lon": 78.4932374}, {"type": "node", "id": 6799990963, "lat": 17.3771547, "lon": 78.4945714}, {"type": "node", "id": 6800005107, "lat": 17.3710873, "lon": 78.5119545, "tags": {"addr:city": "Hyderabad", "addr:city:ar": "\u062d\u064a\u062f\u0631 \u0622\u0628\u0627\u062f", "addr:city:ur": "\u062d\u06cc\u062f\u0631\u0622\u0628\u0627\u062f", "name": "Musarambagh", "name:ml": "\u0d2e\u0d42\u0d38\u0d3e\u0d30\u0d3e\u0d02\u0d2c\u0d3e\u0d17\u0d4d", "name:te": "\u0c2e\u0c42\u0c38\u0c3e\u0c30\u0c02\u0c2c\u0c3e\u0c17\u0c4d", "name:ur": "\u0645\u0648\u0633\u06cc\u0670 \u0631\u0627\u0645 \u0628\u0627\u063a", "network": "Hyderabad Metro", "note": "Contributors are requested to not edit the \"network\" and the \"operator\" tags. (2023/11/08)", "operator": "Hyderabad Metro Rail Limited", "public_transport": "stop_position", "public_transport:version": "2", "railway": "stop", "subway": "yes"}}, {"type": "node", "id": 6800005227, "lat": 17.3772213, "lon": 78.4932345}, {"type": "node", "id": 6800005228, "lat": 17.3771203, "lon": 78.4945686}, {"type": "node", "id": 6898477086, "lat": 17.3689527, "lon": 78.5250597, "tags": {"amenity": "bus_station", "bus": "yes", "name": "TSRTC BUS STAND , DILSHUKNAGAR", "operator": "TSRTC", "public_transport": "station", "source": "local knowledge", "wheelchair": "no"}}, {"type": "node", "id": 7052069755, "lat": 17.4282965, "lon": 78.5284415, "tags": {"name": "Tarnaka", "name:fa": "\u062a\u0627\u0631\u0646\u0627\u06a9\u0627", "name:ml": "\u0d24\u0d7c\u0d23\u0d3e\u0d15", "name:te": "\u0c24\u0c3e\u0c30\u0c4d\u0c28\u0c3e\u0c15", "name:ur": "\u062a\u0627\u0631\u0646\u0627\u06a9\u0627", "network": "Hyderabad Metro", "note": "Contributors are requested to not edit the \"network\" and the \"operator\" tags. (2023/11/08)", "operator": "Hyderabad Metro Rail Limited", "public_transport": "station", "railway": "station", "station": "subway", "subway": "yes", "wikidata": "Q56701857"}}, {"type": "node", "id": 7127405514, "lat": 17.3587022, "lon": 78.4913683}, {"type": "node", "id": 7195061311, "lat": 17.4255216, "lon": 78.5018818, "tags": {"name": "Gandhi Hospital", "name:te": "\u0c17\u0c3e\u0c02\u0c27\u0c40 \u0c39\u0c3e\u0c38\u0c4d\u0c2a\u0c3f\u0c1f\u0c32\u0c4d", "network": "Hyderabad Metro", "note": "Contributors are requested to not edit the \"network\" and the \"operator\" tags. (2023/11/08)", "operator": "Hyderabad Metro Rail Limited", "public_transport": "stop_position", "subway": "yes"}}, {"type": "node", "id": 7195061312, "lat": 17.4178876, "lon": 78.4994715, "tags": {"name": "Musheerabad", "name:te": "\u0c2e\u0c41\u0c37\u0c40\u0c30\u0c3e\u0c2c\u0c3e\u0c26\u0c4d", "network": "Hyderabad Metro", "note": "Contributors are requested to not edit the \"network\" and the \"operator\" tags. (2023/11/08)", "operator": "Hyderabad Metro Rail Limited", "public_transport": "stop_position", "subway": "yes"}}, {"type": "node", "id": 7195061317, "lat": 17.394371, "lon": 78.4899387, "tags": {"name": "Narayanaguda", "name:te": "\u0c28\u0c3e\u0c30\u0c3e\u0c2f\u0c23\u0c17\u0c42\u0c21", "network": "Hyderabad Metro", "note": "Contributors are requested to not edit the \"network\" and the \"operator\" tags. (2023/11/08)", "operator": "Hyderabad Metro Rail Limited", "public_transport": "stop_position", "subway": "yes"}}, {"type": "node", "id": 7206794919, "lat": 17.4070321, "lon": 78.4968023, "tags": {"name": "RTC Cross Roads", "name:fa": "\u0622\u0631. \u062a\u06cc. \u0633\u06cc. \u06a9\u0631\u0627\u0633 \u0631\u0648\u062f\u0632", "name:ml": "\u0d06\u0d7c \u0d1f\u0d3f \u0d38\u0d3f \u0d15\u0d4d\u0d30\u0d4b\u0d38\u0d4d \u0d31\u0d4b\u0d21\u0d4d\u0d38\u0d4d", "name:te": "\u0c06\u0c30\u0c4d \u0c1f\u0c40 \u0c38\u0c3f \u0c15\u0c4d\u0c30\u0c3e\u0c38\u0c4d \u0c30\u0c4b\u0c21\u0c4d\u0c38\u0c4d", "network": "Hyderabad Metro", "note": "Contributors are requested to not edit the \"network\" and the \"operator\" tags. (2023/11/08)", "operator": "Hyderabad Metro Rail Limited", "public_transport": "station", "railway": "station", "station": "subway", "subway": "yes", "wikidata": "Q108874753"}}, {"type": "node", "id": 7206794923, "lat": 17.3773029, "lon": 78.4937551}, {"type": "node", "id": 7206794926, "lat": 17.3771211, "lon": 78.4934173}, {"type": "node", "id": 7206794927, "lat": 17.3772729, "lon": 78.4932388}, {"type": "node", "id": 7206794928, "lat": 17.3772042, "lon": 78.4932331}, {"type": "node", "id": 7206794929, "lat": 17.3772385, "lon": 78.493236}, {"type": "node", "id": 7206794930, "lat": 17.377187, "lon": 78.4932317}, {"type": "node", "id": 7206794931, "lat": 17.3771032, "lon": 78.4945672}, {"type": "node", "id": 7206794932, "lat": 17.3771718, "lon": 78.4945729}, {"type": "node", "id": 7206794933, "lat": 17.3771708, "lon": 78.4939016, "tags": {"addr:city": "Hyderabad", "addr:city:ar": "\u062d\u064a\u062f\u0631 \u0622\u0628\u0627\u062f", "addr:city:ur": "\u062d\u06cc\u062f\u0631\u0622\u0628\u0627\u062f", "addr:place": "Malakpet", "addr:place:ar": "\u0645\u0627\u0644\u0643 \u0628\u064a\u062a", "addr:place:ur": "\u0645\u0627\u0644\u06a9 \u067e\u06cc\u0679", "alt_name:ur": "\u0645\u0644\u06a9 \u067e\u06cc\u0679", "name": "Malakpet", "name:ar": "\u0645\u0627\u0644\u0643 \u0628\u064a\u062a", "name:te": "\u0c2e\u0c32\u0c15\u0c4d\u200c\u0c2a\u0c47\u0c1f\u0c4d", "name:ur": "\u0645\u0627\u0644\u06a9 \u067e\u06cc\u0679", "network": "Hyderabad Metro", "note": "Contributors are requested to not edit the \"network\" and the \"operator\" tags. (2023/11/08)", "operator": "Hyderabad Metro Rail Limited", "public_transport": "stop_position", "public_transport:version": "2", "railway": "stop", "subway": "yes"}}, {"type": "node", "id": 7206794945, "lat": 17.3797847, "lon": 78.4861805, "tags": {"addr:city": "Hyderabad", "addr:city:ar": "\u062d\u064a\u062f\u0631 \u0622\u0628\u0627\u062f", "addr:city:ur": "\u062d\u06cc\u062f\u0631\u0622\u0628\u0627\u062f", "alt_name": "M. G. Bus Station (Red Line)", "name": "Mahatma Gandhi Bus Station (Red Line)", "name:te": "\u0c0e\u0c02.\u0c1c\u0c3f. \u0c2c\u0c38\u0c4d. \u0c38\u0c4d\u0c1f\u0c47\u0c37\u0c28\u0c4d", "name:ur": "\u0645\u06c1\u0627\u062a\u0645\u0627 \u06af\u0627\u0646\u062f\u06be\u06cc \u0628\u0633 \u0627\u0633\u0679\u06cc\u0634\u0646 (\u0631\u06cc\u0688 \u0644\u0627\u0626\u0646)", "network": "Hyderabad Metro", "note": "Contributors are requested to not edit the \"network\" and the \"operator\" tags. (2023/11/08)", "operator": "Hyderabad Metro Rail Limited", "public_transport": "stop_position", "public_transport:version": "2", "railway": "stop", "subway": "yes"}}, {"type": "node", "id": 7206794947, "lat": 17.37987, "lon": 78.4855927}, {"type": "node", "id": 7206794961, "lat": 17.3801975, "lon": 78.4854244}, {"type": "node", "id": 7206794973, "lat": 17.3790482, "lon": 78.4860671}, {"type": "node", "id": 7206794974, "lat": 17.3792441, "lon": 78.4860864}, {"type": "node", "id": 7206794977, "lat": 17.3802464, "lon": 78.48555}, {"type": "node", "id": 7206794978, "lat": 17.3802172, "lon": 78.4854666}, {"type": "node", "id": 7206794979, "lat": 17.3803206, "lon": 78.4856816}, {"type": "node", "id": 7206794981, "lat": 17.3790285, "lon": 78.4860251}, {"type": "node", "id": 7208768626, "lat": 17.3798572, "lon": 78.4862022, "tags": {"alt_name": "M. G. Bus Station (Red Line)", "name": "Mahatma Gandhi Bus Station (Red Line)", "name:fa": "\u0627\u06cc\u0633\u062a\u06af\u0627\u0647 \u0627\u062a\u0648\u0628\u0648\u0633 \u0645\u0647\u0627\u062a\u0645\u0627 \u06af\u0627\u0646\u062f\u06cc (\u062e\u0637 \u0642\u0631\u0645\u0632)", "name:ml": "\u0d2e\u0d39\u0d3e\u0d24\u0d4d\u0d2e\u0d3e\u0d17\u0d3e\u0d28\u0d4d\u0d27\u0d3f \u0d2c\u0d38\u0d4d \u0d38\u0d4d\u0d31\u0d4d\u0d31\u0d47\u0d37\u0d7b", "name:te": "\u0c0e\u0c02.\u0c1c\u0c3f. \u0c2c\u0c38\u0c4d. \u0c38\u0c4d\u0c1f\u0c47\u0c37\u0c28\u0c4d", "name:ur": "\u0645\u06c1\u0627\u062a\u0645\u0627 \u06af\u0627\u0646\u062f\u06be\u06cc \u0628\u0633 \u0627\u0633\u0679\u06cc\u0634\u0646 (\u0631\u06cc\u0688 \u0644\u0627\u0626\u0646)", "network": "Hyderabad Metro", "note": "Contributors are requested to not edit the \"network\" and the \"operator\" tags. (2023/11/08)", "operator": "Hyderabad Metro Rail Limited", "public_transport": "station", "railway": "station", "station": "subway", "subway": "yes"}}, {"type": "node", "id": 7208768627, "lat": 17.3796948, "lon": 78.4858635, "tags": {"alt_name": "M. G. Bus Station (Green Line)", "name": "Mahatma Gandhi Bus Station (Green Line)", "name:fa": "\u0627\u06cc\u0633\u062a\u06af\u0627\u0647 \u0627\u062a\u0648\u0628\u0648\u0633 \u0645\u0647\u0627\u062a\u0645\u0627 \u06af\u0627\u0646\u062f\u06cc (\u062e\u0637 \u0633\u0628\u0632)", "name:ml": "\u0d2e\u0d39\u0d3e\u0d24\u0d4d\u0d2e\u0d3e\u0d17\u0d3e\u0d28\u0d4d\u0d27\u0d3f \u0d2c\u0d38\u0d4d \u0d38\u0d4d\u0d31\u0d4d\u0d31\u0d47\u0d37\u0d7b", "name:te": "\u0c0e\u0c02.\u0c1c\u0c3f. \u0c2c\u0c38\u0c4d. \u0c38\u0c4d\u0c1f\u0c47\u0c37\u0c28\u0c4d", "name:ur": "\u0645\u06c1\u0627\u062a\u0645\u0627 \u06af\u0627\u0646\u062f\u06be\u06cc \u0628\u0633 \u0627\u0633\u0679\u06cc\u0634\u0646 (\u06af\u0631\u06cc\u0646 \u0644\u0627\u0626\u0646", "network": "Hyderabad Metro", "note": "Contributors are requested to not edit the \"network\" and the \"operator\" tags. (2023/11/08)", "operator": "Hyderabad Metro Rail Limited", "public_transport": "station", "railway": "station", "station": "subway", "subway": "yes"}}, {"type": "node", "id": 7208768628, "lat": 17.3771888, "lon": 78.4939356, "tags": {"addr:city": "Hyderabad", "addr:city:ar": "\u062d\u064a\u062f\u0631 \u0622\u0628\u0627\u062f", "addr:city:ur": "\u062d\u06cc\u062f\u0631\u0622\u0628\u0627\u062f", "addr:place": "Malakpet", "addr:place:ar": "\u0645\u0627\u0644\u0643 \u0628\u064a\u062a", "addr:place:ur": "\u0645\u0627\u0644\u06a9 \u067e\u06cc\u0679", "alt_name:ur": "\u0645\u0644\u06a9 \u067e\u06cc\u0679", "name": "Malakpet", "name:ar": "\u0645\u0627\u0644\u0643 \u0628\u064a\u062a", "name:fa": "\u0645\u0644\u06a9 \u067e\u06cc\u062a", "name:ml": "\u0d2e\u0d32\u0d15\u0d4d\u0d2a\u0d47\u0d1f\u0d4d\u0d1f\u0d4d", "name:te": "\u0c2e\u0c32\u0c15\u0c4d\u200c\u0c2a\u0c47\u0c1f\u0c4d", "name:ur": "\u0645\u0627\u0644\u06a9 \u067e\u06cc\u0679", "network": "Hyderabad Metro", "note": "Contributors are requested to not edit the \"network\" and the \"operator\" tags. (2023/11/08)", "operator": "Hyderabad Metro Rail Limited", "public_transport": "station", "railway": "station", "station": "subway", "subway": "yes", "wheelchair": "yes"}}, {"type": "node", "id": 7244238197, "lat": 17.404087, "lon": 78.503738, "tags": {"bus": "yes", "highway": "bus_stop", "name": "VST Bus Stop", "public_transport": "platform"}}, {"type": "node", "id": 7244238208, "lat": 17.4090807, "lon": 78.5087684, "tags": {"bus": "yes", "highway": "bus_stop", "public_transport": "platform"}}, {"type": "node", "id": 7244243967, "lat": 17.4008542, "lon": 78.5080708, "tags": {"bus": "yes", "highway": "bus_stop", "name": "shanker mutt bus stop", "public_transport": "platform"}}, {"type": "node", "id": 7244267537, "lat": 17.409455, "lon": 78.5066988, "tags": {"bus": "yes", "highway": "bus_stop", "public_transport": "platform"}}, {"type": "node", "id": 7246815452, "lat": 17.3710728, "lon": 78.5119483, "tags": {"name": "Musarambagh", "name:fa": "\u0645\u0648\u0633\u06cc \u0631\u0627\u0645 \u0628\u0627\u063a", "name:te": "\u0c2e\u0c42\u0c38\u0c30\u0c02\u0c2c\u0c3e\u0c18\u0c4d", "name:ur": "\u0645\u0648\u0633\u06cc\u0670 \u0631\u0627\u0645 \u0628\u0627\u063a", "network": "Hyderabad Metro", "note": "Contributors are requested to not edit the \"network\" and the \"operator\" tags. (2023/11/08)", "operator": "Hyderabad Metro Rail Limited", "public_transport": "station", "railway": "station", "station": "subway", "subway": "yes", "wikidata": "Q81640785"}}, {"type": "node", "id": 7358663498, "lat": 17.3844258, "lon": 78.4840519, "tags": {"name": "Sultan Bazar", "name:te": "\u0c38\u0c41\u0c32\u0c4d\u0c24\u0c3e\u0c28\u0c4d \u0c2c\u0c1c\u0c3e\u0c30\u0c4d", "network": "Hyderabad Metro", "note": "Contributors are requested to not edit the \"network\" and the \"operator\" tags. (2023/11/08)", "operator": "Hyderabad Metro Rail Limited", "public_transport": "stop_position", "subway": "yes"}}, {"type": "node", "id": 7358663499, "lat": 17.3844473, "lon": 78.4840241, "tags": {"name": "Sultan Bazar", "name:fa": "\u0633\u0644\u0637\u0627\u0646 \u0628\u0627\u0632\u0627\u0631", "name:ml": "\u0d38\u0d41\u0d7d\u0d24\u0d4d\u0d24\u0d3e\u0d7b \u0d2c\u0d38\u0d3e\u0d7c", "name:te": "\u0c38\u0c41\u0c32\u0c4d\u0c24\u0c3e\u0c28\u0c4d \u0c2c\u0c1c\u0c3e\u0c30\u0c4d", "network": "Hyderabad Metro", "note": "Contributors are requested to not edit the \"network\" and the \"operator\" tags. (2023/11/08)", "operator": "Hyderabad Metro Rail Limited", "railway": "station", "station": "subway", "subway": "yes"}}, {"type": "node", "id": 7358663500, "lat": 17.3943607, "lon": 78.489976, "tags": {"name": "Narayanaguda", "name:te": "\u0c28\u0c3e\u0c30\u0c3e\u0c2f\u0c23\u0c17\u0c42\u0c21", "network": "Hyderabad Metro", "note": "Contributors are requested to not edit the \"network\" and the \"operator\" tags. (2023/11/08)", "operator": "Hyderabad Metro Rail Limited", "public_transport": "stop_position", "subway": "yes"}}, {"type": "node", "id": 7358663501, "lat": 17.3943658, "lon": 78.4899578, "tags": {"name": "Narayanaguda", "name:fa": "\u0646\u0627\u0631\u0627\u06cc\u0627\u0646\u0627\u06af\u0648\u062f\u0627", "name:ml": "\u0d28\u0d3e\u0d30\u0d3e\u0d2f\u0d23\u0d17\u0d41\u0d21", "name:te": "\u0c28\u0c3e\u0c30\u0c3e\u0c2f\u0c23\u0c17\u0c42\u0c21", "network": "Hyderabad Metro", "note": "Contributors are requested to not edit the \"network\" and the \"operator\" tags. (2023/11/08)", "operator": "Hyderabad Metro Rail Limited", "railway": "station", "station": "subway", "subway": "yes", "wikidata": "Q108874763"}}, {"type": "node", "id": 7358663502, "lat": 17.4003634, "lon": 78.4948964, "tags": {"name": "Chikkadpally", "name:fa": "\u0686\u06cc\u06a9\u0627\u062f\u067e\u0627\u0644\u06cc", "name:ml": "\u0d1a\u0d3f\u0d15\u0d4d\u0d15\u0d1f\u0d2a\u0d4d\u0d2a\u0d33\u0d4d\u0d33\u0d3f", "name:te": "\u0c1a\u0c3f\u0c15\u0c4d\u0c15\u0c21\u0c2a\u0c32\u0c4d\u0c32\u0c3f", "network": "Hyderabad Metro", "note": "Contributors are requested to not edit the \"network\" and the \"operator\" tags. (2023/11/08)", "operator": "Hyderabad Metro Rail Limited", "railway": "station", "station": "subway", "subway": "yes", "wikidata": "Q108874757"}}, {"type": "node", "id": 7358663503, "lat": 17.4178744, "lon": 78.4995051, "tags": {"name": "Musheerabad", "name:fa": "\u0645\u0634\u06cc\u0631\u0622\u0628\u0627\u062f", "name:ml": "\u0d2e\u0d41\u0d37\u0d40\u0d31\u0d3e\u0d2c\u0d3e\u0d26\u0d4d", "name:te": "\u0c2e\u0c41\u0c37\u0c40\u0c30\u0c3e\u0c2c\u0c3e\u0c26\u0c4d", "network": "Hyderabad Metro", "note": "Contributors are requested to not edit the \"network\" and the \"operator\" tags. (2023/11/08)", "operator": "Hyderabad Metro Rail Limited", "railway": "station", "station": "subway", "subway": "yes", "wikidata": "Q84890478"}}, {"type": "node", "id": 7358663504, "lat": 17.4178644, "lon": 78.4995327, "tags": {"name": "Musheerabad", "name:te": "\u0c2e\u0c41\u0c37\u0c40\u0c30\u0c3e\u0c2c\u0c3e\u0c26\u0c4d", "network": "Hyderabad Metro", "note": "Contributors are requested to not edit the \"network\" and the \"operator\" tags. (2023/11/08)", "operator": "Hyderabad Metro Rail Limited", "public_transport": "stop_position", "subway": "yes"}}, {"type": "node", "id": 7358663505, "lat": 17.4255191, "lon": 78.5019187, "tags": {"name": "Gandhi Hospital", "name:te": "\u0c17\u0c3e\u0c02\u0c27\u0c40 \u0c39\u0c3e\u0c38\u0c4d\u0c2a\u0c3f\u0c1f\u0c32\u0c4d", "network": "Hyderabad Metro", "note": "Contributors are requested to not edit the \"network\" and the \"operator\" tags. (2023/11/08)", "operator": "Hyderabad Metro Rail Limited", "public_transport": "stop_position", "subway": "yes"}}, {"type": "node", "id": 7358663506, "lat": 17.4255155, "lon": 78.501956, "tags": {"name": "Gandhi Hospital", "name:fa": "\u0628\u06cc\u0645\u0627\u0631\u0633\u062a\u0627\u0646 \u06af\u0627\u0646\u062f\u06cc", "name:ml": "\u0d17\u0d3e\u0d28\u0d4d\u0d27\u0d3f \u0d39\u0d4b\u0d38\u0d4d\u0d2a\u0d3f\u0d31\u0d4d\u0d31\u0d7d", "name:te": "\u0c17\u0c3e\u0c02\u0c27\u0c40 \u0c39\u0c3e\u0c38\u0c4d\u0c2a\u0c3f\u0c1f\u0c32\u0c4d", "network": "Hyderabad Metro", "note": "Contributors are requested to not edit the \"network\" and the \"operator\" tags. (2023/11/08)", "operator": "Hyderabad Metro Rail Limited", "railway": "station", "station": "subway", "subway": "yes", "wikidata": "Q84766563"}}, {"type": "node", "id": 7632550173, "lat": 17.3795945, "lon": 78.4858221, "tags": {"alt_name": "M. G. Bus Station (Green Line)", "name": "Mahatma Gandhi Bus Station (Green Line)", "name:te": "\u0c0e\u0c02.\u0c1c\u0c3f. \u0c2c\u0c38\u0c4d. \u0c38\u0c4d\u0c1f\u0c47\u0c37\u0c28\u0c4d", "name:ur": "\u0645\u06c1\u0627\u062a\u0645\u0627 \u06af\u0627\u0646\u062f\u06be\u06cc \u0628\u0633 \u0627\u0633\u0679\u06cc\u0634\u0646 (\u06af\u0631\u06cc\u0646 \u0644\u0627\u0626\u0646", "network": "Hyderabad Metro", "note": "Contributors are requested to not edit the \"network\" and the \"operator\" tags. (2023/11/08)", "operator": "Hyderabad Metro Rail Limited", "public_transport": "stop_position", "railway": "stop", "subway": "yes"}}, {"type": "node", "id": 7632550174, "lat": 17.3796106, "lon": 78.4858581, "tags": {"alt_name": "M. G. Bus Station (Green Line)", "name": "Mahatma Gandhi Bus Station (Green Line)", "name:te": "\u0c0e\u0c02.\u0c1c\u0c3f. \u0c2c\u0c38\u0c4d. \u0c38\u0c4d\u0c1f\u0c47\u0c37\u0c28\u0c4d", "name:ur": "\u0645\u06c1\u0627\u062a\u0645\u0627 \u06af\u0627\u0646\u062f\u06be\u06cc \u0628\u0633 \u0627\u0633\u0679\u06cc\u0634\u0646 (\u06af\u0631\u06cc\u0646 \u0644\u0627\u0626\u0646", "network": "Hyderabad Metro", "note": "Contributors are requested to not edit the \"network\" and the \"operator\" tags. (2023/11/08)", "operator": "Hyderabad Metro Rail Limited", "public_transport": "stop_position", "railway": "stop", "subway": "yes"}}, {"type": "node", "id": 7633696913, "lat": 17.3917877, "lon": 78.5022544}, {"type": "node", "id": 7635652752, "lat": 17.3932537, "lon": 78.4673086, "tags": {"name": "Hyderabad Deccan Nampally", "name:ur": "\u062d\u06cc\u062f\u0631\u0622\u0628\u0627\u062f \u062f\u06a9\u0646", "public_transport": "stop_position", "railway": "stop", "ref": "6", "train": "yes"}}, {"type": "node", "id": 7635652753, "lat": 17.393247, "lon": 78.467451, "tags": {"name": "Hyderabad Deccan Nampally", "name:ur": "\u062d\u06cc\u062f\u0631\u0622\u0628\u0627\u062f \u062f\u06a9\u0646", "public_transport": "stop_position", "railway": "stop", "ref": "5", "train": "yes"}}, {"type": "node", "id": 7635652754, "lat": 17.3932459, "lon": 78.4674948, "tags": {"name": "Hyderabad Deccan Nampally", "name:ur": "\u062d\u06cc\u062f\u0631\u0622\u0628\u0627\u062f \u062f\u06a9\u0646", "public_transport": "stop_position", "railway": "stop", "ref": "4", "train": "yes"}}, {"type": "node", "id": 7635652755, "lat": 17.3932426, "lon": 78.4675952, "tags": {"name": "Hyderabad Deccan Nampally", "name:ur": "\u062d\u06cc\u062f\u0631\u0622\u0628\u0627\u062f \u062f\u06a9\u0646", "public_transport": "stop_position", "railway": "stop", "ref": "3", "train": "yes"}}, {"type": "node", "id": 7635652756, "lat": 17.3932435, "lon": 78.4676319, "tags": {"name": "Hyderabad Deccan Nampally", "name:ur": "\u062d\u06cc\u062f\u0631\u0622\u0628\u0627\u062f \u062f\u06a9\u0646", "public_transport": "stop_position", "railway": "stop", "ref": "2", "train": "yes"}}, {"type": "node", "id": 7635652757, "lat": 17.3932391, "lon": 78.46779, "tags": {"name": "Hyderabad Deccan Nampally", "name:ur": "\u062d\u06cc\u062f\u0631\u0622\u0628\u0627\u062f \u062f\u06a9\u0646", "public_transport": "stop_position", "railway": "stop", "ref": "1", "train": "yes"}}, {"type": "node", "id": 7636066528, "lat": 17.4233673, "lon": 78.4630519}, {"type": "node", "id": 7636066529, "lat": 17.423749, "lon": 78.4629792}, {"type": "node", "id": 7636066530, "lat": 17.424175, "lon": 78.4628663}, {"type": "node", "id": 7636066531, "lat": 17.4231073, "lon": 78.463074}, {"type": "node", "id": 7636066532, "lat": 17.4257024, "lon": 78.4623378}, {"type": "node", "id": 7636066533, "lat": 17.4230446, "lon": 78.4629265}, {"type": "node", "id": 7636066534, "lat": 17.4233543, "lon": 78.4628977}, {"type": "node", "id": 7636066535, "lat": 17.4237203, "lon": 78.4628266}, {"type": "node", "id": 7636066536, "lat": 17.4241284, "lon": 78.4627207}, {"type": "node", "id": 7636066537, "lat": 17.4256575, "lon": 78.4621815}, {"type": "node", "id": 7636066538, "lat": 17.4057763, "lon": 78.4621464}, {"type": "node", "id": 7636066539, "lat": 17.4057927, "lon": 78.4621953}, {"type": "node", "id": 7636066540, "lat": 17.4055947, "lon": 78.4622134}, {"type": "node", "id": 7636066541, "lat": 17.4051603, "lon": 78.462411}, {"type": "node", "id": 7636066542, "lat": 17.4047216, "lon": 78.4626409}, {"type": "node", "id": 7636066543, "lat": 17.4042774, "lon": 78.4629096}, {"type": "node", "id": 7636066544, "lat": 17.4039938, "lon": 78.4630974}, {"type": "node", "id": 7636066545, "lat": 17.4056128, "lon": 78.4622616}, {"type": "node", "id": 7636066546, "lat": 17.4051812, "lon": 78.4624579}, {"type": "node", "id": 7636066547, "lat": 17.404745, "lon": 78.4626865}, {"type": "node", "id": 7636066548, "lat": 17.404303, "lon": 78.4629539}, {"type": "node", "id": 7636066549, "lat": 17.4040202, "lon": 78.4631411}, {"type": "node", "id": 7636066550, "lat": 17.4060244, "lon": 78.4622396}, {"type": "node", "id": 7636066551, "lat": 17.4056555, "lon": 78.4623756}, {"type": "node", "id": 7636066552, "lat": 17.4052306, "lon": 78.4625689}, {"type": "node", "id": 7636066553, "lat": 17.4048004, "lon": 78.4627943}, {"type": "node", "id": 7636066554, "lat": 17.4043634, "lon": 78.4630587}, {"type": "node", "id": 7636066555, "lat": 17.406084, "lon": 78.4622197}, {"type": "node", "id": 7636066556, "lat": 17.4040826, "lon": 78.4632446}, {"type": "node", "id": 7636066557, "lat": 17.4040586, "lon": 78.4632048}, {"type": "node", "id": 7636066558, "lat": 17.4043401, "lon": 78.4630184}, {"type": "node", "id": 7636066559, "lat": 17.4060703, "lon": 78.4621748}, {"type": "node", "id": 7636066560, "lat": 17.4060102, "lon": 78.4621949}, {"type": "node", "id": 7636066561, "lat": 17.405639, "lon": 78.4623317}, {"type": "node", "id": 7636066562, "lat": 17.4052116, "lon": 78.4625262}, {"type": "node", "id": 7636066563, "lat": 17.4047791, "lon": 78.4627528}, {"type": "node", "id": 7636066564, "lat": 17.4151641, "lon": 78.460892}, {"type": "node", "id": 7636066565, "lat": 17.4147509, "lon": 78.460875}, {"type": "node", "id": 7636066566, "lat": 17.4143499, "lon": 78.4608947}, {"type": "node", "id": 7636066567, "lat": 17.4138728, "lon": 78.4609418}, {"type": "node", "id": 7636066568, "lat": 17.4152845, "lon": 78.4609053}, {"type": "node", "id": 7636066569, "lat": 17.4126236, "lon": 78.4610907}, {"type": "node", "id": 7636066570, "lat": 17.4152784, "lon": 78.4609662}, {"type": "node", "id": 7636066571, "lat": 17.4138788, "lon": 78.4610027}, {"type": "node", "id": 7636066572, "lat": 17.413883, "lon": 78.4612128}, {"type": "node", "id": 7636066573, "lat": 17.4143654, "lon": 78.4611987}, {"type": "node", "id": 7636066574, "lat": 17.4147415, "lon": 78.4612027}, {"type": "node", "id": 7636066575, "lat": 17.4150657, "lon": 78.4612115}, {"type": "node", "id": 7636066576, "lat": 17.412642, "lon": 78.4613292}, {"type": "node", "id": 7636066577, "lat": 17.4154186, "lon": 78.4612465}, {"type": "node", "id": 7726358259, "lat": 17.3588326, "lon": 78.5248567, "tags": {"highway": "bus_stop"}}, {"type": "node", "id": 7726358276, "lat": 17.3565363, "lon": 78.5300615, "tags": {"highway": "bus_stop"}}, {"type": "node", "id": 8018502784, "lat": 17.3792887, "lon": 78.4861786}, {"type": "node", "id": 8018503085, "lat": 17.3794557, "lon": 78.4864248}, {"type": "node", "id": 8044154035, "lat": 17.3728388, "lon": 78.4993697, "tags": {"bus": "yes", "highway": "bus_stop", "public_transport": "platform", "shelter": "no"}}, {"type": "node", "id": 8044216497, "lat": 17.3721098, "lon": 78.4994461, "tags": {"bus": "yes", "highway": "bus_stop", "public_transport": "platform", "shelter": "yes"}}, {"type": "node", "id": 8049989213, "lat": 17.3638368, "lon": 78.5019439, "tags": {"highway": "bus_stop", "shelter": "yes"}}, {"type": "node", "id": 8049989214, "lat": 17.3640455, "lon": 78.5020874, "tags": {"highway": "bus_stop", "shelter": "yes"}}, {"type": "node", "id": 8058995199, "lat": 17.351786, "lon": 78.507077, "tags": {"highway": "bus_stop"}}, {"type": "node", "id": 8058995200, "lat": 17.3517885, "lon": 78.5074619, "tags": {"highway": "bus_stop"}}, {"type": "node", "id": 8058995201, "lat": 17.351969, "lon": 78.5075625, "tags": {"highway": "bus_stop"}}, {"type": "node", "id": 8077176299, "lat": 17.3595443, "lon": 78.5047676, "tags": {"highway": "bus_stop"}}, {"type": "node", "id": 8077176300, "lat": 17.3595251, "lon": 78.5046516, "tags": {"highway": "bus_stop"}}, {"type": "node", "id": 8113834434, "lat": 17.3922547, "lon": 78.5167397, "tags": {"bus": "yes", "highway": "bus_stop", "name": "Amberpet bus stop", "public_transport": "platform"}}, {"type": "node", "id": 8386245800, "lat": 17.3865699, "lon": 78.516708, "tags": {"bus": "yes", "highway": "bus_stop", "name": "Cpl Amberpet Bus stop", "public_transport": "platform", "shelter": "yes"}}, {"type": "node", "id": 8387157856, "lat": 17.4099864, "lon": 78.5079415, "tags": {"bus": "yes", "highway": "bus_stop", "public_transport": "platform"}}, {"type": "node", "id": 8387157863, "lat": 17.4079329, "lon": 78.5135334, "tags": {"bus": "yes", "highway": "bus_stop", "name": "nallakunta busstop", "public_transport": "platform"}}, {"type": "node", "id": 8405082471, "lat": 17.3946964, "lon": 78.4405242, "tags": {"bus": "yes", "highway": "bus_stop", "name": "Mehdipatnam Bus Station", "operator": "TSRTC", "public_transport": "platform"}}, {"type": "node", "id": 8405082481, "lat": 17.3948051, "lon": 78.4404249, "tags": {"bus": "yes", "highway": "bus_stop", "name": "Mehdipatnam Bus Station", "operator": "TSRTC", "public_transport": "platform"}}, {"type": "node", "id": 8405082482, "lat": 17.3947641, "lon": 78.4404769, "tags": {"bus": "yes", "highway": "bus_stop", "name": "Mehdipatnam Bus Station", "operator": "TSRTC", "public_transport": "platform"}}, {"type": "node", "id": 8476896850, "lat": 17.3632048, "lon": 78.5304225}, {"type": "node", "id": 10278298785, "lat": 17.3734093, "lon": 78.5031773, "tags": {"addr:city": "Hyderabad", "addr:city:ar": "\u062d\u064a\u062f\u0631 \u0622\u0628\u0627\u062f", "addr:city:ur": "\u062d\u06cc\u062f\u0631\u0622\u0628\u0627\u062f", "alt_name": "\u0645\u062d\u0628\u0648\u0628 \u06af\u0646\u062c", "name": "New Market", "name:ml": "\u0d28\u0d4d\u0d2f\u0d42\u0d2e\u0d3e\u0d7c\u0d15\u0d4d\u0d15\u0d31\u0d4d\u0d31\u0d4d", "name:te": "\u0c15\u0c4a\u0c24\u0c4d\u0c24 \u0c2e\u0c3e\u0c30\u0c4d\u0c15\u0c46\u0c1f\u0c4d", "name:ur": "\u0646\u0626\u06cc \u0645\u0627\u0631\u06a9\u06cc\u0679", "network": "Hyderabad Metro", "note": "Contributors are requested to not edit the \"network\" and the \"operator\" tags. (2023/11/08)", "operator": "Hyderabad Metro Rail Limited", "public_transport": "stop_position", "public_transport:version": "2", "railway": "stop", "subway": "yes"}}, {"type": "node", "id": 10279821749, "lat": 17.3734268, "lon": 78.5031775, "tags": {"alt_name": "\u0645\u062d\u0628\u0648\u0628 \u06af\u0646\u062c", "name": "New Market", "name:fa": "\u0628\u0627\u0632\u0627\u0631 \u062c\u062f\u06cc\u062f", "name:ml": "\u0d28\u0d4d\u0d2f\u0d42\u0d2e\u0d3e\u0d7c\u0d15\u0d4d\u0d15\u0d31\u0d4d\u0d31\u0d4d", "name:te": "\u0c15\u0c4a\u0c24\u0c4d\u0c24 \u0c2e\u0c3e\u0c30\u0c4d\u0c15\u0c46\u0c1f\u0c4d", "name:ur": "\u0646\u0626\u06cc \u0645\u0627\u0631\u06a9\u06cc\u0679", "network": "Hyderabad Metro", "note": "Contributors are requested to not edit the \"network\" and the \"operator\" tags. (2023/11/08)", "operator": "Hyderabad Metro Rail Limited", "public_transport": "station", "railway": "station", "station": "subway", "subway": "yes", "wikidata": "Q81483949"}}, {"type": "node", "id": 10279821750, "lat": 17.3710547, "lon": 78.5119383, "tags": {"addr:city": "Hyderabad", "addr:city:ar": "\u062d\u064a\u062f\u0631 \u0622\u0628\u0627\u062f", "addr:city:ur": "\u062d\u06cc\u062f\u0631\u0622\u0628\u0627\u062f", "name": "Musarambagh", "name:ml": "\u0d2e\u0d42\u0d38\u0d3e\u0d30\u0d3e\u0d02\u0d2c\u0d3e\u0d17\u0d4d", "name:te": "\u0c2e\u0c42\u0c38\u0c3e\u0c30\u0c02\u0c2c\u0c3e\u0c17\u0c4d", "name:ur": "\u0645\u0648\u0633\u06cc\u0670 \u0631\u0627\u0645 \u0628\u0627\u063a", "network": "Hyderabad Metro", "note": "Contributors are requested to not edit the \"network\" and the \"operator\" tags. (2023/11/08)", "operator": "Hyderabad Metro Rail Limited", "public_transport": "stop_position", "public_transport:version": "2", "railway": "stop", "subway": "yes"}}, {"type": "node", "id": 10817711164, "lat": 17.3710099, "lon": 78.5256043, "tags": {"amenity": "bus_station", "bus": "yes", "name": "TSRTC BUS DEPOT , DILSHUKNAGAR", "public_transport": "station"}}, {"type": "node", "id": 10992500524, "lat": 17.3697519, "lon": 78.5252265, "tags": {"amenity": "bus_station", "bus": "yes", "name": "TSRTC BUS DEPOT, DILSHUKNAGAR", "public_transport": "station"}}, {"type": "node", "id": 10992500529, "lat": 17.3922572, "lon": 78.4405896, "tags": {"amenity": "bus_station", "bus": "yes", "name": "TSRTC BUS DEPOT , MEHADIPATANM", "public_transport": "station"}}, {"type": "node", "id": 10992500530, "lat": 17.3921581, "lon": 78.4418493, "tags": {"amenity": "bus_station", "bus": "yes", "name": "Mehdipatnam  Bus Stop", "public_transport": "station"}}, {"type": "node", "id": 10992500541, "lat": 17.3921316, "lon": 78.5011455, "tags": {"amenity": "bus_station", "bus": "yes", "name": "TSRTC BUS DEPOT , BARKATPURA", "public_transport": "station"}}, {"type": "node", "id": 10992500542, "lat": 17.4063252, "lon": 78.5001204, "tags": {"amenity": "bus_station", "bus": "yes", "name": "TSRTC WORKSHOP , RTC X ROADS", "public_transport": "station"}}, {"type": "node", "id": 10992500543, "lat": 17.4081874, "lon": 78.5036561, "tags": {"amenity": "bus_station", "bus": "yes", "name": "TSRTC BUS DEPOT, MUSHEERABAD 2", "public_transport": "station"}}, {"type": "node", "id": 10992500544, "lat": 17.4077647, "lon": 78.5018495, "tags": {"amenity": "bus_station", "bus": "yes", "name": "TSRTC BUS DEPOT, HYDERABAD", "public_transport": "station"}}, {"type": "node", "id": 10992500569, "lat": 17.4043212, "lon": 78.5102865, "tags": {"amenity": "bus_station", "bus": "yes", "name": "VIDYANAGAR BUS STOP", "public_transport": "station"}}, {"type": "node", "id": 10992500570, "lat": 17.4043258, "lon": 78.5104757, "tags": {"amenity": "bus_station", "bus": "yes", "name": "VIDYANAGAR BUS STOP", "public_transport": "station"}}, {"type": "node", "id": 10992518090, "lat": 17.4257801, "lon": 78.5329322, "tags": {"amenity": "bus_station", "bus": "yes", "name": "Tarnaka Bus Stop", "public_transport": "station"}}, {"type": "node", "id": 11037640729, "lat": 17.3794048, "lon": 78.4863626}, {"type": "node", "id": 11037640730, "lat": 17.3803724, "lon": 78.4857653}, {"type": "node", "id": 11037640731, "lat": 17.3804162, "lon": 78.4858215}, {"type": "node", "id": 11037640732, "lat": 17.3795682, "lon": 78.4865608}, {"type": "node", "id": 11037640733, "lat": 17.3795213, "lon": 78.4865073}, {"type": "node", "id": 11082995794, "lat": 17.3684133, "lon": 78.5241497, "tags": {"bus": "yes", "highway": "bus_stop", "public_transport": "platform"}}, {"type": "node", "id": 11737669099, "lat": 17.3685518, "lon": 78.5257172, "tags": {"name": "Dilsukh Nagar", "name:fa": "\u062f\u0644\u0633\u0648\u062e \u0646\u06af\u0631", "name:ml": "\u0d26\u0d3f\u0d7d\u0d38\u0d41\u0d16\u0d4d\u0d28\u0d17\u0d7c", "name:te": "\u0c26\u0c3f\u0c32\u0c4d\u200c\u0c38\u0c41\u0c16\u0c4d\u200c\u0c28\u0c17\u0c30\u0c4d", "name:ur": "\u062f\u0650\u0644 \u0633\u064f\u06a9\u06be \u0646\u06af\u0631", "network": "Hyderabad Metro", "operator": "Hyderabad Metro Rail Limited", "public_transport": "station", "railway": "station", "station": "subway", "subway": "yes", "wheelchair": "yes", "wikidata": "Q81724990"}}, {"type": "node", "id": 11738179187, "lat": 17.3823471, "lon": 78.4811327, "tags": {"alt_name": "OMC", "internet_access": "no", "name": "Osmania Medical College", "name:fa": "\u06a9\u0627\u0644\u062c \u067e\u0632\u0634\u06a9\u06cc \u0639\u062b\u0645\u0627\u0646\u06cc\u0647", "name:ml": "\u0d09\u0d38\u0d4d\u0d2e\u0d3e\u0d28\u0d3f\u0d2f \u0d2e\u0d46\u0d21\u0d3f\u0d15\u0d4d\u0d15\u0d7d \u0d15\u0d4b\u0d33\u0d47\u0d1c\u0d4d", "name:te": "\u0c09\u0c38\u0c4d\u0c2e\u0c3e\u0c28\u0c3f\u0c2f\u0c3e \u0c35\u0c48\u0c26\u0c4d\u0c2f \u0c15\u0c33\u0c3e\u0c36\u0c3e\u0c32", "name:ur": "\u0639\u062b\u0645\u0627\u0646\u06cc\u06c1 \u0645\u06cc\u0688\u06cc\u06a9\u0644 \u06a9\u0627\u0644\u062c", "network": "Hyderabad Metro", "note": "Contributors are requested to not edit the \"network\" and the \"operator\" tags. (2023/11/08)", "operator": "Hyderabad Metro Rail Limited", "public_transport": "station", "railway": "station", "station": "subway", "subway": "yes", "website": "https://hmrl.co.in", "wheelchair": "yes", "wikidata": "Q83859784"}},