{"version": 0.6, "generator": "Overpass API 0.7.62.8 e802775f", "osm3s": {"timestamp_osm_base": "2026-01-13T07:22:59Z", "copyright": "The data included in this document is from www.openstreetmap.org. The data is made available under ODbL."}, "elements": [{"type": "node", "id": 457068089, "lat": 19.1486707, "lon": 72.9998192, "tags": {"addr:district": "Thane", "addr:full": "Panchsheel Vishal Complex, 1st Floor, Sector-5 Near Sai Nidhi Hotel Airoli Navi Mumbai", "addr:postcode": "400708", "addr:state": "Maharashtra", "amenity": "hospital", "name": "Jasmine Hospital And Wow Clinic", "source": "OpenGovernmentData"}}, {"type": "node", "id": 1644114470, "lat": 19.1036326, "lon": 73.0124359}, {"type": "node", "id": 2629911301, "lat": 19.0821345, "lon": 72.9960687}, {"type": "node", "id": 2629911303, "lat": 19.0827854, "lon": 72.9950919}, {"type": "node", "id": 2629911308, "lat": 19.0833514, "lon": 72.9969617}, {"type": "node", "id": 2629911326, "lat": 19.0839364, "lon": 72.9960826}, {"type": "node", "id": 2913810856, "lat": 19.1085023, "lon": 73.0017953, "tags": {"addr:district": "Thane", "addr:full": "Plot 12-13, Sector-20, Koparkhairane", "addr:postcode": "400709", "addr:state": "Maharashtra", "amenity": "hospital", "building": "hospital", "name": "Sai Snehdeep Hospital KK", "source": "OpenGovernmentData"}}, {"type": "node", "id": 2953156267, "lat": 19.1000303, "lon": 73.009298}, {"type": "node", "id": 2953156269, "lat": 19.1001344, "lon": 73.0096615}, {"type": "node", "id": 3596277926, "lat": 19.0871471, "lon": 73.0003864}, {"type": "node", "id": 3596277927, "lat": 19.0871823, "lon": 73.0002639}, {"type": "node", "id": 3596277928, "lat": 19.0872528, "lon": 73.0004203}, {"type": "node", "id": 3596277929, "lat": 19.087288, "lon": 73.0002979}, {"type": "node", "id": 3981483033, "lat": 19.1046246, "lon": 73.0120678}, {"type": "node", "id": 3981483042, "lat": 19.1059327, "lon": 73.0116448}, {"type": "node", "id": 4167472230, "lat": 19.100388, "lon": 73.0091833}, {"type": "node", "id": 4167472231, "lat": 19.1004921, "lon": 73.0095467}, {"type": "node", "id": 5624316682, "lat": 19.1051956, "lon": 73.0119088}, {"type": "node", "id": 6197071879, "lat": 19.1063162, "lon": 73.0125956}, {"type": "node", "id": 6197071880, "lat": 19.1050177, "lon": 73.0133396}, {"type": "node", "id": 6197071881, "lat": 19.1041424, "lon": 73.0137475}, {"type": "node", "id": 7042981400, "lat": 19.1554376, "lon": 72.9974642, "tags": {"addr:district": "Mumbai", "addr:full": "Row House B1, Sector-4, Infront of CIDCO Water Tank, Airoli", "addr:postcode": "400078", "addr:state": "Maharashtra", "amenity": "hospital", "contact:phone": "2227799529", "email": "narendrabidarkar2009@hotmail.com", "name": "Sai Seva Hospital and Icu, Mumbai", "operator:type": "private", "source": "OpenGovernmentData", "website": "http://www.saisevahospitalandicu.com/"}}, {"type": "node", "id": 7043399089, "lat": 19.081001, "lon": 72.9988839, "tags": {"addr:district": "Thane", "addr:full": "F2/D2 Sector 9 Vashi, Navi Mumbai", "addr:postcode": "400703", "addr:state": "Maharashtra", "amenity": "hospital", "name": "Dr. Kunnure Hospital and Iccu", "source": "OpenGovernmentData"}}, {"type": "node", "id": 7043757576, "lat": 19.1467481, "lon": 72.9974623, "tags": {"addr:district": "Thane", "addr:full": "Vikas Niketan, Plot 8/3A, Sector 6, Near Siemens Quarters, Airoli, Navi Mumbai", "addr:postcode": "400708", "addr:state": "Maharashtra", "amenity": "hospital", "name": "Parulekar Hospital", "source": "OpenGovernmentData"}}, {"type": "node", "id": 7043758338, "lat": 19.1511429, "lon": 72.9979656, "tags": {"addr:district": "Thane", "addr:full": "U-119, Sector 4, Airoli", "addr:postcode": "400708", "addr:state": "Maharashtra", "amenity": "hospital", "name": "Disha Hospital", "source": "OpenGovernmentData"}}, {"type": "node", "id": 7044863001, "lat": 19.1428364, "lon": 73.0015627, "tags": {"addr:district": "Thane", "addr:full": "Rabale Naka, Thane - Belapur Road, Navi Mumbai", "addr:postcode": "400708", "addr:state": "Maharashtra", "amenity": "hospital", "name": "Dr Manes Gawali Hospital", "source": "OpenGovernmentData"}}, {"type": "node", "id": 7045980559, "lat": 19.1597689, "lon": 72.9925981, "tags": {"addr:district": "Thane", "addr:full": "Plot No. 29, Sector-19, Opposite Nhp School, Airoli, Navi Mumbai", "addr:postcode": "400708", "addr:state": "Maharashtra", "amenity": "hospital", "healthcare": "hospital", "name": "Avadhoot Hospital and Iccu", "source": "OpenGovernmentData"}}, {"type": "node", "id": 7047301433, "lat": 19.0823723, "lon": 72.9998548, "tags": {"addr:district": "Thane", "addr:full": "F-7/A-1,Sector-10,(Above Hotel Trimurti),Near Vijaya Bank,Vashi,Navi Mumbai", "addr:postcode": "400703", "addr:state": "Maharashtra", "amenity": "hospital", "name": "Uma Hospital", "source": "OpenGovernmentData"}}, {"type": "node", "id": 7047919321, "lat": 19.1566538, "lon": 72.9977667, "tags": {"addr:district": "Thane", "addr:full": "Sector-3, Near Airoli Bus Depot, Airoli, Nav", "addr:postcode": "400708", "addr:state": "Maharashtra", "amenity": "hospital", "healthcare": "hospital", "name": "Indravati Hospital", "source": "OpenGovernmentData"}}, {"type": "node", "id": 7048131891, "lat": 19.1006081, "lon": 72.9986988, "tags": {"addr:district": "Thane", "addr:full": "1st Floor, Natasha Towers, Plot No.84, Sector No.17,OppositeMmmc Hospital,Khairane,Navi Mumbai", "addr:postcode": "400709", "addr:state": "Maharashtra", "amenity": "hospital", "name": "Vedaant Multispeciality Hospital", "source": "OpenGovernmentData"}}, {"type": "node", "id": 7048439600, "lat": 19.1525023, "lon": 72.9985231, "tags": {"addr:district": "Thane", "addr:full": "Aayush Villa, K-6 & 7, Row House, Sector-4, Airoli, Navi Mumbai", "addr:postcode": "400708", "addr:state": "Maharashtra", "amenity": "hospital", "name": "Aayush Multispeciality Hospital", "source": "OpenGovernmentData"}}, {"type": "node", "id": 7049161132, "lat": 19.1511493, "lon": 72.9979008, "tags": {"addr:district": "Mumbai", "addr:full": "U-123, Near Durga Mata Mandir, Sector 4, Airoli", "addr:postcode": "400708", "addr:state": "Maharashtra", "amenity": "hospital", "email": "dr.rajeshkapoor@gmail.com", "name": "Suruchi Eye Centre", "operator:type": "private", "source": "OpenGovernmentData", "website": "https://suruchieyecentre.com/"}}, {"type": "node", "id": 7049253111, "lat": 19.0805599, "lon": 73.0030265, "tags": {"addr:district": "Thane", "addr:full": "Plot No:57, Sector 15-A,Vashi", "addr:postcode": "400705", "addr:state": "Maharashtra", "amenity": "hospital", "name": "Pkc Hospital", "source": "OpenGovernmentData"}}, {"type": "node", "id": 7049775833, "lat": 19.1511011, "lon": 72.9995356, "tags": {"addr:district": "Mumbai", "addr:full": "101,103 Ruby Commercial Compelx Sector 4, Airoli,Navi Mumbai", "addr:postcode": "400022", "addr:state": "Maharashtra", "amenity": "hospital", "name": "Gandhi Hospital - Navi Mumbai", "source": "OpenGovernmentData"}}, {"type": "node", "id": 7050247346, "lat": 19.0994752, "lon": 73.005757, "tags": {"addr:district": "Thane", "addr:full": "Giriraj Dham Plot. No11, Sector -10,1st Floor, Nxt 2 Pancharatna Hotel,Koparkhairane,Navi Mumbai", "addr:postcode": "400709", "addr:state": "Maharashtra", "amenity": "hospital", "name": "Vidhi Eye and Skin Care Centre", "source": "OpenGovernmentData"}}, {"type": "node", "id": 7050593685, "lat": 19.0980824, "lon": 73.0056068, "tags": {"addr:district": "Thane", "addr:full": "A/42, Sagar Co.Ophousing Society, Sector-10, Koparkhairane, Navi Mumbai", "addr:postcode": "400709", "addr:state": "Maharashtra", "amenity": "hospital", "name": "Saraswati Skin and Eye Care Centre", "source": "OpenGovernmentData"}}, {"type": "node", "id": 7051344976, "lat": 19.1024207, "lon": 73.0037589, "tags": {"addr:district": "Thane", "addr:full": "102, Shubham Cooperative Society, Sector-18, Plot-77, Near Kotak Mahindra Bank, Koparkhairane", "addr:postcode": "400709", "addr:state": "Maharashtra", "amenity": "hospital", "name": "Om Gagangiri Hospital, Thane, NAVI MUMBAI", "source": "OpenGovernmentData"}}, {"type": "node", "id": 7051853939, "lat": 19.1503714, "lon": 72.9999474, "tags": {"addr:district": "Thane", "addr:full": "Sector - 4, Near Max Mall,Asiatic Society, Near Petrol Pump", "addr:postcode": "400708", "addr:state": "Maharashtra", "amenity": "hospital", "name": "Asha Hospital and Iccu", "source": "OpenGovernmentData"}}, {"type": "node", "id": 7051990083, "lat": 19.0817095, "lon": 72.9966067, "tags": {"addr:district": "Thane", "addr:full": "Plot 6B, Sector 9, Vashi, Navi Mumbai", "addr:postcode": "400703", "addr:state": "Maharashtra", "amenity": "hospital", "name": "Dr Yewale Multispeciality Hospital For Children", "source": "OpenGovernmentData"}}, {"type": "node", "id": 7052398568, "lat": 19.1490462, "lon": 72.999828, "tags": {"addr:district": "Thane", "addr:full": "Panchsheel Arcade, 1st Floor, Near Sahakar Bazar, Sector-5, Airoli, Navi Mumbai", "addr:postcode": "400708", "addr:state": "Maharashtra", "amenity": "hospital", "name": "Dr. Doke's Shraddha Hospital", "source": "OpenGovernmentData"}}, {"type": "node", "id": 7052895341, "lat": 19.1611029, "lon": 72.9988141, "tags": {"addr:district": "Thane", "addr:full": "Plot 1,2, 3, 4, Sector 2, Airoli", "addr:postcode": "400708", "addr:state": "Maharashtra", "amenity": "hospital", "healthcare": "hospital", "name": "Mody Hospital Iccu", "source": "OpenGovernmentData"}}, {"type": "node", "id": 7054096515, "lat": 19.1533004, "lon": 72.9862292, "tags": {"addr:district": "Thane", "addr:full": "Sector - 13, Plot No. 1, Ramdas Swami Marg", "addr:postcode": "400708", "addr:state": "Maharashtra", "amenity": "hospital", "name": "National Burns Center", "source": "OpenGovernmentData"}}, {"type": "node", "id": 7055034735, "lat": 19.1206928, "lon": 73.0028686, "tags": {"addr:district": "Thane", "addr:full": "Plot No.21 , Sector 6, Ghansoli, Navi Mumbai", "addr:postcode": "400701", "addr:state": "Maharashtra", "amenity": "hospital", "name": "Divine Multispecialty Hospital and Research Centre", "source": "OpenGovernmentData"}}, {"type": "node", "id": 7055082976, "lat": 19.0897992, "lon": 73.0047123, "tags": {"addr:district": "Thane", "addr:full": "A-01, Mahavir Dham Plot No 112, Sector 12, Vashi, Navi Mumbai", "addr:postcode": "400703", "addr:state": "Maharashtra", "amenity": "hospital", "name": "Ashirwad Hospital Maternity Surgical and General", "source": "OpenGovernmentData"}}, {"type": "node", "id": 7055110020, "lat": 19.1013786, "lon": 73.0046265, "tags": {"addr:district": "Thane", "addr:full": "Amar House, 1st Floor,Plot No.98, Sector - 7, Kopar Khairne Main Road", "addr:postcode": "400601", "addr:state": "Maharashtra", "amenity": "hospital", "name": "Aakashdeep Hospital and I.C.U", "source": "OpenGovernmentData"}}, {"type": "node", "id": 7064346350, "lat": 19.1475981, "lon": 72.9973564, "tags": {"addr:district": "Thane", "addr:full": "Plot No.6A, Sec 6,Behind Icici Bank,Airloi", "addr:postcode": "400708", "addr:state": "Maharashtra", "amenity": "hospital", "name": "KRYPTON Heritage Health Care", "source": "OpenGovernmentData"}}, {"type": "node", "id": 7064625319, "lat": 19.1632399, "lon": 73.0291231, "tags": {"addr:district": "Thane", "addr:full": "1st Floor A-Wing, Royal Garden Bildg. Near Shimla Park Kause Mumbra", "addr:postcode": "400612", "addr:state": "Maharashtra", "amenity": "hospital", "name": "Bilal Hospital I.C.U", "source": "OpenGovernmentData"}}, {"type": "node", "id": 7065817370, "lat": 19.0990443, "lon": 73.0046439, "tags": {"addr:district": "Thane", "addr:full": "Plot No.12, Sec-14, Opposite D-Mart Circle, Koparkhairane, Navi Mumbai", "addr:postcode": "400709", "addr:state": "Maharashtra", "amenity": "hospital", "name": "Satyam Multispeciality Hospital and Trauma Centre", "source": "OpenGovernmentData"}}, {"type": "node", "id": 7065820622, "lat": 19.1574092, "lon": 72.9984902, "tags": {"addr:district": "Thane", "addr:full": "Rajkamal Building, 1st Floor", "addr:postcode": "400708", "addr:state": "Maharashtra", "amenity": "hospital", "healthcare": "hospital", "name": "Sanjivni Hospital, Thane", "source": "OpenGovernmentData"}}, {"type": "node", "id": 7067113507, "lat": 19.0814104, "lon": 73.0005576, "tags": {"addr:district": "Thane", "addr:full": "Plot No.:51, Sector -15, Near Maratha Bhavan, Opposite Cidco Samaj Mandir, Vashi, Navi Mumbaai", "addr:postcode": "400705", "addr:state": "Maharashtra", "amenity": "hospital", "name": "Mohanlal Jivandas Hospital managed by Krishnai Hospital", "source": "OpenGovernmentData"}}, {"type": "node", "id": 7072544639, "lat": 19.0995664, "lon": 73.006162, "tags": {"addr:district": "Thane", "addr:full": "Plot 13, Sector 10, D - Mart, Kopar Khairane, Navi Mumbai", "addr:postcode": "400709", "addr:state": "Maharashtra", "amenity": "hospital", "email": "info@rajpaloldagehome.com", "name": "Rajpal Hospital and I.C.U.", "source": "OpenGovernmentData", "website": "https://www.rajpaloldagehome.com/"}}, {"type": "node", "id": 7072544640, "lat": 19.0797703, "lon": 72.9981503, "tags": {"addr:district": "Thane", "addr:full": "F-2/D-1, Aditi Apartments, F-Type Building, Main Road, Sector No 9, Near Shabri Hotel, Vashi, Navi Mumbai", "addr:postcode": "400703", "addr:state": "Maharashtra", "amenity": "hospital", "email": "global5health@gmail.com", "name": "Global 5 Health Care Centre", "source": "OpenGovernmentData", "website": "https://www.global5hospital.com/"}}, {"type": "node", "id": 7073944650, "lat": 19.0787817, "lon": 73.0014119, "tags": {"addr:district": "Thane", "addr:full": "Unit 8-8A, Balaji Sadan, Plot 20-D, Sector-15, Opposite Icl School Ground,Near Modern College", "addr:postcode": "400705", "addr:state": "Maharashtra", "amenity": "hospital", "name": "Lotus Multispeciality Hospital and Icu", "source": "OpenGovernmentData"}}, {"type": "node", "id": 7073949867, "lat": 19.1483963, "lon": 72.9950698, "tags": {"addr:district": "Thane", "addr:full": "Plot No-2A, Swami Samarth Complex Sector-16 Airoli New Mumbai", "addr:postcode": "400708", "addr:state": "Maharashtra", "amenity": "hospital", "name": "Criti Care Iccu, Multispeciality and Trauma Centre", "source": "OpenGovernmentData"}}, {"type": "node", "id": 7079411379, "lat": 19.1452581, "lon": 73.0016197, "tags": {"addr:district": "Mumbai", "addr:full": "Plot No R 831,TTC Industrial Area,Thane-Belapur Road, Rabale , Navi", "addr:postcode": "400701", "addr:state": "Maharashtra", "amenity": "hospital", "name": "Dr.Mahajan Hospital and Industrial Trauma Center", "source": "OpenGovernmentData"}}, {"type": "node", "id": 7225067218, "lat": 19.1565434, "lon": 72.997212, "tags": {"addr:district": "Thane", "addr:full": "Rajrishi Shahu Maharajah Marg, Near Navi Mumbai Mahanagar Palika, Airoli", "addr:postcode": "400708", "addr:state": "Maharashtra", "amenity": "hospital", "healthcare": "hospital", "name": "NMMC MCH Airoli", "source": "OpenGovernmentData"}}, {"type": "node", "id": 8816437186, "lat": 19.1043782, "lon": 73.0037038, "tags": {"addr:district": "Thane", "addr:full": "Kopar Khairane, Navi Mumbai", "addr:postcode": "400709", "addr:state": "Maharashtra", "amenity": "hospital", "name": "Mathadi Hospital KK", "source": "Local Knowledge"}}, {"type": "node", "id": 8816579299, "lat": 19.0875015, "lon": 73.0030788, "tags": {"addr:district": "Thane", "addr:full": "plot 108, 109, Juhu ,Vashi, Navi Mumbai", "addr:postcode": "400703", "addr:state": "Maharashtra", "amenity": "hospital", "name": "Vinamra Swaraj Hospital", "source": "Local Knowledge"}}, {"type": "node", "id": 8816957255, "lat": 19.1475082, "lon": 73.0052622, "tags": {"addr:district": "Thane", "addr:full": "Nibban Tekadi, Rabale, Navi Mumbai", "addr:postcode": "400708", "addr:state": "Maharashtra", "amenity": "hospital", "name": "NMMC Hospitals", "source": "Local Knowledge"}}, {"type": "node", "id": 9795175655, "lat": 19.1464171, "lon": 72.9877616, "tags": {"amenity": "hospital", "healthcare": "hospital", "healthcare:speciality": "general", "name": "Vaishali Hospital"}}, {"type": "node", "id": 9896935398, "lat": 19.0934199, "lon": 73.0109264}, {"type": "node", "id": 9896935399, "lat": 19.0934631, "lon": 73.0103128}, {"type": "node", "id": 9896935405, "lat": 19.0932772, "lon": 73.0101883}, {"type": "node", "id": 9896935406, "lat": 19.0929354, "lon": 73.0101614}, {"type": "node", "id": 9896935407, "lat": 19.0928846, "lon": 73.0108842}, {"type": "node", "id": 9896935408, "lat": 19.0932696, "lon": 73.0102975}, {"type": "node", "id": 10042422219, "lat": 19.1444443, "lon": 72.9951001, "tags": {"addr:city": "Navi Mumbai", "addr:postcode": "400708", "addr:street": "4567891011", "amenity": "hospital", "emergency": "phone", "healthcare": "hospital", "healthcare:speciality": "surgery;neurology;chiropractic;dermatology", "name": "apple hospital", "operator": "dr.bean", "operator:type": "private"}}, {"type": "node", "id": 10727357074, "lat": 19.1525895, "lon": 72.9857501}, {"type": "node", "id": 10727357075, "lat": 19.1531911, "lon": 72.9871188}, {"type": "node", "id": 10727357076, "lat": 19.1542972, "lon": 72.9865578}, {"type": "node", "id": 10727357077, "lat": 19.1539387, "lon": 72.985807}, {"type": "node", "id": 10727357078, "lat": 19.1531399, "lon": 72.9854167}, {"type": "node", "id": 10727357079, "lat": 19.1528788, "lon": 72.9855604}, {"type": "node", "id": 10727364115, "lat": 19.1569153, "lon": 72.9970213}, {"type": "node", "id": 10727364116, "lat": 19.1562167, "lon": 72.9971094}, {"type": "node", "id": 10727364117, "lat": 19.1561859, "lon": 72.9979332}, {"type": "node", "id": 10727364118, "lat": 19.156955, "lon": 72.9979445}, {"type": "way", "id": 257479165, "nodes": [2629911308, 2629911326, 2629911303, 2629911301, 2629911308], "tags": {"addr:district": "Mumbai", "addr:full": "Vashi", "addr:postcode": "400703", "addr:state": "Maharashtra", "amenity": "hospital", "emergency": "yes", "name": "L H Fortis Hospital", "source": "OpenGovernmentData"}}, {"type": "way", "id": 415784678, "nodes": [4167472230, 4167472231, 2953156269, 2953156267, 4167472230], "tags": {"addr:district": "Thane", "addr:full": "Plot No 6, Sector-9 Opp: Rf Naik School Ground, Koparkhairane Khairane Navi Mumbai", "addr:postcode": "400709", "addr:state": "Maharashtra", "amenity": "hospital", "healthcare": "hospital", "name": "Dr Ajayan's Multispeciality Hospital", "source": "OpenGovernmentData"}}, {"type": "way", "id": 661924838, "nodes": [3981483042, 6197071879, 6197071880, 6197071881, 1644114470, 3981483033, 5624316682, 3981483042], "tags": {"amenity": "hospital", "healthcare": "hospital", "name": "Reliance Hospital"}}, {"type": "way", "id": 1079698802, "nodes": [9896935405, 9896935406, 9896935407, 9896935398, 9896935399, 9896935408, 9896935405], "tags": {"amenity": "hospital", "healthcare": "hospital"}}, {"type": "way", "id": 1153426971, "nodes": [10727364115, 10727364116, 10727364117, 10727364118, 10727364115], "tags": {"amenity": "hospital", "healthcare": "hospital"}}, {"type": "way", "id": 1153427862, "nodes": [10727357074, 10727357075, 10727357076, 10727357077, 10727357078, 10727357079, 10727357074], "tags": {"amenity": "hospital", "healthcare": "hospital"}}, {"type": "way", "id": 1360696541, "nodes": [3596277929, 3596277928, 3596277926, 3596277927, 3596277929], "tags": {"amenity": "hospital", "healthcare": "hospital", "name": "JUHUGAON NMMC"}}]}