{"version": 0.6, "generator": "Overpass API 0.7.62.8 e802775f", "osm3s": {"timestamp_osm_base": "2026-01-12T00:23:59Z", "copyright": "The data included in this document is from www.openstreetmap.org. The data is made available under ODbL."}, "elements": [{"type": "node", "id": 98388056, "lat": -36.7872222, "lon": 174.77079}, {"type": "node", "id": 98388060, "lat": -36.7875408, "lon": 174.7710563}, {"type": "node", "id": 98389445, "lat": -36.7884555, "lon": 174.7715585}, {"type": "node", "id": 266299575, "lat": -36.7610146, "lon": 174.7375572}, {"type": "node", "id": 328908404, "lat": -36.7883078, "lon": 174.7716839}, {"type": "node", "id": 328908410, "lat": -36.7877841, "lon": 174.7711882}, {"type": "node", "id": 329683943, "lat": -36.7963827, "lon": 174.7607023}, {"type": "node", "id": 329683945, "lat": -36.7963618, "lon": 174.7606428}, {"type": "node", "id": 329683947, "lat": -36.7966237, "lon": 174.7602276}, {"type": "node", "id": 329683950, "lat": -36.7966683, "lon": 174.7601544}, {"type": "node", "id": 329683952, "lat": -36.7977498, "lon": 174.7612495}, {"type": "node", "id": 495879187, "lat": -36.7879212, "lon": 174.768679, "tags": {"bus": "yes", "highway": "bus_stop", "name": "Takapuna Primary School", "network": "AT", "network:wikidata": "Q4819567", "public_transport": "platform", "ref": "3273"}}, {"type": "node", "id": 495879188, "lat": -36.7874966, "lon": 174.7708249, "tags": {"bus": "yes", "highway": "bus_stop", "local_ref": "C", "name": "Takapuna", "network": "AT", "network:wikidata": "Q4819567", "official_name": "Stop C Takapuna", "official_name:en": "Stop C Takapuna", "official_name:mi": "T\u016bnga C Takapuna", "public_transport": "platform", "ref": "3381"}}, {"type": "node", "id": 495879199, "lat": -36.789192, "lon": 174.766614, "tags": {"bus": "yes", "highway": "bus_stop", "name": "Barrys Point Road", "name:en": "Barrys Point Road", "name:mi": "Te Huarahi o Barrys Point", "network": "AT", "network:wikidata": "Q4819567", "public_transport": "platform", "ref": "3630"}}, {"type": "node", "id": 495879202, "lat": -36.7893904, "lon": 174.7659444, "tags": {"bus": "yes", "highway": "bus_stop", "name": "Barrys Point Road", "name:en": "Barrys Point Road", "name:mi": "Te Huarahi o Barrys Point", "network": "AT", "network:wikidata": "Q4819567", "public_transport": "platform", "ref": "3277"}}, {"type": "node", "id": 724047801, "lat": -36.7883595, "lon": 174.771724}, {"type": "node", "id": 724047949, "lat": -36.7882855, "lon": 174.7716338, "tags": {"bus": "yes", "highway": "bus_stop", "local_ref": "A", "name": "Takapuna", "network": "AT", "network:wikidata": "Q4819567", "official_name": "Stop A Takapuna", "official_name:en": "Stop A Takapuna", "official_name:mi": "T\u016bnga A Takapuna", "public_transport": "platform", "ref": "3551"}}, {"type": "node", "id": 724048241, "lat": -36.7876627, "lon": 174.7711261, "tags": {"bus": "yes", "highway": "bus_stop", "local_ref": "D", "name": "Takapuna", "network": "AT", "network:wikidata": "Q4819567", "official_name": "Stop D Takapuna", "official_name:en": "Stop D Takapuna", "official_name:mi": "T\u016bnga D Takapuna", "public_transport": "platform", "ref": "3410"}}, {"type": "node", "id": 724048373, "lat": -36.7880583, "lon": 174.7712994, "tags": {"bus": "yes", "highway": "bus_stop", "local_ref": "B", "name": "Takapuna", "network": "AT", "network:wikidata": "Q4819567", "official_name": "Stop B Takapuna", "official_name:en": "Stop B Takapuna", "official_name:mi": "T\u016bnga B Takapuna", "public_transport": "platform", "ref": "3568"}}, {"type": "node", "id": 955861859, "lat": -36.7507986, "lon": 174.7109454, "tags": {"bench": "yes", "bin": "no", "bus": "yes", "highway": "bus_stop", "lit": "yes", "name": "Rosedale Park North", "name:en": "Rosedale Park North", "name:mi": "Te Papa R\u0113hia o Rosedale kei te Raki", "network": "AT", "network:wikidata": "Q4819567", "public_transport": "platform", "ref": "3633", "shelter": "yes", "tactile_paving": "no"}}, {"type": "node", "id": 955861885, "lat": -36.7598799, "lon": 174.7155203, "tags": {"bus": "yes", "highway": "bus_stop", "name": "Rifleman Rise", "network": "AT", "network:wikidata": "Q4819567", "public_transport": "platform", "ref": "3822"}}, {"type": "node", "id": 955886627, "lat": -36.7977449, "lon": 174.7562868, "tags": {"bus": "yes", "highway": "bus_stop", "name": "AUT North Shore Gate 1", "network": "AT", "network:wikidata": "Q4819567", "public_transport": "platform", "ref": "4054"}}, {"type": "node", "id": 1306654705, "lat": -36.7873088, "lon": 174.7706433}, {"type": "node", "id": 1339427237, "lat": -36.751174, "lon": 174.728335}, {"type": "node", "id": 1606188963, "lat": -36.783712, "lon": 174.7504235}, {"type": "node", "id": 1686470442, "lat": -36.7836707, "lon": 174.7505393}, {"type": "node", "id": 1686470444, "lat": -36.7836493, "lon": 174.7508864}, {"type": "node", "id": 1686470445, "lat": -36.783882, "lon": 174.7511639}, {"type": "node", "id": 1706610144, "lat": -36.7440759, "lon": 174.6971, "tags": {"bus": "yes", "highway": "bus_stop", "name": "Lovell Court", "network": "AT", "network:wikidata": "Q4819567", "public_transport": "platform", "ref": "3786"}}, {"type": "node", "id": 1706610145, "lat": -36.7443179, "lon": 174.6973089, "tags": {"bus": "yes", "highway": "bus_stop", "name": "Lovell Court", "network": "AT", "network:wikidata": "Q4819567", "public_transport": "platform", "ref": "3627"}}, {"type": "node", "id": 1706611686, "lat": -36.7514857, "lon": 174.7279761, "tags": {"bench": "yes", "bin": "yes", "bus": "yes", "highway": "bus_stop", "lit": "yes", "local_ref": "C", "name": "Constellation", "network": "AT", "network:wikidata": "Q4819567", "official_name": "Stop C Constellation", "official_name:en": "Stop C Constellation", "official_name:mi": "T\u016bnga C Constellation", "public_transport": "platform", "ref": "4225", "shelter": "yes", "tactile_paving": "yes"}}, {"type": "node", "id": 1706611688, "lat": -36.7517766, "lon": 174.7282274, "tags": {"bench": "yes", "bin": "yes", "bus": "yes", "highway": "bus_stop", "lit": "yes", "local_ref": "D", "name": "Constellation", "network": "AT", "network:wikidata": "Q4819567", "official_name": "Stop D Constellation", "official_name:en": "Stop D Constellation", "official_name:mi": "T\u016bnga D Constellation", "public_transport": "platform", "ref": "4223", "shelter": "yes", "tactile_paving": "yes"}}, {"type": "node", "id": 1706612160, "lat": -36.7971506, "lon": 174.7606873, "tags": {"bench": "yes", "bin": "yes", "bus": "yes", "departures_board": "timetable", "highway": "bus_stop", "internet_access": "yes", "internet_access:fee": "yes", "internet_access:ssid": "AT HOP WiFi", "local_ref": "B", "name": "Akoranga", "network": "AT", "network:wikidata": "Q4819567", "official_name": "Stop B Akoranga", "official_name:en": "Stop B Akoranga", "official_name:mi": "T\u016bnga B Akoranga", "operator": "Auckland Transport", "public_transport": "platform", "ref": "4063", "shelter": "yes"}}, {"type": "node", "id": 2084230328, "lat": -36.8032166, "lon": 174.7457832, "tags": {"bus": "yes", "highway": "bus_stop", "name": "College Road", "name:en": "College Road", "name:mi": "Te Huarahi o College", "network": "AT", "network:wikidata": "Q4819567", "public_transport": "platform", "ref": "3909"}}, {"type": "node", "id": 2084230338, "lat": -36.8037333, "lon": 174.7476665, "tags": {"bus": "yes", "highway": "bus_stop", "name": "Howard Road", "name:en": "Howard Road", "name:mi": "Te Huarahi o Howard", "network": "AT", "network:wikidata": "Q4819567", "public_transport": "platform", "ref": "3911"}}, {"type": "node", "id": 2084230340, "lat": -36.8037726, "lon": 174.7480203, "tags": {"bus": "yes", "highway": "bus_stop", "name": "Howard Road", "name:en": "Howard Road", "name:mi": "Te Huarahi o Howard", "network": "AT", "network:wikidata": "Q4819567", "public_transport": "platform", "ref": "4038"}}, {"type": "node", "id": 2084230395, "lat": -36.8085875, "lon": 174.7435116, "tags": {"bus": "yes", "highway": "bus_stop", "name": "Kawana Street", "name:en": "Kawana Street", "name:mi": "Te Tiriti o Kawana", "network": "AT", "network:wikidata": "Q4819567", "public_transport": "platform", "ref": "4070"}}, {"type": "node", "id": 2084230439, "lat": -36.8106684, "lon": 174.7422135, "tags": {"bus": "yes", "highway": "bus_stop", "name": "Northcote Primary School", "network": "AT", "network:wikidata": "Q4819567", "public_transport": "platform", "ref": "3959", "shelter": "yes"}}, {"type": "node", "id": 2084230440, "lat": -36.811196, "lon": 174.725857, "tags": {"bench": "yes", "bin": "yes", "bus": "yes", "capacity": "3", "departures_board": "realtime", "highway": "bus_stop", "lit": "no", "name": "Highbury Shops", "name:en": "Highbury Shops", "name:mi": "Ng\u0101 Toa o Highbury", "network": "AT", "network:wikidata": "Q4819567", "public_transport": "platform", "ref": "4030", "shelter": "yes", "tactile_paving": "yes"}}, {"type": "node", "id": 2084230442, "lat": -36.8115808, "lon": 174.7455881, "tags": {"bench": "yes", "bin": "yes", "bus": "yes", "highway": "bus_stop", "lit": "yes", "name": "Bruce Street", "name:en": "Bruce Street", "name:mi": "Te Tiriti o Bruce", "network": "AT", "network:wikidata": "Q4819567", "public_transport": "platform", "ref": "3961", "shelter": "yes", "tactile_paving": "no"}}, {"type": "node", "id": 2084230443, "lat": -36.8116929, "lon": 174.7505266, "tags": {"bus": "yes", "highway": "bus_stop", "name": "Onepoto Domain", "name:en": "Onepoto Domain", "name:mi": "Te K\u014dpua o Matakerepo", "network": "AT", "network:wikidata": "Q4819567", "public_transport": "platform", "ref": "3921", "shelter": "yes"}}, {"type": "node", "id": 2084230445, "lat": -36.8116656, "lon": 174.7503693, "tags": {"bus": "yes", "highway": "bus_stop", "name": "Onepoto Domain", "name:en": "Onepoto Domain", "name:mi": "Te K\u014dpua o Matakerepo", "network": "AT", "network:wikidata": "Q4819567", "public_transport": "platform", "ref": "3923", "shelter": "yes"}}, {"type": "node", "id": 2084230532, "lat": -36.8188702, "lon": 174.7340892, "tags": {"bus": "yes", "highway": "bus_stop", "name": "Maritime Terrace", "public_transport": "platform", "ref": "4102", "shelter": "yes"}}, {"type": "node", "id": 2084230537, "lat": -36.8205056, "lon": 174.7474877, "tags": {"bench": "no", "bus": "yes", "highway": "bus_stop", "name": "Beach Road", "name:en": "Beach Road", "name:mi": "Te Huarahi o Beach", "network": "AT", "network:wikidata": "Q4819567", "public_transport": "platform", "ref": "3969", "shelter": "no"}}, {"type": "node", "id": 2084230571, "lat": -36.8238308, "lon": 174.7480613, "tags": {"bus": "yes", "highway": "bus_stop", "name": "Jean Sampson Reserve", "name:en": "Jean Sampson Reserve", "name:mi": "Te Papa R\u0101hui o Jean Sampson", "network": "AT", "network:wikidata": "Q4819567", "public_transport": "platform", "ref": "4098", "shelter": "yes"}}, {"type": "node", "id": 2085588282, "lat": -36.8161718, "lon": 174.8039516, "tags": {"bus": "yes", "highway": "bus_stop", "name": "Morrison Avenue", "name:en": "Morrison Avenue", "name:mi": "Te Arah\u0101ngai o Morrison", "network": "AT", "network:wikidata": "Q4819567", "operator": "Auckland Transport", "public_transport": "platform", "ref": "3461"}}, {"type": "node", "id": 2085588283, "lat": -36.8164954, "lon": 174.8043455, "tags": {"bus": "yes", "description": "glass", "highway": "bus_stop", "name": "Morrison Avenue", "name:en": "Morrison Avenue", "name:mi": "Te Arah\u0101ngai o Morrison", "network": "AT", "network:wikidata": "Q4819567", "operator": "Auckland Transport", "public_transport": "platform", "ref": "3496", "shelter": "yes"}}, {"type": "node", "id": 2085588284, "lat": -36.8178445, "lon": 174.8051591, "tags": {"bus": "yes", "description": "glass", "highway": "bus_stop", "name": "Ascot Avenue", "name:en": "Ascot Avenue", "name:mi": "Te Arah\u0101ngai o Ascot", "network": "AT", "network:wikidata": "Q4819567", "operator": "Auckland Transport", "public_transport": "platform", "ref": "3459", "shelter": "yes"}}, {"type": "node", "id": 2085588285, "lat": -36.8179532, "lon": 174.8054282, "tags": {"bus": "yes", "description": "glass", "highway": "bus_stop", "name": "Ascot Avenue", "name:en": "Ascot Avenue", "name:mi": "Te Arah\u0101ngai o Ascot", "network": "AT", "network:wikidata": "Q4819567", "operator": "Auckland Transport", "public_transport": "platform", "ref": "3494", "shelter": "yes"}}, {"type": "node", "id": 2085588287, "lat": -36.820665, "lon": 174.8050314, "tags": {"bus": "yes", "highway": "bus_stop", "name": "Vauxhall Road Shops", "name:en": "Vauxhall Road Shops", "name:mi": "Ng\u0101 Toa o te Huarahi o Vauxhall", "network": "AT", "network:wikidata": "Q4819567", "operator": "Auckland Transport", "public_transport": "platform", "ref": "3457"}}, {"type": "node", "id": 2085588289, "lat": -36.8215894, "lon": 174.8048403, "tags": {"bus": "yes", "highway": "bus_stop", "name": "Vauxhall Road Shops", "name:en": "Vauxhall Road Shops", "name:mi": "Ng\u0101 Toa o te Huarahi o Vauxhall", "network": "AT", "network:wikidata": "Q4819567", "operator": "Auckland Transport", "public_transport": "platform", "ref": "3478"}}, {"type": "node", "id": 2085588297, "lat": -36.822842, "lon": 174.8042486, "tags": {"bench": "yes", "bin": "no", "bus": "yes", "description": "wooden", "highway": "bus_stop", "name": "Albert Road", "network": "AT", "network:wikidata": "Q4819567", "operator": "Auckland Transport", "public_transport": "platform", "ref": "3439", "shelter": "yes", "tactile_paving": "no"}}, {"type": "node", "id": 2085588300, "lat": -36.8231107, "lon": 174.8042961, "tags": {"access": "no", "bus": "yes", "highway": "bus_stop", "name": "Albert Road", "network": "AT", "network:wikidata": "Q4819567", "public_transport": "platform", "ref": "3480", "school_bus": "designated"}}, {"type": "node", "id": 2108649618, "lat": -36.7933944, "lon": 174.7415632, "tags": {"bus": "yes", "highway": "bus_stop", "name": "Sylvia Road / Hillcrest Avenue", "name:en": "Sylvia Road / Hillcrest Avenue", "name:mi": "Te Huarahi o Sylvia m\u0101 Te Arah\u0101ngai o Hillcrest", "network": "AT", "network:wikidata": "Q4819567", "public_transport": "platform", "ref": "3843", "shelter": "yes"}}, {"type": "node", "id": 2108649680, "lat": -36.7945702, "lon": 174.7304738, "tags": {"bus": "yes", "highway": "bus_stop", "name": "Hume Drive / Mountbatten Avenue", "name:en": "Hume Drive / Mountbatten Avenue", "name:mi": "Te Ara \u0100whio o Hume m\u0101 Te Arah\u0101ngai o Mountbatten", "network": "AT", "network:wikidata": "Q4819567", "public_transport": "platform", "ref": "3829"}}, {"type": "node", "id": 2108649781, "lat": -36.8005957, "lon": 174.7485247, "tags": {"bus": "yes", "highway": "bus_stop", "name": "Cadness Street", "name:en": "Cadness Street", "name:mi": "Te Tiriti o Cadness", "network": "AT", "network:wikidata": "Q4819567", "public_transport": "platform", "ref": "4048"}}, {"type": "node", "id": 2108649782, "lat": -36.8006981, "lon": 174.7485397, "tags": {"bus": "yes", "highway": "bus_stop", "name": "Cadness Street", "name:en": "Cadness Street", "name:mi": "Te Tiriti o Cadness", "network": "AT", "network:wikidata": "Q4819567", "public_transport": "platform", "ref": "3925"}}, {"type": "node", "id": 2108649793, "lat": -36.8049729, "lon": 174.7512365, "tags": {"bus": "yes", "departures_board": "timetable", "highway": "bus_stop", "name": "Deuxberry Avenue", "name:en": "Deuxberry Avenue", "name:mi": "Te Arah\u0101ngai o Deuxberry", "network": "AT", "network:wikidata": "Q4819567", "public_transport": "platform", "ref": "4040", "shelter": "yes"}}, {"type": "node", "id": 2130545130, "lat": -36.8119615, "lon": 174.71326, "tags": {"bus": "yes", "highway": "bus_stop", "name": "55 Chelsea Drive", "name:en": "55 Chelsea Drive", "name:mi": "55 ki te Ara \u0100whio o 55 Chelsea", "network": "AT", "network:wikidata": "Q4819567", "note": "AT has incorrect name here", "public_transport": "platform", "ref": "3993"}}, {"type": "node", "id": 2130545137, "lat": -36.8121039, "lon": 174.7134655, "tags": {"bus": "yes", "highway": "bus_stop", "name": "44 Chelsea View Drive", "name:en": "44 Chelsea View Drive", "name:mi": "44 ki te Ara \u0100whio o Chelsea View", "network": "AT", "network:wikidata": "Q4819567", "public_transport": "platform", "ref": "4116"}}, {"type": "node", "id": 2130545249, "lat": -36.8189297, "lon": 174.7118755, "tags": {"bus": "yes", "departures_board": "timetable", "highway": "bus_stop", "name": "Homewood Place", "name:en": "Homewood Place", "name:mi": "Te Aramutu o Homewood", "network": "AT", "network:wikidata": "Q4819567", "public_transport": "platform", "ref": "4120", "shelter": "no"}}, {"type": "node", "id": 2130545343, "lat": -36.8201306, "lon": 174.7112118, "tags": {"bus": "yes", "highway": "bus_stop", "name": "Mick Stanley Memorial Reserve", "network": "AT", "network:wikidata": "Q4819567", "public_transport": "platform", "ref": "3997"}}, {"type": "node", "id": 2130545380, "lat": -36.8208431, "lon": 174.7087396, "tags": {"bus": "yes", "highway": "bus_stop", "name": "Bragato Place", "name:en": "Bragato Place", "name:mi": "Te Aramutu o Bragato", "network": "AT", "network:wikidata": "Q4819567", "public_transport": "platform", "ref": "3999"}}, {"type": "node", "id": 2148860656, "lat": -36.7894526, "lon": 174.6947205, "tags": {"bus": "yes", "highway": "bus_stop", "name": "Lancaster Road", "name:en": "Lancaster Road", "name:mi": "Te Huarahi o Lancaster", "network": "AT", "network:wikidata": "Q4819567", "public_transport": "platform", "ref": "4049", "shelter": "yes"}}, {"type": "node", "id": 2148860679, "lat": -36.7970385, "lon": 174.7008669, "tags": {"bus": "yes", "highway": "bus_stop", "name": "Tiri Tiri Road", "name:en": "Tiri Tiri Road", "name:mi": "Te Huarahi o Tiri Tiri", "network": "AT", "network:wikidata": "Q4819567", "public_transport": "platform", "ref": "4172", "shelter": "yes"}}, {"type": "node", "id": 2148860760, "lat": -36.8007709, "lon": 174.7031129, "tags": {"bus": "yes", "highway": "bus_stop", "name": "Birkdale Primary School", "network": "AT", "network:wikidata": "Q4819567", "public_transport": "platform", "ref": "4059", "shelter": "yes"}}, {"type": "node", "id": 2171010324, "lat": -36.8018273, "lon": 174.7249207, "tags": {"bus": "yes", "highway": "bus_stop", "name": "Coroglen Avenue", "name:en": "Coroglen Avenue", "name:mi": "Te Arah\u0101ngai o Coroglen", "network": "AT", "network:wikidata": "Q4819567", "public_transport": "platform", "ref": "3895"}}, {"type": "node", "id": 2171010326, "lat": -36.8020193, "lon": 174.7247758, "tags": {"bench": "no", "bin": "no", "bus": "yes", "departures_board": "timetable", "highway": "bus_stop", "name": "Coroglen Avenue", "name:en": "Coroglen Avenue", "name:mi": "Te Arah\u0101ngai o Coroglen", "network": "AT", "network:wikidata": "Q4819567", "public_transport": "platform", "ref": "4024", "shelter": "no"}}, {"type": "node", "id": 2171010385, "lat": -36.8042014, "lon": 174.7253799, "tags": {"bench": "yes", "bin": "no", "bus": "yes", "highway": "bus_stop", "lit": "yes", "name": "Pupuke Road", "name:en": "Pupuke Road", "name:mi": "Te Huarahi o Pupuke", "network": "AT", "network:wikidata": "Q4819567", "public_transport": "platform", "ref": "3897", "shelter": "yes", "tactile_paving": "no"}}, {"type": "node", "id": 2171010463, "lat": -36.8052218, "lon": 174.7252758, "tags": {"bench": "yes", "bus": "yes", "highway": "bus_stop", "name": "Recreation Drive", "name:en": "Recreation Drive", "name:mi": "Te Ara \u0100whio o Recreation", "network": "AT", "network:wikidata": "Q4819567", "public_transport": "platform", "ref": "4026", "shelter": "yes"}}, {"type": "node", "id": 2171024115, "lat": -36.7842088, "lon": 174.734856, "tags": {"bus": "yes", "highway": "bus_stop", "name": "McFetridge Park", "name:en": "McFetridge Park", "name:mi": "Te Papa R\u0113hia o McFetridge", "network": "AT", "network:wikidata": "Q4819567", "public_transport": "platform", "ref": "3894"}}, {"type": "node", "id": 2171024121, "lat": -36.7846173, "lon": 174.7345459, "tags": {"bus": "yes", "highway": "bus_stop", "name": "McFetridge Park", "name:en": "McFetridge Park", "name:mi": "Te Papa R\u0113hia o McFetridge", "network": "AT", "network:wikidata": "Q4819567", "public_transport": "platform", "ref": "3743"}}, {"type": "node", "id": 2171047346, "lat": -36.7717111, "lon": 174.7112827, "tags": {"bus": "yes", "highway": "bus_stop", "name": "Spinella Reserve", "name:en": "Spinella Reserve", "name:mi": "Te Papa R\u0101hui o Spinella", "network": "AT", "network:wikidata": "Q4819567", "public_transport": "platform", "ref": "3757"}}, {"type": "node", "id": 2171047409, "lat": -36.7732027, "lon": 174.7027301, "tags": {"bus": "yes", "highway": "bus_stop", "name": "Lynn Reserve", "name:en": "Lynn Reserve", "name:mi": "Te Papa R\u0101hui o Lynn", "network": "AT", "network:wikidata": "Q4819567", "public_transport": "platform", "ref": "4077"}}, {"type": "node", "id": 2171047443, "lat": -36.7751143, "lon": 174.7032342, "tags": {"bus": "yes", "highway": "bus_stop", "name": "Hale Crescent", "network": "AT", "network:wikidata": "Q4819567", "public_transport": "platform", "ref": "3765"}}, {"type": "node", "id": 2526200565, "lat": -36.8117841, "lon": 174.745802, "tags": {"bench": "yes", "bin": "yes", "bus": "yes", "highway": "bus_stop", "lit": "yes", "name": "Bruce Street", "name:en": "Bruce Street", "name:mi": "Te Tiriti o Bruce", "network": "AT", "network:wikidata": "Q4819567", "public_transport": "platform", "ref": "4086", "shelter": "yes", "tactile_paving": "no"}}, {"type": "node", "id": 2526200568, "lat": -36.8105693, "lon": 174.7434064, "tags": {"bench": "yes", "bin": "no", "bus": "yes", "highway": "bus_stop", "name": "Lake Road / Northcote Primary", "network": "AT", "network:wikidata": "Q4819567", "public_transport": "platform", "ref": "4072", "shelter": "yes"}}, {"type": "node", "id": 2526200571, "lat": -36.8109306, "lon": 174.7429682, "tags": {"bench": "yes", "bin": "yes", "bus": "yes", "departures_board": "timetable", "highway": "bus_stop", "lit": "yes", "name": "Northcote Primary School", "network": "AT", "network:wikidata": "Q4819567", "public_transport": "platform", "ref": "4074", "shelter": "yes", "tactile_paving": "no"}}, {"type": "node", "id": 2559441305, "lat": -36.8128885, "lon": 174.7801719, "tags": {"bus": "yes", "description": "glass", "highway": "bus_stop", "name": "Bayswater Park", "name:en": "Bayswater Park", "name:mi": "Te Papa R\u0113hia o Bayswater", "network": "AT", "network:wikidata": "Q4819567", "operator": "Auckland Transport", "public_transport": "platform", "ref": "3540", "shelter": "yes"}}, {"type": "node", "id": 2559441321, "lat": -36.8138745, "lon": 174.7780679, "tags": {"bus": "yes", "description": "glass", "highway": "bus_stop", "name": "Sandy Bay Road", "name:en": "Sandy Bay Road", "name:mi": "Te Huarahi o Sandy Bay", "network": "AT", "network:wikidata": "Q4819567", "operator": "Auckland Transport", "public_transport": "platform", "ref": "3538", "shelter": "yes"}}, {"type": "node", "id": 2560805448, "lat": -36.8228436, "lon": 174.7339791, "tags": {"ferry": "yes", "local_ref": "1", "name": "Birkenhead Pier 1", "network": "AT", "network:wikidata": "Q4819567", "public_transport": "stop_position", "ref": "9660"}}, {"type": "node", "id": 2611965119, "lat": -36.7694543, "lon": 174.7679901, "tags": {"bus": "yes", "highway": "bus_stop", "name": "Milford Park Place", "name:en": "Milford Park Place", "name:mi": "Te Aramutu o Milford Park", "network": "AT", "network:wikidata": "Q4819567", "public_transport": "platform", "ref": "3321"}}, {"type": "node", "id": 2611965175, "lat": -36.7724169, "lon": 174.7643938, "tags": {"bus": "yes", "highway": "bus_stop", "name": "Milford Shops", "name:en": "Milford Shops", "name:mi": "Ng\u0101 Toa o Milford", "network": "AT", "network:wikidata": "Q4819567", "public_transport": "platform", "ref": "3257"}}, {"type": "node", "id": 2611965214, "lat": -36.7738894, "lon": 174.7699982, "tags": {"bus": "yes", "highway": "bus_stop", "name": "Saltburn Road", "name:en": "Saltburn Road", "name:mi": "Te Huarahi o Saltburn", "network": "AT", "network:wikidata": "Q4819567", "public_transport": "platform", "ref": "3261"}}, {"type": "node", "id": 2611965221, "lat": -36.7738911, "lon": 174.7695743, "tags": {"bus": "yes", "highway": "bus_stop", "name": "Saltburn Road", "name:en": "Saltburn Road", "name:mi": "Te Huarahi o Saltburn", "network": "AT", "network:wikidata": "Q4819567", "public_transport": "platform", "ref": "3286"}}, {"type": "node", "id": 2611965228, "lat": -36.7744883, "lon": 174.7723209, "tags": {"bus": "yes", "highway": "bus_stop", "name": "Muritai Road", "name:en": "Muritai Road", "name:mi": "Te Huarahi o Muritai", "network": "AT", "network:wikidata": "Q4819567", "public_transport": "platform", "ref": "3263"}}, {"type": "node", "id": 2611965234, "lat": -36.774561, "lon": 174.7721207, "tags": {"bus": "yes", "highway": "bus_stop", "name": "Muritai Road", "name:en": "Muritai Road", "name:mi": "Te Huarahi o Muritai", "network": "AT", "network:wikidata": "Q4819567", "public_transport": "platform", "ref": "3288"}}, {"type": "node", "id": 2611965354, "lat": -36.7756869, "lon": 174.7747901, "tags": {"bus": "yes", "highway": "bus_stop", "name": "Eric Price Avenue", "name:en": "Eric Price Avenue", "name:mi": "Te Arah\u0101ngai o Eric Price", "network": "AT", "network:wikidata": "Q4819567", "public_transport": "platform", "ref": "3265"}}, {"type": "node", "id": 2611965360, "lat": -36.7756888, "lon": 174.7746368, "tags": {"bus": "yes", "highway": "bus_stop", "name": "Eric Price Avenue", "name:en": "Eric Price Avenue", "name:mi": "Te Arah\u0101ngai o Eric Price", "network": "AT", "network:wikidata": "Q4819567", "public_transport": "platform", "ref": "3290"}}, {"type": "node", "id": 2611965367, "lat": -36.7794187, "lon": 174.7747338, "tags": {"bus": "yes", "highway": "bus_stop", "name": "O'Neills Avenue", "name:en": "O'Neills Avenue", "name:mi": "Te Arah\u0101ngai o O'Neills", "network": "AT", "network:wikidata": "Q4819567", "public_transport": "platform", "ref": "3267"}}, {"type": "node", "id": 2611965374, "lat": -36.7792929, "lon": 174.7746346, "tags": {"bus": "yes", "highway": "bus_stop", "name": "O'Neills Avenue", "name:en": "O'Neills Avenue", "name:mi": "Te Arah\u0101ngai o O'Neills", "network": "AT", "network:wikidata": "Q4819567", "public_transport": "platform", "ref": "3292"}}, {"type": "node", "id": 2611965377, "lat": -36.7813902, "lon": 174.7742605, "tags": {"bench": "yes", "bin": "yes", "bus": "yes", "departures_board": "timetable", "highway": "bus_stop", "name": "Brett Avenue", "name:en": "Brett Avenue", "name:mi": "Te Arah\u0101ngai o Brett", "network": "AT", "network:wikidata": "Q4819567", "public_transport": "platform", "ref": "3269", "shelter": "yes"}}, {"type": "node", "id": 2611965380, "lat": -36.7854018, "lon": 174.7731534, "tags": {"bus": "yes", "highway": "bus_stop", "name": "Anzac Street", "name:en": "Anzac Street", "name:mi": "Te Tiriti o Anzac", "network": "AT", "network:wikidata": "Q4819567", "public_transport": "platform", "ref": "3298"}}, {"type": "node", "id": 2611965385, "lat": -36.78552, "lon": 174.773245, "tags": {"bus": "yes", "highway": "bus_stop", "name": "Anzac Street", "name:en": "Anzac Street", "name:mi": "Te Tiriti o Anzac", "network": "AT", "network:wikidata": "Q4819567", "public_transport": "platform", "ref": "3271"}}, {"type": "node", "id": 2611965464, "lat": -36.7938931, "lon": 174.7745784, "tags": {"bus": "yes", "highway": "bus_stop", "name": "Esmonde Road / Lake Road", "network": "AT", "network:wikidata": "Q4819567", "public_transport": "platform", "ref": "3486"}}, {"type": "node", "id": 2611965506, "lat": -36.7974943, "lon": 174.7801414, "tags": {"bus": "yes", "highway": "bus_stop", "name": "Bayview Road", "name:en": "Bayview Road", "name:mi": "Te Huarahi o Bayview", "network": "AT", "network:wikidata": "Q4819567", "public_transport": "platform", "ref": "3389", "shelter": "yes"}}, {"type": "node", "id": 2611965512, "lat": -36.7976417, "lon": 174.7805399, "tags": {"bus": "yes", "highway": "bus_stop", "name": "Bayview Road", "name:en": "Bayview Road", "name:mi": "Te Huarahi o Bayview", "network": "AT", "network:wikidata": "Q4819567", "public_transport": "platform", "ref": "3418", "shelter": "yes"}}, {"type": "node", "id": 2611965519, "lat": -36.7979067, "lon": 174.7786192, "tags": {"bench": "yes", "bin": "no", "bus": "yes", "highway": "bus_stop", "name": "Jutland Road / Lake Road", "name:en": "Jutland Road / Lake Road", "network": "AT", "network:wikidata": "Q4819567", "public_transport": "platform", "ref": "3562", "shelter": "yes", "tactile_paving": "no"}}, {"type": "node", "id": 2611965526, "lat": -36.7980719, "lon": 174.7841788, "tags": {"bus": "yes", "highway": "bus_stop", "name": "Clifton Road", "name:en": "Clifton Road", "name:mi": "Te Huarahi o Clifton", "network": "AT", "network:wikidata": "Q4819567", "public_transport": "platform", "ref": "3391", "shelter": "yes"}}, {"type": "node", "id": 2611965540, "lat": -36.7981084, "lon": 174.784986, "tags": {"bus": "yes", "highway": "bus_stop", "name": "Clifton Road", "name:en": "Clifton Road", "name:mi": "Te Huarahi o Clifton", "network": "AT", "network:wikidata": "Q4819567", "public_transport": "platform", "ref": "3420", "shelter": "yes"}}, {"type": "node", "id": 2611965547, "lat": -36.7995227, "lon": 174.7777774, "tags": {"bench": "no", "bin": "no", "bus": "yes", "highway": "bus_stop", "lit": "yes", "name": "Northboro Road / Jutland Road", "name:en": "Northboro Road / Jutland Road", "name:mi": "Te Huarahi o Northboro m\u0101 Te Huarahi o Jutland", "network": "AT", "network:wikidata": "Q4819567", "public_transport": "platform", "ref": "3560", "shelter": "no", "tactile_paving": "no", "wheelchair": "limited"}}, {"type": "node", "id": 2611965555, "lat": -36.7997033, "lon": 174.7779652, "tags": {"bench": "yes", "bin": "yes", "bus": "yes", "highway": "bus_stop", "lit": "yes", "name": "Northboro Road / Jutland Road", "name:en": "Northboro Road / Jutland Road", "name:mi": "Te Huarahi o Northboro m\u0101 Te Huarahi o Jutland", "network": "AT", "network:wikidata": "Q4819567", "public_transport": "platform", "ref": "3535", "shelter": "yes", "tactile_paving": "no"}}, {"type": "node", "id": 2611965562, "lat": -36.8008894, "lon": 174.780461, "tags": {"bench": "no", "bin": "no", "bus": "yes", "highway": "bus_stop", "lit": "yes", "name": "Birchfield Road", "name:en": "Birchfield Road", "name:mi": "Te Huarahi o Birchfield", "network": "AT", "network:wikidata": "Q4819567", "public_transport": "platform", "ref": "3558", "shelter": "no", "tactile_paving": "no", "wheelchair": "limited"}}, {"type": "node", "id": 2611965568, "lat": -36.8008135, "lon": 174.7801423, "tags": {"bench": "yes", "bin": "no", "bus": "yes", "highway": "bus_stop", "lit": "yes", "name": "Birchfield Road", "name:en": "Birchfield Road", "name:mi": "Te Huarahi o Birchfield", "network": "AT", "network:wikidata": "Q4819567", "public_transport": "platform", "ref": "3533", "shelter": "yes", "tactile_paving": "no"}}, {"type": "node", "id": 2611965585, "lat": -36.8127584, "lon": 174.7807696, "tags": {"bus": "yes", "description": "glass", "highway": "bus_stop", "name": "Bayswater Park", "name:en": "Bayswater Park", "name:mi": "Te Papa R\u0113hia o Bayswater", "network": "AT", "network:wikidata": "Q4819567", "operator": "Auckland Transport", "public_transport": "platform", "ref": "3517", "shelter": "yes"}}, {"type": "node", "id": 2611965592, "lat": -36.8143215, "lon": 174.7774089, "tags": {"bus": "yes", "highway": "bus_stop", "name": "Sandy Bay Road", "name:en": "Sandy Bay Road", "name:mi": "Te Huarahi o Sandy Bay", "network": "AT", "network:wikidata": "Q4819567", "operator": "Auckland Transport", "public_transport": "platform", "ref": "3513"}}, {"type": "node", "id": 2722733089, "lat": -36.8100879, "lon": 174.7268119, "tags": {"bench": "yes", "bin": "yes", "bus": "yes", "highway": "bus_stop", "lit": "yes", "name": "Birkenhead Avenue", "name:en": "Birkenhead Avenue", "name:mi": "Te Arah\u0101ngai o Birkenhead", "network": "AT", "network:wikidata": "Q4819567", "public_transport": "platform", "ref": "4084", "shelter": "yes", "tactile_paving": "no"}}, {"type": "node", "id": 2722733091, "lat": -36.8099474, "lon": 174.7290291, "tags": {"bench": "yes", "bin": "no", "bus": "yes", "highway": "bus_stop", "name": "Aorangi Place", "name:en": "Aorangi Place", "name:mi": "Te Aramutu o Aorangi", "network": "AT", "network:wikidata": "Q4819567", "public_transport": "platform", "ref": "3951", "shelter": "yes"}}, {"type": "node", "id": 2722735493, "lat": -36.810066, "lon": 174.7290538, "tags": {"bench": "yes", "bus": "yes", "highway": "bus_stop", "name": "Aorangi Place", "name:en": "Aorangi Place", "name:mi": "Te Aramutu o Aorangi", "network": "AT", "network:wikidata": "Q4819567", "public_transport": "platform", "ref": "4082", "shelter": "yes"}}, {"type": "node", "id": 2722740178, "lat": -36.8102539, "lon": 174.7324159, "tags": {"bench": "yes", "bin": "yes", "bus": "yes", "highway": "bus_stop", "name": "Park Avenue", "name:en": "Park Avenue", "name:mi": "Te Arah\u0101ngai o Park", "network": "AT", "network:wikidata": "Q4819567", "public_transport": "platform", "ref": "4080", "shelter": "yes"}}, {"type": "node", "id": 2722740179, "lat": -36.8101504, "lon": 174.7326902, "tags": {"bench": "yes", "bin": "yes", "bus": "yes", "highway": "bus_stop", "name": "Park Avenue", "name:en": "Park Avenue", "name:mi": "Te Arah\u0101ngai o Park", "network": "AT", "network:wikidata": "Q4819567", "public_transport": "platform", "ref": "3953", "shelter": "yes"}}, {"type": "node", "id": 2722740288, "lat": -36.8105613, "lon": 174.7379881, "tags": {"bus": "yes", "highway": "bus_stop", "name": "Saint Mary's Catholic Church", "network": "AT", "network:wikidata": "Q4819567", "official_name": "Saint Mary's Catholic Church St Mary's Catholic Church", "public_transport": "platform", "ref": "4076"}}, {"type": "node", "id": 2722749787, "lat": -36.8128302, "lon": 174.7449377, "tags": {"bench": "no", "bin": "no", "bus": "yes", "highway": "bus_stop", "lit": "yes", "name": "Belle Vue Street", "name:en": "Belle Vue Street", "name:mi": "Te Tiriti o Belle Vue", "network": "AT", "network:wikidata": "Q4819567", "public_transport": "platform", "ref": "3963", "shelter": "no", "tactile_paving": "no"}}, {"type": "node", "id": 2774650417, "lat": -36.7629868, "lon": 174.705775, "tags": {"bus": "yes", "highway": "bus_stop", "name": "Dene Court Lane", "name:en": "Dene Court Lane", "name:mi": "Te Arak\u016biti o Dene Court", "network": "AT", "network:wikidata": "Q4819567", "public_transport": "platform", "ref": "3591"}}, {"type": "node", "id": 2774650418, "lat": -36.7691522, "lon": 174.7000744, "tags": {"bus": "yes", "highway": "bus_stop", "name": "Kerer\u016b Grove", "network": "AT", "network:wikidata": "Q4819567", "public_transport": "platform", "ref": "3752"}}, {"type": "node", "id": 2774650420, "lat": -36.7698231, "lon": 174.6993902, "tags": {"bus": "yes", "highway": "bus_stop", "public_transport": "platform", "ref": "3593"}}, {"type": "node", "id": 2822327258, "lat": -36.7951752, "lon": 174.7526152, "tags": {"bench": "yes", "bin": "no", "bus": "yes", "departures_board": "timetable", "highway": "bus_stop", "name": "Kitewao Street", "name:en": "Kitewao Street", "name:mi": "Te Tiriti o Kitewao", "network": "AT", "network:wikidata": "Q4819567", "public_transport": "platform", "ref": "3933", "shelter": "yes", "tactile_paving": "no"}}, {"type": "node", "id": 2822327259, "lat": -36.7953318, "lon": 174.7530821, "tags": {"bus": "yes", "departures_board": "timetable", "highway": "bus_stop", "name": "Kitewao Street", "name:en": "Kitewao Street", "name:mi": "Te Tiriti o Kitewao", "network": "AT", "network:wikidata": "Q4819567", "public_transport": "platform", "ref": "4056", "shelter": "yes"}}, {"type": "node", "id": 2822327260, "lat": -36.7961806, "lon": 174.7235055, "tags": {"bench": "yes", "bin": "no", "bus": "yes", "highway": "bus_stop", "name": "Speedy Crescent", "network": "AT", "network:wikidata": "Q4819567", "public_transport": "platform", "ref": "4020", "shelter": "yes"}}, {"type": "node", "id": 2822327261, "lat": -36.7966682, "lon": 174.7236868, "tags": {"bench": "yes", "bin": "yes", "bus": "yes", "highway": "bus_stop", "name": "Speedy Crescent", "network": "AT", "network:wikidata": "Q4819567", "public_transport": "platform", "ref": "3891", "shelter": "yes"}}, {"type": "node", "id": 2822327262, "lat": -36.7983997, "lon": 174.723415, "tags": {"bench": "yes", "bin": "yes", "bus": "yes", "highway": "bus_stop", "lit": "yes", "name": "Glenfield Road / Eskdale Road", "name:en": "Glenfield Road / Eskdale Road", "name:mi": "Te Huarahi o Glenfield m\u0101 Te Huarahi o Eskdale", "network": "AT", "network:wikidata": "Q4819567", "public_transport": "platform", "ref": "4022", "shelter": "yes", "tactile_paving": "no"}}, {"type": "node", "id": 2822327266, "lat": -36.8084308, "lon": 174.7542875, "tags": {"bus": "yes", "departures_board": "timetable", "highway": "bus_stop", "name": "Heath Avenue", "name:en": "Heath Avenue", "name:mi": "Te Arah\u0101ngai o Heath", "network": "AT", "network:wikidata": "Q4819567", "public_transport": "platform", "ref": "4044", "shelter": "no"}}, {"type": "node", "id": 2822327267, "lat": -36.8091369, "lon": 174.7544858, "tags": {"bus": "yes", "departures_board": "timetable", "highway": "bus_stop", "name": "Heath Avenue", "name:en": "Heath Avenue", "name:mi": "Te Arah\u0101ngai o Heath", "network": "AT", "network:wikidata": "Q4819567", "public_transport": "platform", "ref": "3917", "shelter": "no"}}, {"type": "node", "id": 2822327268, "lat": -36.8106083, "lon": 174.7529805, "tags": {"bench": "yes", "bus": "yes", "highway": "bus_stop", "name": "47 Sylvan Avenue", "name:en": "47 Sylvan Avenue", "name:mi": "47 ki te Arah\u0101ngai o Sylvan", "network": "AT", "network:wikidata": "Q4819567", "public_transport": "platform", "ref": "3919", "shelter": "no"}}, {"type": "node", "id": 2822327269, "lat": -36.8108053, "lon": 174.752443, "tags": {"bus": "yes", "highway": "bus_stop", "name": "18 Sylvan Avenue", "name:en": "18 Sylvan Avenue", "name:mi": "18 ki te Arah\u0101ngai o Sylvan", "network": "AT", "network:wikidata": "Q4819567", "public_transport": "platform", "ref": "4046"}}, {"type": "node", "id": 2822348560, "lat": -36.7976239, "lon": 174.7555783, "tags": {"bench": "yes", "bin": "yes", "bus": "yes", "highway": "bus_stop", "name": "AUT North Shore Gate 1", "network": "AT", "network:wikidata": "Q4819567", "public_transport": "platform", "ref": "3931", "shelter": "yes"}}, {"type": "node", "id": 2905172358, "lat": -36.7425756, "lon": 174.6951251, "tags": {"access": "no", "bus": "yes", "highway": "bus_stop", "name": "William Pickering Drive", "network": "AT", "network:wikidata": "Q4819567", "public_transport": "platform", "ref": "3700", "school_bus": "designated"}}, {"type": "node", "id": 2905172359, "lat": -36.7426758, "lon": 174.6954438, "tags": {"access": "no", "bus": "yes", "highway": "bus_stop", "name": "William Pickering Drive", "network": "AT", "network:wikidata": "Q4819567", "public_transport": "platform", "ref": "3762", "school_bus": "designated"}}, {"type": "node", "id": 3259548258, "lat": -36.7874608, "lon": 174.7006736, "tags": {"bus": "yes", "highway": "bus_stop", "name": "Lauderdale Road", "name:en": "Lauderdale Road", "name:mi": "Te Huarahi o Lauderdale", "network": "AT", "network:wikidata": "Q4819567", "public_transport": "platform", "ref": "4204"}}, {"type": "node", "id": 3259548259, "lat": -36.7875538, "lon": 174.7007279, "tags": {"bus": "yes", "highway": "bus_stop", "name": "Lauderdale Road", "name:en": "Lauderdale Road", "name:mi": "Te Huarahi o Lauderdale", "network": "AT", "network:wikidata": "Q4819567", "public_transport": "platform", "ref": "4075", "shelter": "no"}}, {"type": "node", "id": 3259548583, "lat": -36.7885818, "lon": 174.6997341, "tags": {"bus": "yes", "highway": "bus_stop", "name": "Birkdale Bible Chapel", "network": "AT", "network:wikidata": "Q4819567", "public_transport": "platform", "ref": "4051", "shelter": "yes"}}, {"type": "node", "id": 3259548585, "lat": -36.788629, "lon": 174.6995982, "tags": {"bus": "yes", "highway": "bus_stop", "name": "Birkdale Bible Chapel", "network": "AT", "network:wikidata": "Q4819567", "public_transport": "platform", "ref": "4164", "shelter": "no"}}, {"type": "node", "id": 3259548590, "lat": -36.7890415, "lon": 174.6957835, "tags": {"bus": "yes", "departures_board": "realtime", "highway": "bus_stop", "name": "Lancaster Road", "name:en": "Lancaster Road", "name:mi": "Te Huarahi o Lancaster", "network": "AT", "network:wikidata": "Q4819567", "public_transport": "platform", "ref": "4162", "shelter": "yes"}}, {"type": "node", "id": 3259548640, "lat": -36.7900477, "lon": 174.703361, "tags": {"bus": "yes", "highway": "bus_stop", "name": "McPhail Street", "name:en": "McPhail Street", "name:mi": "Te Tiriti o McPhail", "network": "AT", "network:wikidata": "Q4819567", "public_transport": "platform", "ref": "4444"}}, {"type": "node", "id": 3259548643, "lat": -36.7902499, "lon": 174.7003744, "tags": {"bus": "yes", "highway": "bus_stop", "name": "Birkdale North School", "network": "AT", "network:wikidata": "Q4819567", "public_transport": "platform", "ref": "4166", "shelter": "no"}}, {"type": "node", "id": 3259548644, "lat": -36.790363, "lon": 174.7037748, "tags": {"bus": "yes", "highway": "bus_stop", "name": "McPhail Street", "name:en": "McPhail Street", "name:mi": "Te Tiriti o McPhail", "network": "AT", "network:wikidata": "Q4819567", "public_transport": "platform", "ref": "4393"}}, {"type": "node", "id": 3259548689, "lat": -36.7924836, "lon": 174.700739, "tags": {"bus": "yes", "highway": "bus_stop", "name": "Levesque Street Shops", "name:en": "Levesque Street Shops", "name:mi": "Ng\u0101 Toa o Te Tiriti o Levesque", "network": "AT", "network:wikidata": "Q4819567", "public_transport": "platform", "ref": "4168"}}, {"type": "node", "id": 3259548690, "lat": -36.7926244, "lon": 174.7070437, "tags": {"bus": "yes", "highway": "bus_stop", "name": "Lauderdale Road / Eskdale Road", "name:en": "Lauderdale Road / Eskdale Road", "name:mi": "Te Huarahi o Lauderdale m\u0101 Te Huarahi o Eskdale", "network": "AT", "network:wikidata": "Q4819567", "public_transport": "platform", "ref": "4391"}}, {"type": "node", "id": 3259548691, "lat": -36.792835, "lon": 174.700876, "tags": {"bus": "yes", "highway": "bus_stop", "name": "Levesque Street Shops", "name:en": "Levesque Street Shops", "name:mi": "Ng\u0101 Toa o Te Tiriti o Levesque", "network": "AT", "network:wikidata": "Q4819567", "public_transport": "platform", "ref": "4053"}}, {"type": "node", "id": 3259548692, "lat": -36.7929557, "lon": 174.7070421, "tags": {"bus": "yes", "highway": "bus_stop", "name": "Lauderdale Road / Eskdale Road", "name:en": "Lauderdale Road / Eskdale Road", "name:mi": "Te Huarahi o Lauderdale m\u0101 Te Huarahi o Eskdale", "network": "AT", "network:wikidata": "Q4819567", "public_transport": "platform", "ref": "4208"}}, {"type": "node", "id": 3259548714, "lat": -36.7936089, "lon": 174.7087261, "tags": {"bus": "yes", "highway": "bus_stop", "name": "Verbena Road", "name:en": "Verbena Road", "name:mi": "Te Huarahi o Verbena", "network": "AT", "network:wikidata": "Q4819567", "public_transport": "platform", "ref": "4218", "shelter": "yes"}}, {"type": "node", "id": 3259548715, "lat": -36.7937603, "lon": 174.7086963, "tags": {"bus": "yes", "highway": "bus_stop", "name": "Verbena Road", "name:en": "Verbena Road", "name:mi": "Te Huarahi o Verbena", "network": "AT", "network:wikidata": "Q4819567", "public_transport": "platform", "ref": "4073", "shelter": "no"}}, {"type": "node", "id": 3259548737, "lat": -36.7942875, "lon": 174.7099724, "tags": {"access": "no", "bus": "yes", "highway": "bus_stop", "name": "Verbana Road", "name:en": "Verbana Road", "name:mi": "Te Huarahi o Verbana", "network": "AT", "network:wikidata": "Q4819567", "note": "AT has incorrect spelling here", "public_transport": "platform", "ref": "4262", "school_bus": "designated"}}, {"type": "node", "id": 3259548738, "lat": -36.7944481, "lon": 174.7008127, "tags": {"bus": "yes", "highway": "bus_stop", "name": "Birkdale Road / Eskdale Road", "name:en": "Birkdale Road / Eskdale Road", "name:mi": "Te Huarahi o Birkdale m\u0101 Te Huarahi o Eskdale", "network": "AT", "network:wikidata": "Q4819567", "public_transport": "platform", "ref": "4170"}}, {"type": "node", "id": 3259548741, "lat": -36.7947719, "lon": 174.700941, "tags": {"bus": "yes", "highway": "bus_stop", "name": "Birkdale Road / Eskdale Road", "name:en": "Birkdale Road / Eskdale Road", "name:mi": "Te Huarahi o Birkdale m\u0101 Te Huarahi o Eskdale", "network": "AT", "network:wikidata": "Q4819567", "public_transport": "platform", "ref": "4055"}}, {"type": "node", "id": 3259548769, "lat": -36.7976335, "lon": 174.7092289, "tags": {"bus": "yes", "highway": "bus_stop", "name": "154 Verbena Road", "name:en": "154 Verbena Road", "name:mi": "154 ki te Huarahi o Verbena", "network": "AT", "network:wikidata": "Q4819567", "public_transport": "platform", "ref": "4192", "shelter": "no"}}, {"type": "node", "id": 3259548772, "lat": -36.7977058, "lon": 174.7155024, "tags": {"access": "no", "bus": "yes", "highway": "bus_stop", "name": "Hobby Avenue", "name:en": "Hobby Avenue", "name:mi": "Te Arah\u0101ngai o Hobby", "network": "AT", "network:wikidata": "Q4819567", "public_transport": "platform", "ref": "4264", "school_bus": "designated", "shelter": "no"}}, {"type": "node", "id": 3259548774, "lat": -36.7978834, "lon": 174.7010609, "tags": {"bus": "yes", "highway": "bus_stop", "name": "Tiri Tiri Road", "name:en": "Tiri Tiri Road", "name:mi": "Te Huarahi o Tiri Tiri", "network": "AT", "network:wikidata": "Q4819567", "public_transport": "platform", "ref": "4057"}}, {"type": "node", "id": 3259548793, "lat": -36.7984365, "lon": 174.709403, "tags": {"bus": "yes", "highway": "bus_stop", "name": "91 Verbena Road", "name:en": "91 Verbena Road", "name:mi": "91 ki te Huarahi o Verbena", "network": "AT", "network:wikidata": "Q4819567", "public_transport": "platform", "ref": "4389", "shelter": "yes"}}, {"type": "node", "id": 3259548806, "lat": -36.8002689, "lon": 174.7093181, "tags": {"bus": "yes", "highway": "bus_stop", "name": "Castleton Street", "name:en": "Castleton Street", "name:mi": "Te Tiriti o Castleton", "network": "AT", "network:wikidata": "Q4819567", "public_transport": "platform", "ref": "4190", "shelter": "no"}}, {"type": "node", "id": 3259548812, "lat": -36.8010368, "lon": 174.7094627, "tags": {"bus": "yes", "departures_board": "timetable", "highway": "bus_stop", "name": "Castleton Street", "name:en": "Castleton Street", "name:mi": "Te Tiriti o Castleton", "network": "AT", "network:wikidata": "Q4819567", "public_transport": "platform", "ref": "4381", "shelter": "yes"}}, {"type": "node", "id": 3259548814, "lat": -36.8018344, "lon": 174.7033076, "tags": {"bus": "yes", "highway": "bus_stop", "name": "Stott Avenue", "name:en": "Stott Avenue", "name:mi": "Te Arah\u0101ngai o Stott", "network": "AT", "network:wikidata": "Q4819567", "public_transport": "platform", "ref": "4174", "shelter": "no"}}, {"type": "node", "id": 3259548815, "lat": -36.8024389, "lon": 174.7088402, "tags": {"bus": "yes", "highway": "bus_stop", "name": "46 Verbena Road", "name:en": "46 Verbena Road", "name:mi": "46 ki te Huarahi o Verbena", "network": "AT", "network:wikidata": "Q4819567", "public_transport": "platform", "ref": "4188"}}, {"type": "node", "id": 3259548816, "lat": -36.8027508, "lon": 174.708673, "tags": {"bus": "yes", "highway": "bus_stop", "name": "41 Verbena Road", "name:en": "41 Verbena Road", "name:mi": "41 ki te Huarahi o Verbena", "network": "AT", "network:wikidata": "Q4819567", "public_transport": "platform", "ref": "4307"}}, {"type": "node", "id": 3259548818, "lat": -36.8038769, "lon": 174.7039501, "tags": {"bus": "yes", "highway": "bus_stop", "name": "Gatman Street", "name:en": "Gatman Street", "name:mi": "Te Tiriti o Gatman", "network": "AT", "network:wikidata": "Q4819567", "public_transport": "platform", "ref": "4176", "shelter": "yes"}}, {"type": "node", "id": 3259548819, "lat": -36.8039355, "lon": 174.7040956, "tags": {"bus": "yes", "highway": "bus_stop", "name": "Gatman Street", "name:en": "Gatman Street", "name:mi": "Te Tiriti o Gatman", "network": "AT", "network:wikidata": "Q4819567", "public_transport": "platform", "ref": "4061", "shelter": "yes"}}, {"type": "node", "id": 3259548832, "lat": -36.8058305, "lon": 174.7067013, "tags": {"bus": "yes", "highway": "bus_stop", "name": "Verran Road", "name:en": "Verran Road", "name:mi": "Te Huarahi o Verran", "network": "AT", "network:wikidata": "Q4819567", "public_transport": "platform", "ref": "4186"}}, {"type": "node", "id": 3259548833, "lat": -36.8057826, "lon": 174.7068097, "tags": {"bus": "yes", "highway": "bus_stop", "name": "Verran Road", "name:en": "Verran Road", "name:mi": "Te Huarahi o Verran", "network": "AT", "network:wikidata": "Q4819567", "public_transport": "platform", "ref": "4339", "shelter": "yes"}}, {"type": "node", "id": 3259548840, "lat": -36.8062937, "lon": 174.705929, "tags": {"bus": "yes", "highway": "bus_stop", "name": "Verrans Corner", "network": "AT", "network:wikidata": "Q4819567", "public_transport": "platform", "ref": "4021", "shelter": "yes"}}, {"type": "node", "id": 3259548850, "lat": -36.8064211, "lon": 174.7055222, "tags": {"bus": "yes", "capacity": "2", "highway": "bus_stop", "name": "Verrans Corner", "network": "AT", "network:wikidata": "Q4819567", "public_transport": "platform", "ref": "4134", "shelter": "yes"}}, {"type": "node", "id": 3259548974, "lat": -36.8069191, "lon": 174.6972041, "tags": {"bus": "yes", "highway": "bus_stop", "name": "Kia Ora Road", "name:en": "Kia Ora Road", "name:mi": "Te Huarahi o Kia Ora", "network": "AT", "network:wikidata": "Q4819567", "public_transport": "platform", "ref": "4027", "shelter": "yes"}}, {"type": "node", "id": 3259548996, "lat": -36.8070862, "lon": 174.69678, "tags": {"bus": "yes", "highway": "bus_stop", "name": "Kia Ora Road", "name:en": "Kia Ora Road", "name:mi": "Te Huarahi o Kia Ora", "network": "AT", "network:wikidata": "Q4819567", "public_transport": "platform", "ref": "4140", "shelter": "yes"}}, {"type": "node", "id": 3259549017, "lat": -36.8078775, "lon": 174.703123, "tags": {"bus": "yes", "highway": "bus_stop", "name": "Monte Cassino Place", "name:en": "Monte Cassino Place", "name:mi": "Te Aramutu o Monte Cassino", "network": "AT", "network:wikidata": "Q4819567", "public_transport": "platform", "ref": "4023", "shelter": "yes"}}, {"type": "node", "id": 3259549024, "lat": -36.8083914, "lon": 174.7026311, "tags": {"bus": "yes", "highway": "bus_stop", "name": "Monte Cassino Place", "name:en": "Monte Cassino Place", "name:mi": "Te Aramutu o Monte Cassino", "network": "AT", "network:wikidata": "Q4819567", "public_transport": "platform", "ref": "4136", "shelter": "no"}}, {"type": "node", "id": 3259549025, "lat": -36.8082472, "lon": 174.7071677, "tags": {"bus": "yes", "highway": "bus_stop", "name": "Kauri Road", "name:en": "Kauri Road", "name:mi": "Te Huarahi o Kauri", "network": "AT", "network:wikidata": "Q4819567", "public_transport": "platform", "ref": "4132", "shelter": "no"}}, {"type": "node", "id": 3259549036, "lat": -36.80894, "lon": 174.7005656, "tags": {"bus": "yes", "highway": "bus_stop", "name": "Island Bay Road", "name:en": "Island Bay Road", "name:mi": "Te Huarahi o Island Bay", "network": "AT", "network:wikidata": "Q4819567", "public_transport": "platform", "ref": "4025", "shelter": "yes"}}, {"type": "node", "id": 3259549038, "lat": -36.8089363, "lon": 174.7001668, "tags": {"bus": "yes", "highway": "bus_stop", "name": "Island Bay Road", "name:en": "Island Bay Road", "name:mi": "Te Huarahi o Island Bay", "network": "AT", "network:wikidata": "Q4819567", "public_transport": "platform", "ref": "4138", "shelter": "yes"}}, {"type": "node", "id": 3259549087, "lat": -36.810256, "lon": 174.7097117, "tags": {"bus": "yes", "highway": "bus_stop", "name": "Balmain Road", "name:en": "Balmain Road", "name:mi": "Te Huarahi o Balmain", "network": "AT", "network:wikidata": "Q4819567", "public_transport": "platform", "ref": "4015", "shelter": "yes"}}, {"type": "node", "id": 3259549091, "lat": -36.8101571, "lon": 174.7095233, "tags": {"bus": "yes", "highway": "bus_stop", "name": "Balmain Road", "name:en": "Balmain Road", "name:mi": "Te Huarahi o Balmain", "network": "AT", "network:wikidata": "Q4819567", "public_transport": "platform", "ref": "4130", "shelter": "yes"}}, {"type": "node", "id": 3259549098, "lat": -36.8107104, "lon": 174.7154998, "tags": {"bus": "yes", "highway": "bus_stop", "name": "Roseberry Avenue", "name:en": "Roseberry Avenue", "name:mi": "Te Arah\u0101ngai o Roseberry", "network": "AT", "network:wikidata": "Q4819567", "public_transport": "platform", "ref": "4019"}}, {"type": "node", "id": 3259549100, "lat": -36.8107947, "lon": 174.7142986, "tags": {"bus": "yes", "highway": "bus_stop", "name": "Roseberry Avenue", "name:en": "Roseberry Avenue", "name:mi": "Te Arah\u0101ngai o Roseberry", "network": "AT", "network:wikidata": "Q4819567", "public_transport": "platform", "ref": "4210"}}, {"type": "node", "id": 3259549102, "lat": -36.8108182, "lon": 174.6959317, "tags": {"bus": "yes", "highway": "bus_stop", "public_transport": "platform"}}, {"type": "node", "id": 3259549104, "lat": -36.8108886, "lon": 174.7113215, "tags": {"bus": "yes", "highway": "bus_stop", "name": "New World Birkenhead", "network": "AT", "network:wikidata": "Q4819567", "public_transport": "platform", "ref": "4013", "shelter": "yes"}}, {"type": "node", "id": 3259549109, "lat": -36.8109365, "lon": 174.695879, "tags": {"bus": "yes", "highway": "bus_stop", "public_transport": "platform"}}, {"type": "node", "id": 3259549113, "lat": -36.8110449, "lon": 174.7259412, "tags": {"bus": "yes", "highway": "bus_stop", "name": "Highbury Shops", "name:en": "Highbury Shops", "name:mi": "Ng\u0101 Toa o Highbury", "network": "AT", "network:wikidata": "Q4819567", "public_transport": "platform", "ref": "3901"}}, {"type": "node", "id": 3259549125, "lat": -36.8114458, "lon": 174.7198157, "tags": {"bus": "yes", "highway": "bus_stop", "name": "Willow Avenue", "name:en": "Willow Avenue", "name:mi": "Te Arah\u0101ngai o Willow", "network": "AT", "network:wikidata": "Q4819567", "public_transport": "platform", "ref": "4110"}}, {"type": "node", "id": 3259549133, "lat": -36.8117932, "lon": 174.7233417, "tags": {"bus": "yes", "highway": "bus_stop", "name": "Birkenhead Square", "name:en": "Birkenhead Square", "name:mi": "Te Tapawh\u0101 o Birkenhead", "network": "AT", "network:wikidata": "Q4819567", "public_transport": "platform", "ref": "3983"}}, {"type": "node", "id": 3259549135, "lat": -36.8120008, "lon": 174.7239856, "tags": {"bus": "yes", "highway": "bus_stop", "name": "Birkenhead Square", "name:en": "Birkenhead Square", "name:mi": "Te Tapawh\u0101 o Birkenhead", "network": "AT", "network:wikidata": "Q4819567", "public_transport": "platform", "ref": "4106", "shelter": "yes"}}, {"type": "node", "id": 3259580518, "lat": -36.7999, "lon": 174.7241911, "tags": {"bench": "yes", "bin": "yes", "bus": "yes", "highway": "bus_stop", "lit": "yes", "name": "McDowell Crescent", "network": "AT", "network:wikidata": "Q4819567", "public_transport": "platform", "ref": "3893", "shelter": "yes", "tactile_paving": "no"}}, {"type": "node", "id": 3259580547, "lat": -36.8118114, "lon": 174.7097099, "tags": {"bench": "no", "bin": "no", "bus": "yes", "highway": "bus_stop", "lit": "no", "name": "Mokoia Road", "name:en": "Mokoia Road", "name:mi": "Te Huarahi o Mokoia", "network": "AT", "network:wikidata": "Q4819567", "public_transport": "platform", "ref": "4456", "shelter": "no", "tactile_paving": "no"}}, {"type": "node", "id": 3259580548, "lat": -36.8118717, "lon": 174.7095994, "tags": {"bench": "no", "bin": "no", "bus": "yes", "highway": "bus_stop", "lit": "no", "name": "Mokoia Road", "name:en": "Mokoia Road", "name:mi": "Te Huarahi o Mokoia", "network": "AT", "network:wikidata": "Q4819567", "public_transport": "platform", "ref": "4449", "shelter": "no", "tactile_paving": "no"}}, {"type": "node", "id": 3259580550, "lat": -36.8126812, "lon": 174.7189554, "tags": {"bus": "yes", "highway": "bus_stop", "name": "Calman Place", "name:en": "Calman Place", "name:mi": "Te Aramutu o Calman", "network": "AT", "network:wikidata": "Q4819567", "public_transport": "platform", "ref": "3985"}}, {"type": "node", "id": 3259583181, "lat": -36.8141442, "lon": 174.715395, "tags": {"bus": "yes", "highway": "bus_stop", "name": "Heaton Grove", "network": "AT", "network:wikidata": "Q4819567", "public_transport": "platform", "ref": "3991"}}, {"type": "node", "id": 3259583183, "lat": -36.814907, "lon": 174.7079074, "tags": {"bench": "no", "bin": "no", "bus": "yes", "highway": "bus_stop", "lit": "no", "name": "Chelsea Kindergarten", "network": "AT", "network:wikidata": "Q4819567", "public_transport": "platform", "ref": "4126", "shelter": "no", "tactile_paving": "no"}}, {"type": "node", "id": 3259583185, "lat": -36.8153031, "lon": 174.7308321, "tags": {"bus": "yes", "highway": "bus_stop", "name": "Le Roy Terrace", "network": "AT", "network:wikidata": "Q4819567", "public_transport": "platform", "ref": "4265", "shelter": "no"}}, {"type": "node", "id": 3259583189, "lat": -36.8161551, "lon": 174.7179939, "tags": {"bus": "yes", "highway": "bus_stop", "name": "Blundell Place", "name:en": "Blundell Place", "name:mi": "Te Aramutu o Blundell", "network": "AT", "network:wikidata": "Q4819567", "public_transport": "platform", "ref": "3987"}}, {"type": "node", "id": 3259583190, "lat": -36.8164121, "lon": 174.7176741, "tags": {"bus": "yes", "highway": "bus_stop", "name": "Blundell Place", "name:en": "Blundell Place", "name:mi": "Te Aramutu o Blundell", "network": "AT", "network:wikidata": "Q4819567", "public_transport": "platform", "ref": "4114"}}, {"type": "node", "id": 3259583191, "lat": -36.8165419, "lon": 174.7098806, "tags": {"bus": "yes", "highway": "bus_stop", "name": "Portsea Place", "name:en": "Portsea Place", "name:mi": "Te Aramutu o Portsea", "network": "AT", "network:wikidata": "Q4819567", "public_transport": "platform", "ref": "4118"}}, {"type": "node", "id": 3259583196, "lat": -36.8172183, "lon": 174.7325768, "tags": {"bench": "no", "bin": "no", "bus": "yes", "highway": "bus_stop", "name": "Rugby Road", "name:en": "Rugby Road", "name:mi": "Te Huarahi o Rugby", "network": "AT", "network:wikidata": "Q4819567", "public_transport": "platform", "ref": "3977", "shelter": "no"}}, {"type": "node", "id": 3259583201, "lat": -36.8170565, "lon": 174.732326, "tags": {"bench": "no", "bus": "yes", "highway": "bus_stop", "name": "Rugby Road", "name:en": "Rugby Road", "name:mi": "Te Huarahi o Rugby", "network": "AT", "network:wikidata": "Q4819567", "public_transport": "platform", "ref": "4104", "shelter": "no"}}, {"type": "node", "id": 3259583202, "lat": -36.8172864, "lon": 174.7080018, "tags": {"bus": "yes", "highway": "bus_stop", "name": "Chelsea Primary School", "network": "AT", "network:wikidata": "Q4819567", "public_transport": "platform", "ref": "4124"}}, {"type": "node", "id": 3259583208, "lat": -36.8174855, "lon": 174.7079559, "tags": {"bus": "yes", "highway": "bus_stop", "name": "Chelsea Primary School", "network": "AT", "network:wikidata": "Q4819567", "public_transport": "platform", "ref": "4001"}}, {"type": "node", "id": 3259583212, "lat": -36.8179636, "lon": 174.7110659, "tags": {"bus": "yes", "highway": "bus_stop", "name": "Harper Street", "name:en": "Harper Street", "name:mi": "Te Tiriti o Harper", "network": "AT", "network:wikidata": "Q4819567", "public_transport": "platform", "ref": "3995"}}, {"type": "node", "id": 3259583221, "lat": -36.8196435, "lon": 174.7366201, "tags": {"bus": "yes", "highway": "bus_stop", "name": "Awanui Street", "name:en": "Awanui Street", "name:mi": "Te Tiriti o Awanui", "network": "AT", "network:wikidata": "Q4819567", "public_transport": "platform", "ref": "4100", "shelter": "no"}}, {"type": "node", "id": 3259583225, "lat": -36.81984, "lon": 174.7370389, "tags": {"bus": "yes", "highway": "bus_stop", "name": "Awanui Street", "name:en": "Awanui Street", "name:mi": "Te Tiriti o Awanui", "network": "AT", "network:wikidata": "Q4819567", "public_transport": "platform", "ref": "4091", "shelter": "no"}}, {"type": "node", "id": 3259583228, "lat": -36.8202186, "lon": 174.7081501, "tags": {"bus": "yes", "highway": "bus_stop", "name": "Bragato Place", "name:en": "Bragato Place", "name:mi": "Te Aramutu o Bragato", "network": "AT", "network:wikidata": "Q4819567", "public_transport": "platform", "ref": "4122"}}, {"type": "node", "id": 3259583283, "lat": -36.8228598, "lon": 174.7335717, "tags": {"bus": "yes", "highway": "bus_stop", "name": "Birkenhead Wharf", "network": "AT", "network:wikidata": "Q4819567", "public_transport": "platform", "ref": "3973", "shelter": "yes"}}, {"type": "node", "id": 3259583294, "lat": -36.8229277, "lon": 174.7337114}, {"type": "node", "id": 3259583296, "lat": -36.822954, "lon": 174.734066}, {"type": "node", "id": 3259583298, "lat": -36.8229862, "lon": 174.7336305}, {"type": "node", "id": 3259583299, "lat": -36.8229882, "lon": 174.7336712}, {"type": "node", "id": 3259583300, "lat": -36.8230078, "lon": 174.7336726}, {"type": "node", "id": 3259583301, "lat": -36.8230175, "lon": 174.7336877}, {"type": "node", "id": 3259583303, "lat": -36.8230099, "lon": 174.7341445}, {"type": "node", "id": 3259583304, "lat": -36.8230263, "lon": 174.7338439}, {"type": "node", "id": 3259583305, "lat": -36.8230374, "lon": 174.7339781}, {"type": "node", "id": 3261192081, "lat": -36.8161699, "lon": 174.7454332, "tags": {"bus": "yes", "highway": "bus_stop", "name": "Queen Street / Stafford Road Shops", "name:en": "Queen Street / Stafford Road Shops", "name:mi": "Te Tiriti o Queen m\u0101 Ng\u0101 Toa o Te Huarahi o Stafford", "network": "AT", "network:wikidata": "Q4819567", "public_transport": "platform", "ref": "4090", "shelter": "yes"}}, {"type": "node", "id": 3261192082, "lat": -36.816369, "lon": 174.7455333, "tags": {"bus": "yes", "highway": "bus_stop", "name": "Queen Street / Stafford Road Shops", "name:en": "Queen Street / Stafford Road Shops", "name:mi": "Te Tiriti o Queen m\u0101 Ng\u0101 Toa o Te Huarahi o Stafford", "network": "AT", "network:wikidata": "Q4819567", "public_transport": "platform", "ref": "3965", "shelter": "no"}}, {"type": "node", "id": 3263003857, "lat": -36.8102624, "lon": 174.7910037, "tags": {"bus": "yes", "description": "glass", "highway": "bus_stop", "name": "Montgomery Avenue", "name:en": "Montgomery Avenue", "name:mi": "Te Arah\u0101ngai o Montgomery", "network": "AT", "network:wikidata": "Q4819567", "operator": "Auckland Transport", "public_transport": "platform", "ref": "3399", "shelter": "yes"}}, {"type": "node", "id": 3263003859, "lat": -36.7945809, "lon": 174.7767286, "tags": {"bus": "yes", "highway": "bus_stop", "name": "Cameron Street", "name:en": "Cameron Street", "name:mi": "Te Tiriti o Cameron", "network": "AT", "network:wikidata": "Q4819567", "public_transport": "platform", "ref": "3416"}}, {"type": "node", "id": 3263003860, "lat": -36.794712, "lon": 174.7765678, "tags": {"bench": "yes", "bin": "no", "bus": "yes", "highway": "bus_stop", "lit": "yes", "name": "Cameron Street", "name:en": "Cameron Street", "name:mi": "Te Tiriti o Cameron", "network": "AT", "network:wikidata": "Q4819567", "public_transport": "platform", "ref": "3447", "shelter": "yes", "tactile_paving": "yes"}}, {"type": "node", "id": 3263007263, "lat": -36.7961958, "lon": 174.7777711, "tags": {"bus": "yes", "highway": "bus_stop", "name": "Hauraki Corner", "name:en": "Hauraki Corner", "name:mi": "Te Kokonga o Hauraki", "network": "AT", "network:wikidata": "Q4819567", "public_transport": "platform", "ref": "3387"}}, {"type": "node", "id": 3263007266, "lat": -36.799801, "lon": 174.7725838, "tags": {"bus": "yes", "highway": "bus_stop", "name": "Hart Road", "name:en": "Hart Road", "name:mi": "Te Huarahi o Hart", "network": "AT", "network:wikidata": "Q4819567", "public_transport": "platform", "ref": "3545"}}, {"type": "node", "id": 3263007269, "lat": -36.8003768, "lon": 174.786369, "tags": {"bus": "yes", "highway": "bus_stop", "name": "Wilson School", "name:en": "Wilson School", "name:mi": "Te Kura o Wilson", "network": "AT", "network:wikidata": "Q4819567", "public_transport": "platform", "ref": "3393", "shelter": "yes"}}, {"type": "node", "id": 3263007270, "lat": -36.8009094, "lon": 174.786769, "tags": {"bus": "yes", "capacity": "2", "highway": "bus_stop", "name": "Wilson School", "name:en": "Wilson School", "name:mi": "Te Kura o Wilson", "network": "AT", "network:wikidata": "Q4819567", "public_transport": "platform", "ref": "3422", "shelter": "yes"}}, {"type": "node", "id": 3263007272, "lat": -36.8009463, "lon": 174.7748378, "tags": {"bus": "yes", "highway": "bus_stop", "name": "Norman Road", "name:en": "Norman Road", "name:mi": "Te Huarahi o Norman", "network": "AT", "network:wikidata": "Q4819567", "public_transport": "platform", "ref": "3543"}}, {"type": "node", "id": 3263007273, "lat": -36.8012962, "lon": 174.7708617, "tags": {"bus": "yes", "highway": "bus_stop", "name": "Charles Street", "name:en": "Charles Street", "name:mi": "Te Tiriti o Charles", "network": "AT", "network:wikidata": "Q4819567", "public_transport": "platform", "ref": "3539"}}, {"type": "node", "id": 3263007279, "lat": -36.8019434, "lon": 174.7752892, "tags": {"bench": "no", "bin": "no", "bus": "yes", "highway": "bus_stop", "lit": "no", "name": "Sydney Street", "name:en": "Sydney Street", "name:mi": "Te Tiriti o Sydney", "network": "AT", "network:wikidata": "Q4819567", "public_transport": "platform", "ref": "3541", "shelter": "no", "tactile_paving": "no"}}, {"type": "node", "id": 3263007280, "lat": -36.8018929, "lon": 174.7872151, "tags": {"bus": "yes", "capacity": "3", "highway": "bus_stop", "name": "Takapuna Grammar School", "name:en": "Takapuna Grammar School", "name:mi": "Te Kura Tuarua o Takapuna", "network": "AT", "network:wikidata": "Q4819567", "public_transport": "platform", "ref": "3652", "shelter": "yes"}}, {"type": "node", "id": 3263007287, "lat": -36.8025056, "lon": 174.7836143, "tags": {"bench": "yes", "bin": "no", "bus": "yes", "highway": "bus_stop", "lit": "yes", "name": "Northboro Road / Eversleigh Road", "name:en": "Northboro Road / Eversleigh Road", "name:mi": "Te Huarahi o Northboro m\u0101 Te Huarahi o Eversleigh", "network": "AT", "network:wikidata": "Q4819567", "public_transport": "platform", "ref": "3556", "shelter": "yes", "tactile_paving": "yes"}}, {"type": "node", "id": 3263007288, "lat": -36.8026046, "lon": 174.7836072, "tags": {"bench": "yes", "bin": "yes", "bus": "yes", "highway": "bus_stop", "lit": "yes", "name": "Northboro Road / Eversleigh Road", "name:en": "Northboro Road / Eversleigh Road", "name:mi": "Te Huarahi o Northboro m\u0101 Te Huarahi o Eversleigh", "network": "AT", "network:wikidata": "Q4819567", "public_transport": "platform", "ref": "3531", "shelter": "yes", "tactile_paving": "yes"}}, {"type": "node", "id": 3263007289, "lat": -36.8026658, "lon": 174.7735294, "tags": {"bus": "yes", "highway": "bus_stop", "name": "Walter Street / Jutland Road", "name:en": "Walter Street / Jutland Road", "name:mi": "Te Tiriti o Walter m\u0101 Te Huarahi o Jutland", "network": "AT", "network:wikidata": "Q4819567", "public_transport": "platform", "ref": "3537"}}, {"type": "node", "id": 3263007295, "lat": -36.8036879, "lon": 174.7838396, "tags": {"bench": "yes", "bin": "yes", "bus": "yes", "highway": "bus_stop", "lit": "yes", "name": "Rutherford Street", "name:en": "Rutherford Street", "name:mi": "Te Tiriti o Rutherford", "network": "AT", "network:wikidata": "Q4819567", "public_transport": "platform", "ref": "3529", "shelter": "no", "tactile_paving": "no"}}, {"type": "node", "id": 3263007301, "lat": -36.804136, "lon": 174.783586, "tags": {"bench": "yes", "bin": "no", "bus": "yes", "highway": "bus_stop", "lit": "yes", "name": "Rutherford Street", "name:en": "Rutherford Street", "name:mi": "Te Tiriti o Rutherford", "network": "AT", "network:wikidata": "Q4819567", "public_transport": "platform", "ref": "3554", "shelter": "no", "tactile_paving": "no"}}, {"type": "node", "id": 3263007305, "lat": -36.8044315, "lon": 174.7882726, "tags": {"bus": "yes", "highway": "bus_stop", "name": "Belmont Intermediate School", "network": "AT", "network:wikidata": "Q4819567", "public_transport": "platform", "ref": "3395", "shelter": "yes"}}, {"type": "node", "id": 3263007309, "lat": -36.805298, "lon": 174.7830512, "tags": {"bus": "yes", "highway": "bus_stop", "name": "Creamer Avenue / Eversleigh Road", "name:en": "Creamer Avenue / Eversleigh Road", "name:mi": "Te Arah\u0101ngai o Creamer m\u0101 Te Huarahi o Eversleigh", "network": "AT", "network:wikidata": "Q4819567", "public_transport": "platform", "ref": "3552", "shelter": "no"}}, {"type": "node", "id": 3263007310, "lat": -36.8053337, "lon": 174.7880499, "tags": {"bus": "yes", "highway": "bus_stop", "name": "Bardia Street / Lake Road", "name:en": "Bardia Street / Lake Road", "network": "AT", "network:wikidata": "Q4819567", "public_transport": "platform", "ref": "3548"}}, {"type": "node", "id": 3263007311, "lat": -36.8053939, "lon": 174.7888717, "tags": {"bus": "yes", "highway": "bus_stop", "name": "Winscombe Street", "name:en": "Winscombe Street", "name:mi": "Te Tiriti o Winscombe", "network": "AT", "network:wikidata": "Q4819567", "public_transport": "platform", "ref": "3424", "shelter": "yes"}}, {"type": "node", "id": 3263007313, "lat": -36.8053907, "lon": 174.7830121, "tags": {"bus": "yes", "highway": "bus_stop", "name": "Creamer Avenue / Eversleigh Road", "name:en": "Creamer Avenue / Eversleigh Road", "name:mi": "Te Arah\u0101ngai o Creamer m\u0101 Te Huarahi o Eversleigh", "network": "AT", "network:wikidata": "Q4819567", "public_transport": "platform", "ref": "3525", "shelter": "yes"}}, {"type": "node", "id": 3263007315, "lat": -36.8058483, "lon": 174.7860343, "tags": {"bus": "yes", "highway": "bus_stop", "name": "Coronation Street", "name:en": "Coronation Street", "name:mi": "Te Tiriti o Coronation", "network": "AT", "network:wikidata": "Q4819567", "public_transport": "platform", "ref": "3527"}}, {"type": "node", "id": 3263007316, "lat": -36.8061018, "lon": 174.7854921, "tags": {"bus": "yes", "highway": "bus_stop", "name": "Coronation Street", "name:en": "Coronation Street", "name:mi": "Te Tiriti o Coronation", "network": "AT", "network:wikidata": "Q4819567", "public_transport": "platform", "ref": "3550"}}, {"type": "node", "id": 3263007318, "lat": -36.8066682, "lon": 174.7893215, "tags": {"bus": "yes", "highway": "bus_stop", "name": "Corella Road", "name:en": "Corella Road", "name:mi": "Te Huarahi o Corella", "network": "AT", "network:wikidata": "Q4819567", "note": "The name is misspelled by AT", "public_transport": "platform", "ref": "3397", "shelter": "yes"}}, {"type": "node", "id": 3263007320, "lat": -36.807104, "lon": 174.795591, "tags": {"access": "no", "bus": "yes", "highway": "bus_stop", "name": "Williamson Avenue", "name:en": "Williamson Avenue", "name:mi": "Te Arah\u0101ngai o Williamson", "network": "AT", "network:wikidata": "Q4819567", "public_transport": "platform", "ref": "3497", "school_bus": "designated"}}, {"type": "node", "id": 3263007333, "lat": -36.8085703, "lon": 174.7894536, "tags": {"bus": "yes", "highway": "bus_stop", "name": "Moana Avenue", "name:en": "Moana Avenue", "name:mi": "Te Arah\u0101ngai o Moana", "network": "AT", "network:wikidata": "Q4819567", "operator": "Auckland Transport", "public_transport": "platform", "ref": "3546", "shelter": "yes"}}, {"type": "node", "id": 3263007335, "lat": -36.8087428, "lon": 174.7894022, "tags": {"bus": "yes", "highway": "bus_stop", "name": "Moana Avenue", "name:en": "Moana Avenue", "name:mi": "Te Arah\u0101ngai o Moana", "network": "AT", "network:wikidata": "Q4819567", "operator": "Auckland Transport", "public_transport": "platform", "ref": "3523", "shelter": "yes"}}, {"type": "node", "id": 3263007338, "lat": -36.8097417, "lon": 174.7869375, "tags": {"bus": "yes", "description": "glass", "highway": "bus_stop", "name": "Preston Avenue", "name:en": "Preston Avenue", "name:mi": "Te Arah\u0101ngai o Preston", "network": "AT", "network:wikidata": "Q4819567", "operator": "Auckland Transport", "public_transport": "platform", "ref": "3544", "shelter": "yes"}}, {"type": "node", "id": 3263007339, "lat": -36.8099877, "lon": 174.7910224, "tags": {"bus": "yes", "highway": "bus_stop", "name": "Montgomery Avenue", "name:en": "Montgomery Avenue", "name:mi": "Te Arah\u0101ngai o Montgomery", "network": "AT", "network:wikidata": "Q4819567", "operator": "Auckland Transport", "public_transport": "platform", "ref": "3426", "shelter": "yes"}}, {"type": "node", "id": 3263007343, "lat": -36.8109355, "lon": 174.784376, "tags": {"bus": "yes", "description": "glass", "highway": "bus_stop", "name": "Leander Road", "name:en": "Leander Road", "name:mi": "Te Huarahi o Leander", "network": "AT", "network:wikidata": "Q4819567", "operator": "Auckland Transport", "public_transport": "platform", "ref": "3542", "shelter": "yes"}}, {"type": "node", "id": 3263007346, "lat": -36.8115358, "lon": 174.7834832, "tags": {"bus": "yes", "description": "glass", "highway": "bus_stop", "name": "Leander Road", "name:en": "Leander Road", "name:mi": "Te Huarahi o Leander", "network": "AT", "network:wikidata": "Q4819567", "operator": "Auckland Transport", "public_transport": "platform", "ref": "3519", "shelter": "yes"}}, {"type": "node", "id": 3263007348, "lat": -36.8121704, "lon": 174.7985064, "tags": {"bus": "yes", "description": "wooden", "highway": "bus_stop", "name": "Handley Avenue", "name:en": "Handley Avenue", "name:mi": "Te Arah\u0101ngai o Handley", "network": "AT", "network:wikidata": "Q4819567", "operator": "Auckland Transport", "public_transport": "platform", "ref": "3518", "shelter": "yes"}}, {"type": "node", "id": 3263007351, "lat": -36.8123115, "lon": 174.7977012, "tags": {"bus": "yes", "description": "glass", "highway": "bus_stop", "name": "Merani Street", "name:en": "Merani Street", "name:mi": "Te Tiriti o Merani", "network": "AT", "network:wikidata": "Q4819567", "operator": "Auckland Transport", "public_transport": "platform", "ref": "3487", "shelter": "yes"}}, {"type": "node", "id": 3263007352, "lat": -36.8124277, "lon": 174.7951582, "tags": {"bus": "yes", "highway": "bus_stop", "name": "Wicklow Road", "name:en": "Wicklow Road", "name:mi": "Te Huarahi o Wicklow", "network": "AT", "network:wikidata": "Q4819567", "operator": "Auckland Transport", "public_transport": "platform", "ref": "3514", "shelter": "no"}}, {"type": "node", "id": 3263007353, "lat": -36.8125087, "lon": 174.7952192, "tags": {"bus": "yes", "highway": "bus_stop", "name": "Wicklow Road", "name:en": "Wicklow Road", "name:mi": "Te Huarahi o Wicklow", "network": "AT", "network:wikidata": "Q4819567", "operator": "Auckland Transport", "public_transport": "platform", "ref": "3483", "shelter": "no"}}, {"type": "node", "id": 3263007354, "lat": -36.8126078, "lon": 174.7929314, "tags": {"bus": "yes", "description": "wooden", "highway": "bus_stop", "name": "Old Lake Road / Fraser Road", "name:en": "Old Lake Road / Fraser Road", "name:mi": "Te Huarahi o Old Lake m\u0101 Te Huarahi o Fraser", "network": "AT", "network:wikidata": "Q4819567", "operator": "Auckland Transport", "public_transport": "platform", "ref": "3512", "shelter": "yes"}}, {"type": "node", "id": 3263007355, "lat": -36.8125501, "lon": 174.8009473, "tags": {"back_door_boarding": "no", "bus": "yes", "highway": "bus_stop", "name": "Narrow Neck Beach", "network": "AT", "network:wikidata": "Q4819567", "operator": "Auckland Transport", "public_transport": "platform", "ref": "3520", "shelter": "yes"}}, {"type": "node", "id": 3263007356, "lat": -36.8126928, "lon": 174.7928456, "tags": {"bus": "yes", "description": "wooden", "highway": "bus_stop", "name": "Old Lake Road / Fraser Road", "name:en": "Old Lake Road / Fraser Road", "name:mi": "Te Huarahi o Old Lake m\u0101 Te Huarahi o Fraser", "network": "AT", "network:wikidata": "Q4819567", "operator": "Auckland Transport", "public_transport": "platform", "ref": "3481", "shelter": "yes"}}, {"type": "node", "id": 3263007359, "lat": -36.8131496, "lon": 174.7923453, "tags": {"bus": "yes", "highway": "bus_stop", "name": "Kawerau Avenue", "network": "AT", "network:wikidata": "Q4819567", "operator": "Auckland Transport", "public_transport": "platform", "ref": "3401", "shelter": "yes"}}, {"type": "node", "id": 3263007362, "lat": -36.8133432, "lon": 174.7926138, "tags": {"bus": "yes", "highway": "bus_stop", "name": "Kawerau Avenue", "network": "AT", "network:wikidata": "Q4819567", "operator": "Auckland Transport", "public_transport": "platform", "ref": "3428"}}, {"type": "node", "id": 3263007364, "lat": -36.8135067, "lon": 174.8012905, "tags": {"bus": "yes", "highway": "bus_stop", "name": "Narrow Neck Beach", "network": "AT", "network:wikidata": "Q4819567", "operator": "Auckland Transport", "public_transport": "platform", "ref": "3489", "shelter": "yes"}}, {"type": "node", "id": 3263007365, "lat": -36.8142477, "lon": 174.7905571, "tags": {"bus": "yes", "highway": "bus_stop", "name": "17 Kawerau Avenue", "name:en": "17 Kawerau Avenue", "name:mi": "17 ki te Arah\u0101ngai o Kawerau", "network": "AT", "network:wikidata": "Q4819567", "operator": "Auckland Transport", "public_transport": "platform", "ref": "3479"}}, {"type": "node", "id": 3263007366, "lat": -36.8152205, "lon": 174.773657, "tags": {"bus": "yes", "description": "glass", "highway": "bus_stop", "name": "Balfour Street", "name:en": "Balfour Street", "name:mi": "Te Tiriti o Balfour", "network": "AT", "network:wikidata": "Q4819567", "operator": "Auckland Transport", "public_transport": "platform", "ref": "3536", "shelter": "yes"}}, {"type": "node", "id": 3263007367, "lat": -36.815221, "lon": 174.7742967, "tags": {"bus": "yes", "highway": "bus_stop", "name": "Balfour Street", "name:en": "Balfour Street", "name:mi": "Te Tiriti o Balfour", "network": "AT", "network:wikidata": "Q4819567", "operator": "Auckland Transport", "public_transport": "platform", "ref": "3511"}}, {"type": "node", "id": 3263007368, "lat": -36.8155995, "lon": 174.7902141, "tags": {"bus": "yes", "highway": "bus_stop", "name": "Regent Street", "name:en": "Regent Street", "name:mi": "Te Tiriti o Regent", "network": "AT", "network:wikidata": "Q4819567", "operator": "Auckland Transport", "public_transport": "platform", "ref": "3510"}}, {"type": "node", "id": 3263007369, "lat": -36.8156303, "lon": 174.7715373, "tags": {"bus": "yes", "description": "glass", "highway": "bus_stop", "name": "Lansdowne Street", "name:en": "Lansdowne Street", "name:mi": "Te Tiriti o Lansdowne", "network": "AT", "network:wikidata": "Q4819567", "operator": "Auckland Transport", "public_transport": "platform", "ref": "3534", "shelter": "yes"}}, {"type": "node", "id": 3263007370, "lat": -36.8156392, "lon": 174.7904088, "tags": {"bus": "yes", "highway": "bus_stop", "name": "Regent Street", "name:en": "Regent Street", "name:mi": "Te Tiriti o Regent", "network": "AT", "network:wikidata": "Q4819567", "operator": "Auckland Transport", "public_transport": "platform", "ref": "3477"}}, {"type": "node", "id": 3263007371, "lat": -36.8157615, "lon": 174.7937561, "tags": {"access": "no", "bus": "yes", "description": "wooden", "highway": "bus_stop", "name": "Ng\u0101taringa Road", "name:en": "Ng\u0101taringa Road", "name:mi": "Te Huarahi o Ng\u0101taringa", "network": "AT", "network:wikidata": "Q4819567", "public_transport": "platform", "ref": "3430", "school_bus": "designated", "shelter": "yes"}}, {"type": "node", "id": 3263007372, "lat": -36.8159929, "lon": 174.7703075, "tags": {"bus": "yes", "highway": "bus_stop", "name": "O'Neill's Park", "name:en": "O'Neill's Park", "name:mi": "Te Papa R\u0113hia o O'Neill", "network": "AT", "network:wikidata": "Q4819567", "operator": "Auckland Transport", "public_transport": "platform", "ref": "3507"}}, {"type": "node", "id": 3263007374, "lat": -36.8160316, "lon": 174.769447, "tags": {"bus": "yes", "highway": "bus_stop", "name": "O'Neill's Park", "name:en": "O'Neill's Park", "name:mi": "Te Papa R\u0113hia o O'Neill", "network": "AT", "network:wikidata": "Q4819567", "operator": "Auckland Transport", "public_transport": "platform", "ref": "3532", "shelter": "yes"}}, {"type": "node", "id": 3263007376, "lat": -36.8166053, "lon": 174.7891645, "tags": {"bus": "yes", "description": "wooden", "highway": "bus_stop", "name": "Wesley Street", "name:en": "Wesley Street", "name:mi": "Te Tiriti o Wesley", "network": "AT", "network:wikidata": "Q4819567", "operator": "Auckland Transport", "public_transport": "platform", "ref": "3508", "shelter": "yes"}}, {"type": "node", "id": 3263007377, "lat": -36.8166637, "lon": 174.7911496, "tags": {"bus": "yes", "highway": "bus_stop", "name": "William Sanders Retirement Village", "network": "AT", "network:wikidata": "Q4819567", "operator": "Auckland Transport", "public_transport": "platform", "ref": "3506"}}, {"type": "node", "id": 3263007378, "lat": -36.8167715, "lon": 174.7891185, "tags": {"back_door_boarding": "no", "bus": "yes", "highway": "bus_stop", "name": "Wesley Street", "name:en": "Wesley Street", "name:mi": "Te Tiriti o Wesley", "network": "AT", "network:wikidata": "Q4819567", "operator": "Auckland Transport", "public_transport": "platform", "ref": "3475"}}, {"type": "node", "id": 3263007379, "lat": -36.8168397, "lon": 174.7908895, "tags": {"bus": "yes", "highway": "bus_stop", "name": "William Sanders Retirement Village", "network": "AT", "network:wikidata": "Q4819567", "operator": "Auckland Transport", "public_transport": "platform", "ref": "3473", "wheelchair": "no"}}, {"type": "node", "id": 3263007381, "lat": -36.8209883, "lon": 174.7672423, "tags": {"bus": "yes", "highway": "bus_stop", "name": "Bayswater Terminal", "network": "AT", "network:wikidata": "Q4819567", "note": "no wheelchair access - bus door opens on the wrong side, onto the road", "operator": "Auckland Transport", "public_transport": "platform", "ref": "3530", "wheelchair": "no"}}, {"type": "node", "id": 3263007384, "lat": -36.8212768, "lon": 174.8053816, "tags": {"bus": "yes", "highway": "bus_stop", "name": "Vauxhall Road", "name:en": "Vauxhall Road", "name:mi": "Te Huarahi o Vauxhall", "network": "AT", "network:wikidata": "Q4819567", "operator": "Auckland Transport", "public_transport": "platform", "ref": "3476"}}, {"type": "node", "id": 3263007386, "lat": -36.8223465, "lon": 174.7972123, "tags": {"bus": "yes", "description": "glass", "highway": "bus_stop", "name": "Mozeley Avenue", "name:en": "Mozeley Avenue", "name:mi": "Te Arah\u0101ngai o Mozeley", "network": "AT", "network:wikidata": "Q4819567", "operator": "Auckland Transport", "public_transport": "platform", "ref": "3403", "shelter": "yes"}}, {"type": "node", "id": 3263007387, "lat": -36.8226116, "lon": 174.8039662, "tags": {"bus": "yes", "highway": "bus_stop", "name": "Cambria Road", "name:en": "Cambria Road", "name:mi": "Te Huarahi o Cambria", "network": "AT", "network:wikidata": "Q4819567", "operator": "Auckland Transport", "public_transport": "platform", "ref": "3465"}}, {"type": "node", "id": 3263007388, "lat": -36.8228944, "lon": 174.7976266, "tags": {"bus": "yes", "description": "wooden", "highway": "bus_stop", "name": "Mozeley Avenue", "name:en": "Mozeley Avenue", "name:mi": "Te Arah\u0101ngai o Mozeley", "network": "AT", "network:wikidata": "Q4819567", "operator": "Auckland Transport", "public_transport": "platform", "ref": "3432", "shelter": "yes"}}, {"type": "node", "id": 3263007389, "lat": -36.8228719, "lon": 174.8031228, "tags": {"bus": "yes", "highway": "bus_stop", "name": "Cambria Road", "name:en": "Cambria Road", "name:mi": "Te Huarahi o Cambria", "network": "AT", "network:wikidata": "Q4819567", "operator": "Auckland Transport", "public_transport": "platform", "ref": "3500"}}, {"type": "node", "id": 3263007390, "lat": -36.8229486, "lon": 174.8060146, "tags": {"access": "no", "bus": "yes", "highway": "bus_stop", "name": "Mata\u012b Road", "name:en": "Mata\u012b Road", "name:mi": "Te Huarahi o Mata\u012b", "network": "AT", "network:wikidata": "Q4819567", "public_transport": "platform", "ref": "3437", "school_bus": "designated"}}, {"type": "node", "id": 3263007392, "lat": -36.8235404, "lon": 174.8063279, "tags": {"bus": "yes", "highway": "bus_stop", "name": "Mata\u012b Road", "name:en": "Mata\u012b Road", "name:mi": "Te Huarahi o Mata\u012b", "network": "AT", "network:wikidata": "Q4819567", "operator": "Auckland Transport", "public_transport": "platform", "ref": "3474"}}, {"type": "node", "id": 3263007394, "lat": -36.8236755, "lon": 174.8012125, "tags": {"bus": "yes", "highway": "bus_stop", "name": "Church Street", "name:en": "Church Street", "name:mi": "Te Tiriti o Church", "network": "AT", "network:wikidata": "Q4819567", "note": "AT has a typo in this station's name", "official_name": "Church Sreet", "operator": "Auckland Transport", "public_transport": "platform", "ref": "3467", "wheelchair": "no"}}, {"type": "node", "id": 3263007395, "lat": -36.8241285, "lon": 174.8004907, "tags": {"bus": "yes", "highway": "bus_stop", "name": "Church Street", "name:en": "Church Street", "name:mi": "Te Tiriti o Church", "network": "AT", "network:wikidata": "Q4819567", "note": "AT has a typo in this station's name", "official_name": "Church Sreet", "operator": "Auckland Transport", "public_transport": "platform", "ref": "3502", "shelter": "yes"}}, {"type": "node", "id": 3263007396, "lat": -36.824494, "lon": 174.7992865, "tags": {"bus": "yes", "highway": "bus_stop", "name": "Albert Road / Lake Road", "name:en": "Albert Road / Lake Road", "name:mi": "Te Huarahi o Albert m\u0101 Te Huarahi o Lake", "network": "AT", "network:wikidata": "Q4819567", "operator": "Auckland Transport", "public_transport": "platform", "ref": "3469"}}, {"type": "node", "id": 3269978631, "lat": -36.7421397, "lon": 174.7009715, "tags": {"bus": "yes", "highway": "bus_stop", "name": "Airborne Road", "name:en": "Airborne Road", "name:mi": "Te Huarahi o Airborne", "network": "AT", "network:wikidata": "Q4819567", "public_transport": "platform", "ref": "4143"}}, {"type": "node", "id": 3269978632, "lat": -36.742168, "lon": 174.7014372, "tags": {"bus": "yes", "highway": "bus_stop", "name": "Airborne Road", "name:en": "Airborne Road", "name:mi": "Te Huarahi o Airborne", "network": "AT", "network:wikidata": "Q4819567", "public_transport": "platform", "ref": "4242"}}, {"type": "node", "id": 3269978635, "lat": -36.7474432, "lon": 174.6988943, "tags": {"bench": "yes", "bin": "yes", "bus": "yes", "highway": "bus_stop", "lit": "yes", "name": "Douglas Alexander Parade", "network": "AT", "network:wikidata": "Q4819567", "public_transport": "platform", "ref": "3784", "shelter": "yes", "tactile_paving": "no"}}, {"type": "node", "id": 3269978636, "lat": -36.7475302, "lon": 174.6991743, "tags": {"bench": "yes", "bin": "no", "bus": "yes", "highway": "bus_stop", "lit": "yes", "name": "Douglas Alexander Parade", "network": "AT", "network:wikidata": "Q4819567", "public_transport": "platform", "ref": "3625", "shelter": "yes", "tactile_paving": "no"}}, {"type": "node", "id": 3269978639, "lat": -36.7503599, "lon": 174.7015902, "tags": {"bench": "yes", "bin": "yes", "bus": "yes", "highway": "bus_stop", "lit": "yes", "name": "Armstrong Road", "name:en": "Armstrong Road", "name:mi": "Te Huarahi o Armstrong", "network": "AT", "network:wikidata": "Q4819567", "public_transport": "platform", "ref": "3782", "shelter": "yes", "tactile_paving": "no"}}, {"type": "node", "id": 3269978640, "lat": -36.7505858, "lon": 174.7115256, "tags": {"bench": "yes", "bin": "no", "bus": "yes", "highway": "bus_stop", "lit": "yes", "name": "Rosedale Park North", "name:en": "Rosedale Park North", "name:mi": "Te Papa R\u0113hia o Rosedale kei te Raki", "network": "AT", "network:wikidata": "Q4819567", "public_transport": "platform", "ref": "3792", "shelter": "yes", "tactile_paving": "no"}}, {"type": "node", "id": 3269978641, "lat": -36.7508003, "lon": 174.7025583, "tags": {"bench": "yes", "bin": "no", "bus": "yes", "highway": "bus_stop", "lit": "yes", "name": "Armstrong Road", "name:en": "Armstrong Road", "name:mi": "Te Huarahi o Armstrong", "network": "AT", "network:wikidata": "Q4819567", "public_transport": "platform", "ref": "3623", "shelter": "yes", "tactile_paving": "no"}}, {"type": "node", "id": 3269978642, "lat": -36.7509663, "lon": 174.7138351, "tags": {"bench": "yes", "bin": "yes", "bus": "yes", "highway": "bus_stop", "lit": "yes", "name": "Saturn Place", "name:en": "Saturn Place", "name:mi": "Te Aramutu o Saturn", "network": "AT", "network:wikidata": "Q4819567", "public_transport": "platform", "ref": "3635", "shelter": "yes", "tactile_paving": "no"}}, {"type": "node", "id": 3269978643, "lat": -36.7514, "lon": 174.7144745, "tags": {"bench": "yes", "bin": "no", "bus": "yes", "highway": "bus_stop", "lit": "yes", "name": "Saturn Place", "name:en": "Saturn Place", "name:mi": "Te Aramutu o Saturn", "network": "AT", "network:wikidata": "Q4819567", "public_transport": "platform", "ref": "3794", "shelter": "yes", "tactile_paving": "no"}}, {"type": "node", "id": 3269978644, "lat": -36.751429, "lon": 174.7033326, "tags": {"bench": "yes", "bin": "no", "bus": "yes", "highway": "bus_stop", "lit": "yes", "name": "Te Kea Place", "name:en": "Te Kea Place", "name:mi": "Te Aramutu o Te Kea", "network": "AT", "network:wikidata": "Q4819567", "public_transport": "platform", "ref": "3780", "shelter": "yes", "tactile_paving": "no"}}, {"type": "node", "id": 3269978645, "lat": -36.7517334, "lon": 174.7040721, "tags": {"bench": "yes", "bin": "yes", "bus": "yes", "highway": "bus_stop", "lit": "yes", "name": "Te Kea Place", "name:en": "Te Kea Place", "name:mi": "Te Aramutu o Te Kea", "network": "AT", "network:wikidata": "Q4819567", "public_transport": "platform", "ref": "3621", "shelter": "yes", "tactile_paving": "no"}}, {"type": "node", "id": 3269978646, "lat": -36.7520655, "lon": 174.7067717, "tags": {"bench": "yes", "bin": "no", "bus": "yes", "highway": "bus_stop", "lit": "yes", "name": "Bush Road / William Pickering Drive", "name:en": "Bush Road / William Pickering Drive", "name:mi": "Te Huarahi o Bush m\u0101 Te Ara \u0100whio o William Pickering", "network": "AT", "network:wikidata": "Q4819567", "public_transport": "platform", "ref": "3615", "shelter": "yes", "tactile_paving": "no"}}, {"type": "node", "id": 3269978647, "lat": -36.7519695, "lon": 174.7066758, "tags": {"bench": "yes", "bin": "yes", "bus": "yes", "highway": "bus_stop", "lit": "yes", "name": "Bush Road / William Pickering Drive", "name:en": "Bush Road / William Pickering Drive", "name:mi": "Te Huarahi o Bush m\u0101 Te Ara \u0100whio o William Pickering", "network": "AT", "network:wikidata": "Q4819567", "public_transport": "platform", "ref": "3722", "shelter": "yes", "tactile_paving": "no"}}, {"type": "node", "id": 3269978648, "lat": -36.7524826, "lon": 174.7050311, "tags": {"bench": "yes", "bin": "yes", "bus": "yes", "highway": "bus_stop", "lit": "yes", "name": "Beatrice Tinsley Crescent", "network": "AT", "network:wikidata": "Q4819567", "public_transport": "platform", "ref": "3778", "shelter": "yes", "tactile_paving": "no"}}, {"type": "node", "id": 3269978653, "lat": -36.7635997, "lon": 174.7048907, "tags": {"bus": "yes", "highway": "bus_stop", "name": "Emily Lane", "name:en": "Emily Lane", "name:mi": "Te Arak\u016biti o Emily", "network": "AT", "network:wikidata": "Q4819567", "public_transport": "platform", "ref": "3750"}}, {"type": "node", "id": 3269980921, "lat": -36.7707156, "lon": 174.6947907, "tags": {"bus": "yes", "highway": "bus_stop", "name": "Greenhithe Road", "name:en": "Greenhithe Road", "name:mi": "Te Huarahi o Greenhithe", "network": "AT", "network:wikidata": "Q4819567", "public_transport": "platform", "ref": "3754"}}, {"type": "node", "id": 3269980923, "lat": -36.7710841, "lon": 174.6944731, "tags": {"bus": "yes", "highway": "bus_stop", "name": "Greenhithe Road", "name:en": "Greenhithe Road", "name:mi": "Te Huarahi o Greenhithe", "network": "AT", "network:wikidata": "Q4819567", "public_transport": "platform", "ref": "3595"}}, {"type": "node", "id": 3298104178, "lat": -36.7604117, "lon": 174.7081042, "tags": {"bus": "yes", "highway": "bus_stop", "name": "Upper Harbour Drive", "name:en": "Upper Harbour Drive", "name:mi": "Te Ara \u0100whio o Upper Harbour", "network": "AT", "network:wikidata": "Q4819567", "public_transport": "platform", "ref": "3705"}}, {"type": "node", "id": 3298104179, "lat": -36.7614753, "lon": 174.7102399, "tags": {"bus": "yes", "highway": "bus_stop", "name": "Westminster Christian School", "name:en": "Westminster Christian School", "network": "AT", "network:wikidata": "Q4819567", "public_transport": "platform", "ref": "3699"}}, {"type": "node", "id": 3298104186, "lat": -36.761912, "lon": 174.7159809, "tags": {"bus": "yes", "highway": "bus_stop", "name": "Bronzewing Terrace", "network": "AT", "network:wikidata": "Q4819567", "public_transport": "platform", "ref": "3824"}}, {"type": "node", "id": 3298104201, "lat": -36.7620869, "lon": 174.7109139, "tags": {"bus": "yes", "highway": "bus_stop", "name": "Westminster Christian School", "name:en": "Westminster Christian School", "network": "AT", "network:wikidata": "Q4819567", "public_transport": "platform", "ref": "3862"}}, {"type": "node", "id": 3298104219, "lat": -36.7627624, "lon": 174.7164457, "tags": {"bus": "yes", "highway": "bus_stop", "name": "Albany Highway / Unsworth Drive", "network": "AT", "network:wikidata": "Q4819567", "public_transport": "platform", "ref": "3663"}}, {"type": "node", "id": 3298104221, "lat": -36.7628505, "lon": 174.7156253, "tags": {"bus": "yes", "highway": "bus_stop", "name": "Albany Highway / Unsworth Drive", "network": "AT", "network:wikidata": "Q4819567", "public_transport": "platform", "ref": "3697"}}, {"type": "node", "id": 3298104224, "lat": -36.7649287, "lon": 174.7180968, "tags": {"bus": "yes", "highway": "bus_stop", "name": "Sunset Road", "name:en": "Sunset Road", "name:mi": "Te Huarahi o Sunset", "network": "AT", "network:wikidata": "Q4819567", "public_transport": "platform", "ref": "3860"}}, {"type": "node", "id": 3298104227, "lat": -36.7654956, "lon": 174.7191765, "tags": {"bus": "yes", "highway": "bus_stop", "name": "Sunset Road", "name:en": "Sunset Road", "name:mi": "Te Huarahi o Sunset", "network": "AT", "network:wikidata": "Q4819567", "public_transport": "platform", "ref": "3707", "shelter": "yes"}}, {"type": "node", "id": 3298104247, "lat": -36.7677878, "lon": 174.7199191, "tags": {"bench": "yes", "bin": "yes", "bus": "yes", "highway": "bus_stop", "name": "Glenfield Road / James Street", "name:en": "Glenfield Road / James Street", "name:mi": "Te Huarahi o Glenfield / Te Tiriti o James", "network": "AT", "network:wikidata": "Q4819567", "public_transport": "platform", "ref": "3400", "shelter": "yes"}}, {"type": "node", "id": 3298104248, "lat": -36.7679426, "lon": 174.7202425, "tags": {"bench": "yes", "bin": "no", "bus": "yes", "highway": "bus_stop", "name": "Glenfield Road / James Street", "name:en": "Glenfield Road / James Street", "name:mi": "Te Huarahi o Glenfield / Te Tiriti o James", "network": "AT", "network:wikidata": "Q4819567", "public_transport": "platform", "ref": "3709", "shelter": "yes"}}, {"type": "node", "id": 3298104371, "lat": -36.7696777, "lon": 174.7191963, "tags": {"bus": "yes", "highway": "bus_stop", "name": "Spinella Drive / James Street", "name:en": "Spinella Drive / James Street", "name:mi": "Te Ara \u0100whio o Spinella m\u0101 Te Tiriti o James", "network": "AT", "network:wikidata": "Q4819567", "public_transport": "platform", "ref": "3751", "shelter": "yes"}}, {"type": "node", "id": 3298104382, "lat": -36.770196, "lon": 174.7217399, "tags": {"bench": "yes", "bin": "yes", "bus": "yes", "highway": "bus_stop", "name": "Glenfield Road / Wairau Road", "name:en": "Glenfield Road / Wairau Road", "name:mi": "Te Huarahi o Glenfield m\u0101 Te Huarahi o Wairau", "network": "AT", "network:wikidata": "Q4819567", "public_transport": "platform", "ref": "4000", "shelter": "yes"}}, {"type": "node", "id": 3298104394, "lat": -36.7710771, "lon": 174.7169435, "tags": {"bus": "yes", "highway": "bus_stop", "name": "Fernwood Grove", "network": "AT", "network:wikidata": "Q4819567", "public_transport": "platform", "ref": "3753"}}, {"type": "node", "id": 3298104398, "lat": -36.7712218, "lon": 174.7217258, "tags": {"bus": "yes", "highway": "bus_stop", "name": "Glenfield Road / Wairau Road", "name:en": "Glenfield Road / Wairau Road", "name:mi": "Te Huarahi o Glenfield m\u0101 Te Huarahi o Wairau", "network": "AT", "network:wikidata": "Q4819567", "public_transport": "platform", "ref": "3871"}}, {"type": "node", "id": 3298104401, "lat": -36.7714955, "lon": 174.7056737, "tags": {"bus": "yes", "highway": "bus_stop", "name": "Bayview Community Centre", "network": "AT", "network:wikidata": "Q4819567", "public_transport": "platform", "ref": "3904"}}, {"type": "node", "id": 3298104412, "lat": -36.7725237, "lon": 174.708292, "tags": {"bus": "yes", "highway": "bus_stop", "name": "Bayview Road", "name:en": "Bayview Road", "name:mi": "Te Huarahi o Bayview", "network": "AT", "network:wikidata": "Q4819567", "public_transport": "platform", "ref": "3759"}}, {"type": "node", "id": 3298104418, "lat": -36.772682, "lon": 174.7139624, "tags": {"bus": "yes", "highway": "bus_stop", "name": "Laser Place", "name:en": "Laser Place", "name:mi": "Te Aramutu o Laser", "network": "AT", "network:wikidata": "Q4819567", "public_transport": "platform", "ref": "3755"}}, {"type": "node", "id": 3298104427, "lat": -36.7736308, "lon": 174.720682, "tags": {"bus": "yes", "highway": "bus_stop", "name": "Manuka Road", "name:en": "Manuka Road", "name:mi": "Te Huarahi o Manuka", "network": "AT", "network:wikidata": "Q4819567", "public_transport": "platform", "ref": "4002"}}, {"type": "node", "id": 3298104449, "lat": -36.7743956, "lon": 174.7214863, "tags": {"bench": "yes", "bin": "yes", "bus": "yes", "highway": "bus_stop", "name": "Hogans Road", "name:en": "Hogans Road", "name:mi": "Te Huarahi o Hogans", "network": "AT", "network:wikidata": "Q4819567", "public_transport": "platform", "ref": "3873", "shelter": "yes"}}, {"type": "node", "id": 3298104450, "lat": -36.7744158, "lon": 174.7185479, "tags": {"bus": "yes", "highway": "bus_stop", "name": "Elliott Avenue", "name:en": "Elliott Avenue", "name:mi": "Te Arah\u0101ngai o Elliott", "network": "AT", "network:wikidata": "Q4819567", "public_transport": "platform", "ref": "3777"}}, {"type": "node", "id": 3298104451, "lat": -36.7747421, "lon": 174.709582, "tags": {"bus": "yes", "highway": "bus_stop", "public_transport": "platform"}}, {"type": "node", "id": 3298104452, "lat": -36.7750274, "lon": 174.7155509, "tags": {"access": "no", "bus": "yes", "highway": "bus_stop", "name": "Manuka Primary School", "network": "AT", "network:wikidata": "Q4819567", "public_transport": "platform", "ref": "3908", "school_bus": "designated"}}, {"type": "node", "id": 3298104453, "lat": -36.7753064, "lon": 174.7125118, "tags": {"bus": "yes", "highway": "bus_stop", "name": "Bayview Road", "name:en": "Bayview Road", "name:mi": "Te Huarahi o Bayview", "network": "AT", "network:wikidata": "Q4819567", "public_transport": "platform", "ref": "3775"}}, {"type": "node", "id": 3298104454, "lat": -36.7753817, "lon": 174.7126711, "tags": {"bus": "yes", "highway": "bus_stop", "name": "Bayview Road", "name:en": "Bayview Road", "name:mi": "Te Huarahi o Bayview", "network": "AT", "network:wikidata": "Q4819567", "public_transport": "platform", "ref": "3906"}}, {"type": "node", "id": 3298104455, "lat": -36.7772034, "lon": 174.7040971, "tags": {"bus": "yes", "highway": "bus_stop", "name": "Houston Place", "network": "AT", "network:wikidata": "Q4819567", "public_transport": "platform", "ref": "3767"}},