{"version": 0.6, "generator": "Overpass API 0.7.62.8 e802775f", "osm3s": {"timestamp_osm_base": "2026-01-15T03:00:15Z", "copyright": "The data included in this document is from www.openstreetmap.org. The data is made available under ODbL."}, "elements": [{"type": "node", "id": 1614792567, "lat": 52.4986784, "lon": 13.3448851}, {"type": "node", "id": 1614792574, "lat": 52.4987993, "lon": 13.3449127}, {"type": "node", "id": 1614807989, "lat": 52.4984396, "lon": 13.344824}, {"type": "node", "id": 1614807990, "lat": 52.4984797, "lon": 13.3444003}, {"type": "node", "id": 2609583694, "lat": 52.4987794, "lon": 13.3336352, "tags": {"addr:city": "Berlin", "addr:country": "DE", "addr:housenumber": "36", "addr:postcode": "10719", "addr:street": "Schaperstra\u00dfe", "addr:suburb": "Wilmersdorf", "entrance": "yes"}}, {"type": "node", "id": 3229469511, "lat": 52.4984214, "lon": 13.3333279}, {"type": "node", "id": 3229469512, "lat": 52.4984214, "lon": 13.3333479}, {"type": "node", "id": 3229469521, "lat": 52.498468, "lon": 13.3333275}, {"type": "node", "id": 3229469530, "lat": 52.4985389, "lon": 13.3334914}, {"type": "node", "id": 3229469531, "lat": 52.4985393, "lon": 13.3331798}, {"type": "node", "id": 3229469540, "lat": 52.4985665, "lon": 13.3334148}, {"type": "node", "id": 3229469541, "lat": 52.4985711, "lon": 13.3334205}, {"type": "node", "id": 3229469548, "lat": 52.4985954, "lon": 13.3333542}, {"type": "node", "id": 3229469554, "lat": 52.4986404, "lon": 13.3336156}, {"type": "node", "id": 3229469569, "lat": 52.498701, "lon": 13.3334826}, {"type": "node", "id": 3229469575, "lat": 52.4987298, "lon": 13.333725}, {"type": "node", "id": 3229469576, "lat": 52.4987344, "lon": 13.3337302}, {"type": "node", "id": 3229469586, "lat": 52.4988282, "lon": 13.3335321}, {"type": "node", "id": 3904557221, "lat": 52.4773769, "lon": 13.3715695}, {"type": "node", "id": 3904557222, "lat": 52.4773945, "lon": 13.3733028}, {"type": "node", "id": 3904557223, "lat": 52.4774144, "lon": 13.3743432}, {"type": "node", "id": 3904557228, "lat": 52.4788036, "lon": 13.3723721}, {"type": "node", "id": 3904557229, "lat": 52.478827, "lon": 13.3715978}, {"type": "node", "id": 3904557230, "lat": 52.4788301, "lon": 13.372315}, {"type": "node", "id": 3904557231, "lat": 52.4788311, "lon": 13.3742867}, {"type": "node", "id": 5212888518, "lat": 52.4783421, "lon": 13.3743062}, {"type": "node", "id": 5212889125, "lat": 52.477942, "lon": 13.3743222}, {"type": "node", "id": 6208065699, "lat": 52.4988032, "lon": 13.3448687}, {"type": "node", "id": 6208065700, "lat": 52.498808, "lon": 13.3448698}, {"type": "node", "id": 6208065701, "lat": 52.4988203, "lon": 13.3447327}, {"type": "node", "id": 6208065702, "lat": 52.4988152, "lon": 13.3447315}, {"type": "node", "id": 6208065703, "lat": 52.4988371, "lon": 13.3444868}, {"type": "node", "id": 6208065704, "lat": 52.4984626, "lon": 13.3445907}, {"type": "node", "id": 6208065708, "lat": 52.4984524, "lon": 13.344682}, {"type": "node", "id": 6208065709, "lat": 52.4985025, "lon": 13.3448392}, {"type": "node", "id": 6208065719, "lat": 52.4986843, "lon": 13.3448849}, {"type": "node", "id": 10106883480, "lat": 52.4988299, "lon": 13.3445676}, {"type": "node", "id": 10106883481, "lat": 52.4988212, "lon": 13.3446641}, {"type": "way", "id": 26807602, "nodes": [3229469586, 3229469531, 3229469521, 3229469511, 3229469512, 3229469530, 3229469541, 3229469540, 3229469548, 3229469569, 3229469554, 3229469575, 3229469576, 2609583694, 3229469586], "tags": {"addr:city": "Berlin", "addr:housenumber": "36", "addr:postcode": "10719", "addr:street": "Schaperstra\u00dfe", "amenity": "hospital", "building": "hospital", "building:levels": "6", "healthcare": "hospital", "healthcare:speciality": "psychiatry", "name": "Oberberg Fachklinik", "official_name": "Oberberg Fachklinik Fasanenkiez Berlin (f\u00fcr Kinder & Jugendliche)", "operator": "Oberberg GmbH", "operator:type": "private", "website": "https://www.oberbergkliniken.de/fachkliniken/fasanenkiez-berlin"}}, {"type": "way", "id": 168967363, "nodes": [3904557230, 3904557228, 3904557231, 5212888518, 5212889125, 3904557223, 3904557222, 3904557221, 3904557229, 3904557230], "tags": {"addr:city": "Berlin", "addr:country": "DE", "addr:housenumber": "15", "addr:postcode": "12101", "addr:street": "W\u00fcsthoffstra\u00dfe", "addr:suburb": "Tempelhof", "amenity": "hospital", "contact:instagram": "https://www.instagram.com/sjk_fkh/", "denomination": "roman_catholic", "emergency": "yes", "healthcare": "hospital", "name": "St. Joseph Krankenhaus", "name:en": "St. Joseph Hospital", "name:nl": "St. Joseph Ziekenhuis", "operator:type": "religious", "phone": "+49 30 78820", "religion": "christian", "toilets:wheelchair": "yes", "website": "https://www.sjk.de/", "wheelchair": "yes", "wikidata": "Q50358759", "wikipedia": "de:St. Joseph Krankenhaus Berlin-Tempelhof"}}, {"type": "way", "id": 1104779811, "nodes": [1614792574, 6208065719, 1614792567, 6208065709, 1614807989, 6208065708, 6208065704, 1614807990, 6208065703, 10106883480, 10106883481, 6208065702, 6208065701, 6208065700, 6208065699, 1614792574], "tags": {"addr:city": "Berlin", "addr:country": "DE", "addr:housenumber": "23", "addr:postcode": "10777", "addr:street": "Fuggerstra\u00dfe", "amenity": "hospital", "contact:phone": "+49 30 236010", "contact:website": "https://klinik-schoeneberg.de/", "emergency": "no", "healthcare": "hospital", "healthcare:speciality": "anaesthetics;urology;plastic_surgery;surgery;orthopaedics", "name": "Klinik Sch\u00f6neberg", "operator": "Klinik Sch\u00f6neberg GmbH", "operator:type": "private"}}]}