{"version": 0.6, "generator": "Overpass API 0.7.62.8 e802775f", "osm3s": {"timestamp_osm_base": "2026-01-15T02:39:49Z", "copyright": "The data included in this document is from www.openstreetmap.org. The data is made available under ODbL."}, "elements": [{"type": "node", "id": 1520239123, "lat": 43.742837, "lon": 7.214231}, {"type": "node", "id": 1520239141, "lat": 43.742856, "lon": 7.214737}, {"type": "node", "id": 1520239150, "lat": 43.742921, "lon": 7.214227}, {"type": "node", "id": 1520239164, "lat": 43.742935, "lon": 7.214619}, {"type": "node", "id": 1520239167, "lat": 43.742944, "lon": 7.214733}, {"type": "node", "id": 1520239242, "lat": 43.743024, "lon": 7.214567}, {"type": "node", "id": 1520239259, "lat": 43.743025, "lon": 7.214616}, {"type": "node", "id": 1520239261, "lat": 43.743029, "lon": 7.214727}, {"type": "node", "id": 1520239267, "lat": 43.743033, "lon": 7.214769}, {"type": "node", "id": 1520239326, "lat": 43.743106, "lon": 7.214564}, {"type": "node", "id": 1520239347, "lat": 43.743114, "lon": 7.214766}, {"type": "node", "id": 1609011473, "lat": 43.7596162, "lon": 7.2212556, "tags": {"alt_name": "Les Petits Bouts", "amenity": "school", "name": "\u00c9cole maternelle Les Serraires", "operator:type": "public", "ref:UAI": "0061650L", "school:FR": "maternelle", "source": "data.gouv.fr:Minist\u00e8re de l'\u00c9ducation nationale, de la Jeunesse et de la Vie associative - 05/2012"}}, {"type": "node", "id": 1987205359, "lat": 43.7599729, "lon": 7.2209784, "tags": {"amenity": "school", "name": "\u00c9cole primaire Henri-Paul Girard - Les Serraires", "operator:type": "public", "ref:UAI": "0060225M", "school:FR": "\u00e9l\u00e9mentaire", "source": "data.gouv.fr:Minist\u00e8re de l'\u00c9ducation nationale, de la Jeunesse et de la Vie associative - 05/2012"}}, {"type": "node", "id": 6295456885, "lat": 43.7379617, "lon": 7.2372524}, {"type": "node", "id": 6295456886, "lat": 43.7379893, "lon": 7.2370523}, {"type": "node", "id": 6295456887, "lat": 43.7379292, "lon": 7.2368837}, {"type": "node", "id": 6295456888, "lat": 43.7373024, "lon": 7.2364702}, {"type": "node", "id": 6295456889, "lat": 43.7370312, "lon": 7.2370006}, {"type": "node", "id": 6295456890, "lat": 43.7371042, "lon": 7.2372793}, {"type": "node", "id": 6295456891, "lat": 43.7374631, "lon": 7.2373265}, {"type": "node", "id": 6295456892, "lat": 43.7376337, "lon": 7.2373086}, {"type": "way", "id": 138642436, "nodes": [1520239167, 1520239261, 1520239267, 1520239347, 1520239326, 1520239242, 1520239259, 1520239164, 1520239150, 1520239123, 1520239141, 1520239167], "tags": {"addr:city": "Nice", "addr:postcode": "06200", "addr:street": "Chemin de la Tour de Bellet", "amenity": "school", "building": "school", "height": "5", "name": "\u00c9cole primaire et maternelle de Saint-Roman de Bellet", "school:FR": "primaire", "source": "cadastre-dgi-fr source : Direction G\u00e9n\u00e9rale des Imp\u00f4ts - Cadastre. Mise \u00e0 jour : 2011"}}, {"type": "way", "id": 672282676, "nodes": [6295456885, 6295456886, 6295456887, 6295456888, 6295456889, 6295456890, 6295456891, 6295456892, 6295456885], "tags": {"amenity": "school", "name": "\u00c9cole primaire Saint-Pancrace", "operator:type": "public", "ref:UAI": "0060429J", "school:FR": "\u00e9l\u00e9mentaire", "source": "Minist\u00e8re de l'\u00c9ducation nationale et de la Jeunesse - juin 2020", "wikidata": "Q119894581"}}]}