{"version": 0.6, "generator": "Overpass API 0.7.62.8 e802775f", "osm3s": {"timestamp_osm_base": "2026-01-14T21:10:00Z", "copyright": "The data included in this document is from www.openstreetmap.org. The data is made available under ODbL."}, "elements": [{"type": "node", "id": 417975, "lat": 53.7968817, "lon": -1.4930329}, {"type": "node", "id": 417977, "lat": 53.7947015, "lon": -1.4949309}, {"type": "node", "id": 417979, "lat": 53.793603, "lon": -1.4963863}, {"type": "node", "id": 417988, "lat": 53.7923038, "lon": -1.4994888}, {"type": "node", "id": 417990, "lat": 53.7921318, "lon": -1.5000784}, {"type": "node", "id": 417994, "lat": 53.7912143, "lon": -1.5060282}, {"type": "node", "id": 417998, "lat": 53.7919847, "lon": -1.5128163}, {"type": "node", "id": 418000, "lat": 53.7929161, "lon": -1.5156335, "tags": {"railway": "switch"}}, {"type": "node", "id": 418009, "lat": 53.7965592, "lon": -1.5270757}, {"type": "node", "id": 418011, "lat": 53.795983, "lon": -1.5247668}, {"type": "node", "id": 418100, "lat": 53.7957685, "lon": -1.5378554}, {"type": "node", "id": 418105, "lat": 53.7952705, "lon": -1.5402972}, {"type": "node", "id": 419603, "lat": 53.7983661, "lon": -1.4916488}, {"type": "node", "id": 419605, "lat": 53.799539, "lon": -1.4899472}, {"type": "node", "id": 419607, "lat": 53.8005338, "lon": -1.4878443}, {"type": "node", "id": 30822586, "lat": 53.7996668, "lon": -1.5395438, "tags": {"bench": "no", "bin": "yes", "bus": "yes", "departures_board": "realtime", "highway": "bus_stop", "lit": "yes", "local_ref": "45010676", "name": "Victoria N", "naptan:AtcoCode": "450010676", "naptan:Bearing": "S", "naptan:CommonName": "U5 Vicar Lane", "naptan:Crossing": "Harrison Street", "naptan:Indicator": "Stop 45010676", "naptan:PlusbusZoneRef": "LEEDS", "naptan:ShortCommonName": "Vicar Lane U5", "naptan:Street": "Vicar Lane", "naptan:verified": "yes", "network": "Metro West Yorkshire", "network:wikidata": "Q7987043", "note": "2;3;3a", "public_transport": "platform", "ref": "45010676", "shelter": "yes", "source": "naptan_import", "tactile_paving": "no", "timetable": "yes"}}, {"type": "node", "id": 52049989, "lat": 53.7890704, "lon": -1.5460654, "tags": {"bench": "yes", "bus": "yes", "highway": "bus_stop", "kerb": "raised", "local_ref": "45013208", "name": "Meadow Road Vanguard House", "naptan:AtcoCode": "450013208", "naptan:Bearing": "N", "naptan:CommonName": "Meadow Road Vanguard House", "naptan:Crossing": "Meadow Lane", "naptan:Indicator": "Stop 45013208", "naptan:PlusbusZoneRef": "LEEDS", "naptan:ShortCommonName": "Victoria Road", "naptan:Street": "Meadow Road", "naptan:verified": "yes", "public_transport": "platform", "ref": "45013208", "shelter": "yes", "source": "naptan_import"}}, {"type": "node", "id": 52049994, "lat": 53.7890776, "lon": -1.5460689, "tags": {"bench": "yes", "bin": "yes", "bus": "yes", "highway": "bus_stop", "kerb": "raised", "lit": "yes", "local_ref": "45013258", "name": "Meadow Road Sweet Street", "naptan:AtcoCode": "450013258", "naptan:Bearing": "N", "naptan:CommonName": "Meadow Road Sweet Street", "naptan:Crossing": "Sweet Street", "naptan:Indicator": "Stop 45013258", "naptan:Landmark": "Business Park", "naptan:PlusbusZoneRef": "LEEDS", "naptan:ShortCommonName": "Victoria Rd Holbeck", "naptan:Street": "Meadow Road", "naptan:verified": "yes", "public_transport": "platform", "ref": "45013258", "shelter": "yes", "source": "naptan_import", "tactile_paving": "no"}}, {"type": "node", "id": 52841921, "lat": 53.8014048, "lon": -1.5431281, "tags": {"bench": "no", "bin": "no", "bus": "yes", "highway": "bus_stop", "lit": "yes", "local_ref": "45010917", "name": "Merrion D", "naptan:AtcoCode": "450010917", "naptan:Bearing": "NE", "naptan:CommonName": "L6 Leeds Wade Lane", "naptan:Crossing": "Belgrave Street", "naptan:Indicator": "Stop 45010917", "naptan:PlusbusZoneRef": "LEEDS", "naptan:ShortCommonName": "Wade Lane L6", "naptan:Street": "Wade Lane", "naptan:verified": "yes", "old_name": "L6 Leeds Wade Lane", "public_transport": "platform", "ref": "45010917", "shelter": "yes", "source": "naptan_import", "tactile_paving": "no"}}, {"type": "node", "id": 52841923, "lat": 53.8035579, "lon": -1.5400065, "tags": {"bench": "no", "bin": "yes", "bus": "yes", "highway": "bus_stop", "lit": "no", "local_ref": "45011151", "name": "Lovell Park Road Grafton Street", "naptan:AtcoCode": "450011151", "naptan:Bearing": "N", "naptan:CommonName": "Lovell Park Road Grafton Street", "naptan:Crossing": "Grafton Street", "naptan:Indicator": "Stop 45011151", "naptan:Landmark": "Halifax Building Society", "naptan:PlusbusZoneRef": "LEEDS", "naptan:ShortCommonName": "Grafton Street", "naptan:Street": "Lovell Park Road", "naptan:verified": "yes", "public_transport": "platform", "ref": "45011151", "shelter": "no", "source": "naptan_import", "tactile_paving": "no"}}, {"type": "node", "id": 52841929, "lat": 53.8044282, "lon": -1.5393057, "tags": {"bench": "yes", "bin": "no", "bus": "yes", "check_date:shelter": "2025-09-22", "highway": "bus_stop", "lit": "no", "local_ref": "45011137", "name": "Lovell Park Road Little London", "naptan:AtcoCode": "450011137", "naptan:Bearing": "S", "naptan:CommonName": "Lovell Park Road Little London", "naptan:Crossing": "Lovell Park hill", "naptan:Indicator": "Stop 45011137", "naptan:Landmark": "Halifax Building Society", "naptan:PlusbusZoneRef": "LEEDS", "naptan:ShortCommonName": "Lovell Park Hill", "naptan:Street": "Lovell Park Road", "naptan:verified": "yes", "public_transport": "platform", "ref": "45011137", "shelter": "yes", "source": "naptan_import", "tactile_paving": "no"}}, {"type": "node", "id": 52841930, "lat": 53.8051509, "lon": -1.5393448, "tags": {"bench": "yes", "bin": "no", "bus": "yes", "highway": "bus_stop", "lit": "yes", "local_ref": "45011154", "name": "Lovell Park Road", "naptan:AtcoCode": "450011154", "naptan:Bearing": "S", "naptan:CommonName": "Lovell Park Road", "naptan:Crossing": "Lovell Park Hill", "naptan:Indicator": "Stop 45011154", "naptan:Landmark": "Lloyds Banking Group", "naptan:PlusbusZoneRef": "LEEDS", "naptan:ShortCommonName": "Lovell Park Hill", "naptan:Street": "Lovell Park Road", "naptan:verified": "yes", "public_transport": "platform", "ref": "45011154", "shelter": "yes", "source": "naptan_import", "tactile_paving": "no"}}, {"type": "node", "id": 52866068, "lat": 53.815644, "lon": -1.5459004, "tags": {"bus": "yes", "highway": "bus_stop", "local_ref": "45011110", "name": "Meanwood Road / Buslingthorpe Lane", "naptan:AtcoCode": "450011110", "naptan:Bearing": "SE", "naptan:CommonName": "Meanwood Road Buslingthorpe Lane", "naptan:Crossing": "Buslingthorpe Lane", "naptan:Indicator": "Stop 45011110", "naptan:Landmark": "Filling Station", "naptan:PlusbusZoneRef": "LEEDS", "naptan:ShortCommonName": "Buslingthorpe Lane", "naptan:Street": "Meanwood Road", "naptan:verified": "yes", "public_transport": "platform", "ref": "45011110", "source": "naptan_import"}}, {"type": "node", "id": 52866109, "lat": 53.8103105, "lon": -1.5438828, "tags": {"bench": "yes", "bin": "no", "bus": "yes", "highway": "bus_stop", "lit": "yes", "local_ref": "45011131", "name": "Servia Hill Servia Road", "naptan:AtcoCode": "450011131", "naptan:Bearing": "SE", "naptan:CommonName": "Servia Hill Servia Road", "naptan:Crossing": "Servia Road", "naptan:Indicator": "Stop 45011131", "naptan:PlusbusZoneRef": "LEEDS", "naptan:ShortCommonName": "Servia Road", "naptan:Street": "Servia Hill", "naptan:verified": "yes", "public_transport": "platform", "ref": "45011131", "shelter": "yes", "source": "naptan_import", "tactile_paving": "no"}}, {"type": "node", "id": 52866124, "lat": 53.8080013, "lon": -1.5408798, "tags": {"bench": "yes", "bin": "no", "bus": "yes", "highway": "bus_stop", "local_ref": "45011136", "name": "Little London / Carlton Carr;Oatland Lane Carlton Hill", "naptan:AtcoCode": "450011136", "naptan:Bearing": "SE", "naptan:CommonName": "Oatland Lane Carlton Hill", "naptan:Crossing": "Carlton Hill", "naptan:Indicator": "Stop 45011136", "naptan:PlusbusZoneRef": "LEEDS", "naptan:ShortCommonName": "Carlton Hill", "naptan:Street": "Oatland Lane", "naptan:verified": "yes", "public_transport": "platform", "ref": "45011136", "shelter": "yes", "source": "naptan_import", "tactile_paving": "no"}}, {"type": "node", "id": 52866128, "lat": 53.8024827, "lon": -1.5409779, "tags": {"bench": "yes", "bin": "no", "bus": "yes", "highway": "bus_stop", "local_ref": "45011139", "name": "Merrion E", "naptan:AtcoCode": "450011139", "naptan:Bearing": "SW", "naptan:CommonName": "L9 Wade Lane", "naptan:Crossing": "Merrion Way", "naptan:Indicator": "Stop 45011139", "naptan:Landmark": "Yorkshire Bank", "naptan:PlusbusZoneRef": "LEEDS", "naptan:ShortCommonName": "Merrion Way", "naptan:Street": "Wade Lane", "naptan:verified": "yes", "old_name": "L9 Wade Lane", "public_transport": "platform", "ref": "45011139", "shelter": "yes", "source": "naptan_import", "tactile_paving": "no"}}, {"type": "node", "id": 52866138, "lat": 53.8000338, "lon": -1.5394694, "tags": {"bench": "no", "bin": "no", "bus": "yes", "departures_board": "realtime", "highway": "bus_stop", "lit": "yes", "local_ref": "45012971", "name": "Victoria M", "naptan:AtcoCode": "450012971", "naptan:Bearing": "S", "naptan:CommonName": "U3 Vicar Lane", "naptan:Crossing": "North Court", "naptan:Indicator": "Stop 45012971", "naptan:PlusbusZoneRef": "LEEDS", "naptan:ShortCommonName": "Vicar Lane U3", "naptan:Street": "Vicar Lane", "naptan:verified": "yes", "network": "Metro West Yorkshire", "network:wikidata": "Q7987043", "note": "7;7a;7s;51;52", "old_name": "U3 Vicar Lane;Vicar Lane U3", "public_transport": "platform", "ref": "45012971", "shelter": "no", "source": "naptan_import", "tactile_paving": "no", "timetable": "yes"}}, {"type": "node", "id": 52871164, "lat": 53.8034021, "lon": -1.5483494, "tags": {"bench": "no", "bin": "yes", "bus": "yes", "check_date:shelter": "2025-10-18", "highway": "bus_stop", "lit": "no", "local_ref": "45026534", "name": "Civic H", "naptan:AtcoCode": "450026534", "naptan:Bearing": "NE", "naptan:CommonName": "L7 Portland Way", "naptan:Crossing": "Portland Gate", "naptan:Indicator": "Stop 45026534", "naptan:Landmark": "Leeds Metropolitan University", "naptan:Notes": "Stop for Lds free city bus service,", "naptan:PlusbusZoneRef": "LEEDS", "naptan:ShortCommonName": "Portland Way L7", "naptan:Street": "Portland Way", "naptan:verified": "no", "old_name": "L7 Portland Way", "public_transport": "platform", "ref": "450026534", "shelter": "no", "source": "naptan_import", "tactile_paving": "no"}}, {"type": "node", "id": 52889940, "lat": 53.7962809, "lon": -1.5404036, "tags": {"bench": "yes", "bus": "yes", "covered": "yes", "demolished:highway": "bus_stop", "live_display": "yes", "local_ref": "45025323", "name": "K5 Leeds Corn Exchange", "naptan:AtcoCode": "450025323", "naptan:Bearing": "NE", "naptan:CommonName": "K5 Leeds Corn Exchange", "naptan:Crossing": "Crown Street", "naptan:Indicator": "Stop 45025323", "naptan:Landmark": "Corn Exchange Bus Point", "naptan:PlusbusZoneRef": "LEEDS", "naptan:ShortCommonName": "Corn Exchange K5", "naptan:Street": "Call Lane", "naptan:verified": "yes", "note": "stop closed, road works: buses stop at Corn Exchange H", "public_transport": "no", "shelter": "yes", "source": "naptan_import", "timetable": "yes"}}, {"type": "node", "id": 52889942, "lat": 53.7963164, "lon": -1.5403043, "tags": {"bus": "yes", "demolished:highway": "bus_stop", "live_display": "yes", "local_ref": "45025324", "name": "K6 Leeds Corn Exchange", "naptan:AtcoCode": "450025324", "naptan:Bearing": "NE", "naptan:CommonName": "K6 Leeds Corn Exchange", "naptan:Crossing": "Crown Street", "naptan:Indicator": "Stop 45025324", "naptan:Landmark": "Corn Exchange Bus Point", "naptan:PlusbusZoneRef": "LEEDS", "naptan:ShortCommonName": "Corn Exchange K6", "naptan:Street": "Call Lane", "naptan:verified": "yes", "note": "stop closed, road works: buses stop at Corn Exchange H", "public_transport": "no", "shelter": "yes", "source": "naptan_import", "timetable": "yes"}}, {"type": "node", "id": 54482776, "lat": 53.7868737, "lon": -1.5540459}, {"type": "node", "id": 54482779, "lat": 53.786108, "lon": -1.5521295}, {"type": "node", "id": 54482781, "lat": 53.7856937, "lon": -1.5504187}, {"type": "node", "id": 54482784, "lat": 53.785288, "lon": -1.5485587}, {"type": "node", "id": 54482787, "lat": 53.7849351, "lon": -1.5467487}, {"type": "node", "id": 54482790, "lat": 53.7848425, "lon": -1.5459728}, {"type": "node", "id": 54482793, "lat": 53.7846595, "lon": -1.5436171}, {"type": "node", "id": 54482796, "lat": 53.7842718, "lon": -1.5419212}, {"type": "node", "id": 54482797, "lat": 53.7840075, "lon": -1.541208}, {"type": "node", "id": 54482799, "lat": 53.7835642, "lon": -1.5403654}, {"type": "node", "id": 54482805, "lat": 53.7828335, "lon": -1.5394707}, {"type": "node", "id": 60197210, "lat": 53.7961724, "lon": -1.5344501}, {"type": "node", "id": 60197211, "lat": 53.7963279, "lon": -1.5334996}, {"type": "node", "id": 60197213, "lat": 53.7960113, "lon": -1.5354607}, {"type": "node", "id": 60197221, "lat": 53.7966699, "lon": -1.5313433}, {"type": "node", "id": 84445327, "lat": 53.8085789, "lon": -1.537487, "tags": {"bench": "no", "bin": "no", "bus": "yes", "check_date:shelter": "2025-05-01", "highway": "bus_stop", "local_ref": "45011114", "name": "Meanwood Road / Sheepscar Court", "naptan:AtcoCode": "450011114", "naptan:Bearing": "NW", "naptan:CommonName": "Meanwood Road Sheepscar Court", "naptan:Crossing": "Sheepscar Court", "naptan:Indicator": "Stop 45011114", "naptan:PlusbusZoneRef": "LEEDS", "naptan:ShortCommonName": "Sheepscar Court", "naptan:Street": "Meanwood Road", "naptan:verified": "yes", "public_transport": "platform", "ref": "45011114", "shelter": "no", "source": "naptan_import", "tactile_paving": "no"}}, {"type": "node", "id": 244322218, "lat": 53.7995107, "lon": -1.5484011, "tags": {"bench": "yes", "bus": "yes", "highway": "bus_stop", "live_display": "yes", "local_ref": "45010660", "name": "Civic Q", "naptan:AtcoCode": "450029167", "naptan:Bearing": "W", "naptan:CommonName": "The Headrow", "naptan:Crossing": "East Parade", "naptan:Indicator": "stop Y10", "naptan:NaptanCode": "45029167", "naptan:PlusbusZoneRef": "LEEDS", "naptan:ShortCommonName": "The Headrow Y10", "naptan:Street": "The Headrow", "naptan:verified": "no", "public_transport": "platform", "ref": "45029167", "shelter": "yes", "source": "naptan_import", "timetable": "yes"}}, {"type": "node", "id": 249263560, "lat": 53.805387, "lon": -1.5213466, "tags": {"bus": "yes", "highway": "bus_stop", "kerb": "raised", "local_ref": "45013988", "name": "St James Hospital Bexley Wing", "naptan:AtcoCode": "450013988", "naptan:Bearing": "NE", "naptan:CommonName": "St James Hospital Bexley Wing", "naptan:Crossing": "Museum Street", "naptan:Indicator": "Stop 45013988", "naptan:Landmark": "Bexley Wing Oncology Unit", "naptan:PlusbusZoneRef": "LEEDS", "naptan:ShortCommonName": "Bexley Wing", "naptan:Street": "Beckett Street", "naptan:verified": "no", "public_transport": "platform", "shelter": "yes", "source": "naptan_import"}}, {"type": "node", "id": 249294404, "lat": 53.7918732, "lon": -1.5242435, "tags": {"bench": "no", "bin": "no", "bus": "yes", "highway": "bus_stop", "lit": "yes", "name": "Ellerby Lane, Spring Close Street", "public_transport": "platform", "shelter": "no", "source": "yes", "tactile_paving": "no"}}, {"type": "node", "id": 249295192, "lat": 53.791284, "lon": -1.521399, "tags": {"bench": "yes", "bin": "yes", "bus": "yes", "highway": "bus_stop", "lit": "yes", "local_ref": "45024080", "name": "Dial Street Easy Road", "naptan:AtcoCode": "450024080", "naptan:Bearing": "SE", "naptan:CommonName": "Dial Street Easy Road", "naptan:Crossing": "Easy Road", "naptan:Indicator": "Stop 45024080", "naptan:PlusbusZoneRef": "LEEDS", "naptan:ShortCommonName": "Easy Road", "naptan:Street": "Dial Street", "naptan:verified": "yes", "public_transport": "platform", "ref": "45024080", "shelter": "yes", "source": "naptan_import;survey", "tactile_paving": "no"}}, {"type": "node", "id": 249295307, "lat": 53.7912496, "lon": -1.5215145, "tags": {"bench": "no", "bin": "no", "bus": "yes", "highway": "bus_stop", "lit": "yes", "local_ref": "45011992", "name": "Dial Street Easy Road", "naptan:AtcoCode": "450011992", "naptan:Bearing": "NW", "naptan:CommonName": "Dial Street Easy Road", "naptan:Crossing": "Easy Road", "naptan:Indicator": "Stop 45011992", "naptan:Notes": "Shelter in RTA 17/03 plate on L/C - Reinstatment 20/03Replacement fitted awaiting survey", "naptan:PlusbusZoneRef": "LEEDS", "naptan:ShortCommonName": "Easy Road", "naptan:Street": "Dial Street", "naptan:verified": "yes", "public_transport": "platform", "ref": "45011992", "shelter": "yes", "source": "naptan_import;survey", "tactile_paving": "no"}}, {"type": "node", "id": 249296133, "lat": 53.7903063, "lon": -1.5225707, "tags": {"bench": "no", "bin": "no", "bus": "yes", "highway": "bus_stop", "lit": "no", "local_ref": "45011994", "name": "Easy Road Cavalier Hill", "naptan:AtcoCode": "450011994", "naptan:Bearing": "NE", "naptan:CommonName": "Easy Road Cavalier Hill", "naptan:Crossing": "Easy Street", "naptan:Indicator": "Stop 45011994", "naptan:PlusbusZoneRef": "LEEDS", "naptan:ShortCommonName": "Easy Street", "naptan:Street": "Easy Road", "naptan:verified": "yes", "public_transport": "platform", "ref": "45011994", "shelter": "no", "source": "naptan_import;survey", "tactile_paving": "no"}}, {"type": "node", "id": 249298809, "lat": 53.7887961, "lon": -1.5221261, "tags": {"bus": "yes", "highway": "bus_stop", "local_ref": "45023882", "name": "Cross Green Lane Cavalier Approach", "naptan:AtcoCode": "450023882", "naptan:Bearing": "NW", "naptan:CommonName": "Cross Green Lane Cavalier Approach", "naptan:Crossing": "Cavalier Approach", "naptan:Indicator": "Stop 45023882", "naptan:Landmark": "Cross Green PH", "naptan:PlusbusZoneRef": "LEEDS", "naptan:ShortCommonName": "Cavalier Approach", "naptan:Street": "Cross Green Lane", "naptan:verified": "yes", "public_transport": "platform", "ref": "45023822", "source": "naptan_import;survey"}}, {"type": "node", "id": 249303909, "lat": 53.7881364, "lon": -1.5199714, "tags": {"bus": "yes", "highway": "bus_stop", "local_ref": "45012020", "name": "Cross Green Lane Cross Green Crescent", "naptan:AtcoCode": "450012020", "naptan:Bearing": "W", "naptan:CommonName": "Cross Green Lane Cross Green Crescent", "naptan:Crossing": "Cross Green Crescent", "naptan:Indicator": "Stop 45012020", "naptan:Landmark": "Church", "naptan:PlusbusZoneRef": "LEEDS", "naptan:ShortCommonName": "Cross Green Cres", "naptan:Street": "Cross Green Lane", "naptan:verified": "yes", "public_transport": "platform", "ref": "45012020", "source": "naptan_import;survey"}}, {"type": "node", "id": 249311303, "lat": 53.7893711, "lon": -1.520427}, {"type": "node", "id": 249311305, "lat": 53.7900878, "lon": -1.5186187}, {"type": "node", "id": 249311306, "lat": 53.7882243, "lon": -1.5213932}, {"type": "node", "id": 249338092, "lat": 53.7904123, "lon": -1.517295}, {"type": "node", "id": 249338093, "lat": 53.7905231, "lon": -1.5166714}, {"type": "node", "id": 249338094, "lat": 53.7908826, "lon": -1.5146504}, {"type": "node", "id": 249338095, "lat": 53.7910948, "lon": -1.5133964}, {"type": "node", "id": 249338096, "lat": 53.7912392, "lon": -1.5123946}, {"type": "node", "id": 250214056, "lat": 53.7959217, "lon": -1.5458101, "tags": {"bus": "yes", "demolished:highway": "bus_stop", "local_ref": "45012656", "name": "P8 Boar Lane", "naptan:AtcoCode": "450012656", "naptan:Bearing": "E", "naptan:CommonName": "P8 Boar Lane", "naptan:Crossing": "Mill Hill", "naptan:Indicator": "Stop 45012656", "naptan:Landmark": "Leeds Shopping Plaza", "naptan:PlusbusZoneRef": "LEEDS", "naptan:ShortCommonName": "Boar Lane P8", "naptan:Street": "Boar Lane", "naptan:verified": "yes", "public_transport": "no", "shelter": "yes", "source": "naptan_import;survey", "timetable": "yes"}}, {"type": "node", "id": 250214058, "lat": 53.7959228, "lon": -1.5458172, "tags": {"bus": "yes", "departures_board": "realtime", "highway": "bus_stop", "local_ref": "45032123", "name": "Station D", "naptan:AtcoCode": "450032123", "naptan:Bearing": "E", "naptan:CommonName": "Boar Lane", "naptan:Crossing": "Mill Hill", "naptan:Indicator": "stop P7", "naptan:Landmark": "Leeds Shopping Plaza", "naptan:NaptanCode": "45032123", "naptan:PlusbusZoneRef": "LEEDS", "naptan:ShortCommonName": "Boar Lane P7", "naptan:Street": "Boar Lane", "naptan:verified": "no", "network": "Metro West Yorkshire", "network:wikidata": "Q7987043", "new_name": "Station D", "public_transport": "platform", "ref": "45032123", "shelter": "yes", "source": "naptan_import;survey"}}, {"type": "node", "id": 250214059, "lat": 53.7960767, "lon": -1.5464658, "tags": {"bench": "yes", "bin": "no", "bus": "yes", "departures_board": "realtime", "highway": "bus_stop", "lit": "yes", "local_ref": "45024834", "name": "Station C", "naptan:AtcoCode": "450024834", "naptan:Bearing": "SE", "naptan:CommonName": "P6A Boar Lane", "naptan:Crossing": "Park Row", "naptan:Indicator": "Stop 45024834", "naptan:Landmark": "Park Plaza Hotel", "naptan:PlusbusZoneRef": "LEEDS", "naptan:ShortCommonName": "Boar Lane P6A", "naptan:Street": "Boar Lane", "naptan:verified": "yes", "network": "Metro West Yorkshire", "network:wikidata": "Q7987043", "new_name": "Station C", "public_transport": "platform", "ref": "45024834", "shelter": "yes", "source": "naptan_import", "tactile_paving": "no"}}, {"type": "node", "id": 250303580, "lat": 53.7970342, "lon": -1.5469982, "tags": {"bench": "yes", "bin": "yes", "bus": "yes", "check_date:shelter": "2025-10-18", "highway": "bus_stop", "lit": "yes", "live_display": "yes", "local_ref": "45010704", "name": "City Square I", "naptan:AtcoCode": "450010704", "naptan:Bearing": "S", "naptan:CommonName": "P4 Leeds Park Row", "naptan:Crossing": "Nr-Opp Infirmary Street", "naptan:Indicator": "Stop 45010704", "naptan:PlusbusZoneRef": "LEEDS", "naptan:ShortCommonName": "Park Row P4", "naptan:Street": "Park Row", "naptan:verified": "yes", "public_transport": "platform", "ref": "450010704", "shelter": "yes", "source": "naptan_import;survey", "tactile_paving": "no", "timetable": "yes"}}, {"type": "node", "id": 250303582, "lat": 53.7972546, "lon": -1.5469632, "tags": {"bench": "yes", "bin": "yes", "bus": "yes", "check_date:shelter": "2025-10-18", "highway": "bus_stop", "lit": "yes", "local_ref": "45010702", "name": "City Square H", "naptan:AtcoCode": "450010702", "naptan:Bearing": "S", "naptan:CommonName": "P3 Leeds Park Row", "naptan:Crossing": "Nr-At Bond Street", "naptan:Indicator": "Stop 45010702", "naptan:PlusbusZoneRef": "LEEDS", "naptan:ShortCommonName": "Park Row P3", "naptan:Street": "Park Row", "naptan:verified": "yes", "public_transport": "platform", "ref": "450010702", "shelter": "yes", "source": "naptan_import;survey", "tactile_paving": "no"}}, {"type": "node", "id": 250303970, "lat": 53.7994984, "lon": -1.5478824, "tags": {"bus": "yes", "highway": "bus_stop", "live_display": "yes", "local_ref": "45012553", "name": "Civic P", "naptan:AtcoCode": "450032131", "naptan:Bearing": "W", "naptan:CommonName": "The Headrow Y10B", "naptan:Crossing": "Park Row", "naptan:Indicator": "Stop 45012553", "naptan:Landmark": "The Empire bar", "naptan:NaptanCode": "45032131", "naptan:PlusbusZoneRef": "LEEDS", "naptan:ShortCommonName": "The Headrow Y9", "naptan:Street": "The Headrow", "naptan:verified": "no", "note": "Bus Stop removed!", "old_name": "Y9 The Headrow", "public_transport": "platform", "ref": "45032131", "shelter": "yes", "source": "naptan_import", "timetable": "yes"}}, {"type": "node", "id": 250303971, "lat": 53.7996897, "lon": -1.548435, "tags": {"bench": "no", "bin": "no", "bus": "yes", "highway": "bus_stop", "local_ref": "45012505", "name": "Civic M", "naptan:AtcoCode": "450012505", "naptan:Bearing": "E", "naptan:CommonName": "Y5 The Headrow", "naptan:Crossing": "Centenary Street", "naptan:Indicator": "Stop 45012505", "naptan:Landmark": "Art Gallery", "naptan:PlusbusZoneRef": "LEEDS", "naptan:ShortCommonName": "The Headrow Y5", "naptan:Street": "The Headrow", "naptan:verified": "yes", "public_transport": "platform", "ref": "450012505", "shelter": "no", "source": "naptan_import", "timetable": "yes"}}, {"type": "node", "id": 250303973, "lat": 53.7996822, "lon": -1.5479605, "tags": {"bus": "yes", "check_date:shelter": "2025-09-22", "highway": "bus_stop", "local_ref": "45012506", "name": "Civic L", "naptan:AtcoCode": "450012506", "naptan:Bearing": "E", "naptan:CommonName": "Y6 The Headrow", "naptan:Crossing": "Centenary Street", "naptan:Indicator": "Stop 45012506", "naptan:Landmark": "Art Gallery", "naptan:PlusbusZoneRef": "LEEDS", "naptan:ShortCommonName": "The Headrow Y6", "naptan:Street": "The Headrow", "naptan:verified": "yes", "public_transport": "platform", "ref": "450012506", "shelter": "no", "source": "naptan_import"}}, {"type": "node", "id": 250303974, "lat": 53.799678, "lon": -1.5477563, "tags": {"bench": "yes", "bin": "no", "bus": "yes", "highway": "bus_stop", "local_ref": "45010665", "name": "Civic K", "naptan:AtcoCode": "450010665", "naptan:Bearing": "E", "naptan:CommonName": "Y7 The Headrow", "naptan:Crossing": "Calverley Street", "naptan:Indicator": "Stop 45010665", "naptan:Landmark": "The Cenotaph", "naptan:PlusbusZoneRef": "LEEDS", "naptan:ShortCommonName": "The Headrow Y7", "naptan:Street": "The Headrow", "naptan:verified": "yes", "public_transport": "platform", "ref": "45010665", "shelter": "no", "source": "naptan_import", "timetable": "yes"}}, {"type": "node", "id": 250305085, "lat": 53.7995951, "lon": -1.5453758, "tags": {"bus": "yes", "highway": "bus_stop", "live_display": "yes", "local_ref": "45012385", "name": "Headrow J", "naptan:AtcoCode": "450012385", "naptan:Bearing": "E", "naptan:CommonName": "R3 The Headrow", "naptan:Crossing": "Albion Street", "naptan:Indicator": "Stop 45012385", "naptan:PlusbusZoneRef": "LEEDS", "naptan:ShortCommonName": "The Headrow R3", "naptan:Street": "The Headrow", "naptan:verified": "yes", "old_name": "R3 The Headrow", "public_transport": "platform", "ref": "45012385", "shelter": "yes", "source": "naptan_import", "timetable": "yes"}}, {"type": "node", "id": 250306760, "lat": 53.7991949, "lon": -1.5429469, "tags": {"bench": "yes", "bin": "yes", "bus": "yes", "highway": "bus_stop", "lit": "yes", "local_ref": "45010658", "name": "Headrow C", "naptan:AtcoCode": "450010658", "naptan:Bearing": "W", "naptan:CommonName": "H8 The Headrow", "naptan:Crossing": "Briggate", "naptan:Indicator": "Stop 45010658", "naptan:PlusbusZoneRef": "LEEDS", "naptan:ShortCommonName": "The Headrow H8", "naptan:Street": "The Headrow", "naptan:verified": "yes", "old_name": "H8 The Headrow", "public_transport": "platform", "ref": "45010658", "shelter": "yes", "source": "naptan_import", "tactile_paving": "no"}}, {"type": "node", "id": 250306761, "lat": 53.7991497, "lon": -1.542546, "tags": {"bench": "yes", "bin": "yes", "bus": "yes", "highway": "bus_stop", "local_ref": "45010657", "name": "Headrow D", "naptan:AtcoCode": "450010657", "naptan:Bearing": "W", "naptan:CommonName": "H7 The Headrow", "naptan:Crossing": "Briggate", "naptan:Indicator": "Stop 45010657", "naptan:Landmark": "Horse & Trumpet PH", "naptan:PlusbusZoneRef": "LEEDS", "naptan:ShortCommonName": "The Headrow H7", "naptan:Street": "The Headrow", "naptan:verified": "yes", "old_name": "H7 The Headrow", "public_transport": "platform", "ref": "45010657", "shelter": "yes", "source": "naptan_import"}}, {"type": "node", "id": 250306763, "lat": 53.7990734, "lon": -1.5409614, "tags": {"bench": "yes", "bin": "yes", "bus": "yes", "highway": "bus_stop", "lit": "yes", "live_display": "yes", "local_ref": "45010666", "name": "Headrow G", "naptan:AtcoCode": "450010666", "naptan:Bearing": "E", "naptan:CommonName": "H2 The Headrow", "naptan:Crossing": "Lands Lane", "naptan:Indicator": "Stop 45010666", "naptan:Notes": "Shelter been removed & will be Replaced Spring 2009", "naptan:PlusbusZoneRef": "LEEDS", "naptan:ShortCommonName": "The Headrow H2", "naptan:Street": "The Headrow", "naptan:verified": "yes", "old_name": "H2 The Headrow", "public_transport": "platform", "ref": "45010666", "shelter": "yes", "source": "naptan_import", "tactile_paving": "no", "timetable": "yes"}}, {"type": "node", "id": 250306764, "lat": 53.7990336, "lon": -1.5406088, "tags": {"bench": "yes", "bin": "yes", "bus": "yes", "highway": "bus_stop", "lit": "yes", "live_display": "yes", "local_ref": "45010667", "name": "Headrow H", "naptan:AtcoCode": "450010667", "naptan:Bearing": "E", "naptan:CommonName": "H3 The Headrow Alders", "naptan:Crossing": "Lands Lane", "naptan:Indicator": "Stop 45010667", "naptan:Notes": "Metro to replace shelter when LCC provide order for works. 09/03/09", "naptan:PlusbusZoneRef": "LEEDS", "naptan:ShortCommonName": "The Headrow H3", "naptan:Street": "The Headrow", "naptan:verified": "yes", "old_name": "H3 The Headrow Alders", "public_transport": "platform", "ref": "450010667", "shelter": "yes", "source": "naptan_import", "tactile_paving": "no", "timetable": "yes"}}, {"type": "node", "id": 250432388, "lat": 53.7970395, "lon": -1.5480473, "tags": {"bench": "yes", "bin": "yes", "bus": "yes", "demolished:highway": "bus_stop", "highway": "bus_stop", "lit": "yes", "name": "City Square C", "naptan:AtcoCode": "450032241", "naptan:NaptanCode": "45032241", "public_transport": "platform", "ref": "45032241", "shelter": "yes", "tactile_paving": "no"}}, {"type": "node", "id": 250434325, "lat": 53.79938, "lon": -1.5395605, "tags": {"bench": "yes", "bin": "no", "bus": "yes", "departures_board": "realtime", "highway": "bus_stop", "lit": "no", "local_ref": "45012974", "name": "Victoria O", "naptan:AtcoCode": "450012974", "naptan:Bearing": "S", "naptan:CommonName": "U7 Vicar Lane", "naptan:Crossing": "Lady Lane", "naptan:Indicator": "Stop 45012974", "naptan:PlusbusZoneRef": "LEEDS", "naptan:ShortCommonName": "Vicar Lane U7", "naptan:Street": "Vicar Lane", "naptan:verified": "yes", "network": "Metro West Yorkshire", "network:wikidata": "Q7987043", "note": "7;12;13;13a;36;48;843(coastliner)", "public_transport": "platform", "ref": "45012974", "shelter": "no", "source": "naptan_import", "tactile_paving": "no", "timetable": "yes"}}, {"type": "node", "id": 250560225, "lat": 53.7959227, "lon": -1.5363187}, {"type": "node", "id": 250569489, "lat": 53.7985451, "lon": -1.5397221, "tags": {"bench": "yes", "bin": "yes", "bus": "yes", "bus_routes": "11A, 56, x56, 64", "departures_board": "realtime", "highway": "bus_stop", "lit": "yes", "live_display": "yes", "local_ref": "45010678", "local_ref_1": "M2", "name": "Victoria P", "naptan:AtcoCode": "450010678", "naptan:Bearing": "S", "naptan:CommonName": "M2 Vicar Lane", "naptan:Crossing": "Sidney Street", "naptan:Indicator": "Stop 45010678", "naptan:Landmark": "Flannels Shop", "naptan:PlusbusZoneRef": "LEEDS", "naptan:ShortCommonName": "Vicar Lane M2", "naptan:Street": "Vicar Lane", "naptan:verified": "yes", "network": "Metro West Yorkshire", "network:wikidata": "Q7987043", "old_name": "M2 Vicar Lane", "public_transport": "platform", "ref": "45010678", "shelter": "yes", "source": "naptan_import", "tactile_paving": "no", "timetable": "yes"}}, {"type": "node", "id": 250569492, "lat": 53.7971856, "lon": -1.5402097, "tags": {"bench": "yes", "bin": "yes", "bus": "yes", "highway": "bus_stop", "lit": "yes", "live_display": "yes", "local_ref": "45010682", "name": "Corn Exchange D", "naptan:AtcoCode": "450010682", "naptan:Bearing": "S", "naptan:CommonName": "M7 Leeds Vicar Lane", "naptan:Crossing": "New York Street", "naptan:Indicator": "Stop 45010682", "naptan:Landmark": "Markets", "naptan:Notes": "Shelter from asset 10681 still used by passengers as a waiting area for buses using this stop 10682", "naptan:PlusbusZoneRef": "LEEDS", "naptan:ShortCommonName": "Vicar Lane M7", "naptan:Street": "Vicar Lane", "naptan:verified": "yes", "old_name": "M7 Leeds Vicar Lane", "public_transport": "platform", "ref": "45010682", "shelter": "yes", "source": "naptan_import", "tactile_paving": "no", "timetable": "yes"}}, {"type": "node", "id": 250569493, "lat": 53.7962555, "lon": -1.5405869, "tags": {"bench": "yes", "bin": "yes", "bus": "yes", "covered": "yes", "highway": "bus_stop", "lit": "yes", "live_display": "yes", "local_ref": "45012984", "name": "Corn Exchange F", "naptan:AtcoCode": "450012984", "naptan:Bearing": "S", "naptan:CommonName": "K4 Leeds Corn Exchange", "naptan:Crossing": "Call Lane", "naptan:Indicator": "Stop 45012984", "naptan:Landmark": "Corn Exchange Bus Point", "naptan:PlusbusZoneRef": "LEEDS", "naptan:ShortCommonName": "Corn Exchange K4", "naptan:Street": "New Market Street (Vicar Lane)", "naptan:verified": "yes", "network": "Metro West Yorkshire", "network:wikidata": "Q7987043", "old_name": "K4 Leeds Corn Exchange", "public_transport": "platform", "ref": "45012984", "shelter": "yes", "source": "naptan_import", "tactile_paving": "no", "timetable": "yes"}}, {"type": "node", "id": 250569496, "lat": 53.7966061, "lon": -1.5403791, "tags": {"bench": "yes", "bin": "yes", "bus": "yes", "covered": "yes", "highway": "bus_stop", "lit": "yes", "live_display": "yes", "local_ref": "45012981", "name": "Corn Exchange E", "naptan:AtcoCode": "450012982", "naptan:Bearing": "S", "naptan:CommonName": "Corn Exchange E", "naptan:Crossing": "Kirkgate", "naptan:Indicator": "Stop 45012981", "naptan:Landmark": "Corn Exchange Bus Point", "naptan:NaptanCode": "45012982", "naptan:PlusbusZoneRef": "LEEDS", "naptan:ShortCommonName": "Corn Exchange K1", "naptan:Street": "New Market Street (Vicar Lane)", "naptan:verified": "yes", "network": "Metro West Yorkshire", "network:wikidata": "Q7987043", "public_transport": "platform", "ref": "45012982", "shelter": "yes", "source": "naptan_import", "tactile_paving": "no", "timetable": "yes"}}, {"type": "node", "id": 250569592, "lat": 53.8005726, "lon": -1.5449695, "tags": {"bench": "yes", "bin": "yes", "bus": "yes", "highway": "bus_stop", "lit": "yes", "live_display": "yes", "local_ref": "45010921", "name": "Headrow L", "naptan:AtcoCode": "450010921", "naptan:Bearing": "N", "naptan:CommonName": "J3 Leeds Albion Street", "naptan:Crossing": "Great George Street", "naptan:Indicator": "Stop 45010921", "naptan:Landmark": "Dudley House", "naptan:PlusbusZoneRef": "LEEDS", "naptan:ShortCommonName": "Albion Street J3", "naptan:Street": "Albion Street", "naptan:verified": "yes", "old_name": "J3 Leeds Albion Street", "public_transport": "platform", "ref": "45010921", "shelter": "yes", "source": "naptan_import", "tactile_paving": "no", "timetable": "yes"}}, {"type": "node", "id": 250570117, "lat": 53.8016535, "lon": -1.5452859, "tags": {"bus": "yes", "departures_board": "realtime", "highway": "bus_stop", "local_ref": "45010914", "name": "Merrion C", "naptan:AtcoCode": "450010914", "naptan:Bearing": "S", "naptan:CommonName": "L5 Woodhouse Lane", "naptan:Crossing": "Rossington Street", "naptan:Indicator": "Stop 45010914", "naptan:PlusbusZoneRef": "LEEDS", "naptan:ShortCommonName": "Woodhouse Lane L5", "naptan:Street": "Woodhouse Lane", "naptan:verified": "yes", "old_name": "L5 Woodhouse Lane", "passenger_information_display": "yes", "public_transport": "platform", "ref": "450010914", "shelter": "yes", "source": "naptan_import;survey"}}, {"type": "node", "id": 273098468, "lat": 53.7913373, "lon": -1.5164617, "tags": {"bus": "yes", "highway": "bus_stop", "public_transport": "platform", "source": "survey"}}, {"type": "node", "id": 273098510, "lat": 53.7951303, "lon": -1.5233225, "tags": {"bus": "yes", "highway": "bus_stop", "local_ref": "45011989", "name": "Upper Accommodation Road Hampton Street", "naptan:AtcoCode": "450011989", "naptan:Bearing": "SW", "naptan:CommonName": "Upper Accommodation Road Hampton Street", "naptan:Crossing": "Hampton Street", "naptan:Indicator": "Stop 45011989", "naptan:PlusbusZoneRef": "LEEDS", "naptan:ShortCommonName": "Hampton Street", "naptan:Street": "Upper Accommodation Road", "naptan:verified": "no", "public_transport": "platform", "source": "naptan_import"}}, {"type": "node", "id": 273098511, "lat": 53.794948, "lon": -1.5236517, "tags": {"bus": "yes", "highway": "bus_stop", "local_ref": "45011990", "name": "Upper Accommodation Road Hampton Street", "naptan:AtcoCode": "450011990", "naptan:Bearing": "N", "naptan:CommonName": "Upper Accommodation Road Hampton Street", "naptan:Crossing": "Hampton Street", "naptan:Indicator": "Stop 45011990", "naptan:Landmark": "Church", "naptan:PlusbusZoneRef": "LEEDS", "naptan:ShortCommonName": "Hampton Street", "naptan:Street": "Upper Accommodation Road", "naptan:verified": "no", "public_transport": "platform", "source": "naptan_import"}}, {"type": "node", "id": 273098531, "lat": 53.795023, "lon": -1.5218966}, {"type": "node", "id": 273098532, "lat": 53.7955067, "lon": -1.5233521}, {"type": "node", "id": 288757370, "lat": 53.8081961, "lon": -1.542615, "tags": {"bus": "yes", "highway": "bus_stop", "local_ref": "45011397", "name": "Carlton Hill Carlton Grove", "naptan:AtcoCode": "450011397", "naptan:Bearing": "SW", "naptan:CommonName": "Carlton Hill Carlton Grove", "naptan:Crossing": "Carlton Grove", "naptan:Indicator": "Stop 45011397", "naptan:PlusbusZoneRef": "LEEDS", "naptan:ShortCommonName": "Carlton Grove", "naptan:Street": "Carlton Hill", "naptan:verified": "yes", "public_transport": "platform", "ref": "45011397", "source": "naptan_import"}}, {"type": "node", "id": 288777799, "lat": 53.8068163, "lon": -1.5442909, "tags": {"bench": "no", "bin": "no", "bus": "yes", "highway": "bus_stop", "local_ref": "45023468", "name": "Carlton Hill Carlton Gate", "naptan:AtcoCode": "450023468", "naptan:Bearing": "SW", "naptan:CommonName": "Carlton Hill Carlton Gate", "naptan:Crossing": "Carlton Gate", "naptan:Indicator": "Stop 45023468", "naptan:PlusbusZoneRef": "LEEDS", "naptan:ShortCommonName": "Carlton Gate", "naptan:Street": "Carlton Hill", "naptan:verified": "yes", "note": "School services only", "public_transport": "platform", "ref": "45023468", "shelter": "no", "source": "naptan_import", "tactile_paving": "no"}}, {"type": "node", "id": 288973806, "lat": 53.8001472, "lon": -1.5042206, "tags": {"bench": "yes", "bin": "yes", "bus": "yes", "highway": "bus_stop", "lit": "yes", "local_ref": "45010828", "name": "York Road Skelton Terrace", "naptan:AtcoCode": "450010828", "naptan:Bearing": "W", "naptan:CommonName": "York Road Skelton Terrace", "naptan:Crossing": "Skelton Terrace", "naptan:Indicator": "Stop 45010828", "naptan:Landmark": "White Horse PH", "naptan:Notes": "GSM called out to RTA shelter 03/02/09 - removed end of shelter & taped up", "naptan:PlusbusZoneRef": "LEEDS", "naptan:ShortCommonName": "Skelton Terrace", "naptan:Street": "York Road", "naptan:verified": "yes", "network": "Metro West Yorkshire", "network:wikidata": "Q7987043", "public_transport": "platform", "ref": "45010828", "shelter": "yes", "source": "naptan_import", "tactile_paving": "no"}}, {"type": "node", "id": 288973810, "lat": 53.7973003, "lon": -1.5013939, "tags": {"bus": "yes", "highway": "bus_stop", "local_ref": "45012037", "name": "Ings Road Skelton Road", "naptan:AtcoCode": "450012037", "naptan:Bearing": "NE", "naptan:CommonName": "Ings Road Skelton Road", "naptan:Crossing": "Skelton Road", "naptan:Indicator": "Stop 45012037", "naptan:Landmark": "Park House", "naptan:PlusbusZoneRef": "LEEDS", "naptan:ShortCommonName": "Skelton Road", "naptan:Street": "Ings Road", "naptan:verified": "yes", "public_transport": "platform", "ref": "45012037", "source": "naptan_import"}}, {"type": "node", "id": 288973814, "lat": 53.7973119, "lon": -1.5009714, "tags": {"bus": "yes", "highway": "bus_stop", "local_ref": "45012038", "name": "Ings Road", "naptan:AtcoCode": "450012038", "naptan:Bearing": "SW", "naptan:CommonName": "Ings Road", "naptan:Crossing": "Appleton Grove", "naptan:Indicator": "Stop 45012038", "naptan:Landmark": "Factory", "naptan:PlusbusZoneRef": "LEEDS", "naptan:ShortCommonName": "Appleton Grove", "naptan:Street": "Ings Road", "naptan:verified": "yes", "public_transport": "platform", "ref": "45012038", "source": "naptan_import"}}, {"type": "node", "id": 288973834, "lat": 53.7987439, "lon": -1.5057587, "tags": {"bus": "yes", "highway": "bus_stop", "local_ref": "45012036", "name": "Ivy Avenue Skelton Avenue", "naptan:AtcoCode": "450012036", "naptan:Bearing": "SW", "naptan:CommonName": "Ivy Avenue Skelton Avenue", "naptan:Crossing": "Skelton Avenue", "naptan:Indicator": "Stop 45012036", "naptan:PlusbusZoneRef": "LEEDS", "naptan:ShortCommonName": "Skelton Avenue", "naptan:Street": "Ivy Avenue", "naptan:verified": "yes", "public_transport": "platform", "ref": "45012036", "source": "naptan_import"}}, {"type": "node", "id": 288973896, "lat": 53.7968342, "lon": -1.5082538, "tags": {"bench": "no", "bus": "yes", "highway": "bus_stop", "local_ref": "45010740", "name": "East End Park Osmondthorpe", "naptan:AtcoCode": "450010740", "naptan:Bearing": "SE", "naptan:CommonName": "East End Park Osmondthorpe", "naptan:Crossing": "Ivy Road", "naptan:Indicator": "Stop 45010740", "naptan:PlusbusZoneRef": "LEEDS", "naptan:ShortCommonName": "Ivy Avenue", "naptan:Street": "Ivy Street", "naptan:verified": "yes", "public_transport": "platform", "ref": "45010740", "shelter": "yes", "source": "naptan_import", "tactile_paving": "no"}}, {"type": "node", "id": 288973906, "lat": 53.7938134, "lon": -1.5101935, "tags": {"bus": "yes", "highway": "bus_stop", "local_ref": "45012025", "name": "East End Park", "naptan:AtcoCode": "450012025", "naptan:Bearing": "SE", "naptan:CommonName": "East End Park", "naptan:Crossing": "Londesboro Grove", "naptan:Indicator": "Stop 45012025", "naptan:PlusbusZoneRef": "LEEDS", "naptan:ShortCommonName": "East End Park", "naptan:Street": "East Park Parade", "naptan:verified": "yes", "public_transport": "platform", "ref": "45012025", "source": "naptan_import"}}, {"type": "node", "id": 288976934, "lat": 53.7926727, "lon": -1.5120105, "tags": {"bus": "yes", "highway": "bus_stop", "local_ref": "45012026", "name": "East Park Road", "naptan:AtcoCode": "450012026", "naptan:Bearing": "NE", "naptan:CommonName": "East Park Road", "naptan:Crossing": "Garton Terrace", "naptan:Indicator": "Stop 45012026", "naptan:PlusbusZoneRef": "LEEDS", "naptan:ShortCommonName": "Garton Terrace", "naptan:Street": "East Park Parade", "naptan:verified": "yes", "public_transport": "platform", "ref": "45012026", "source": "naptan_import"}}, {"type": "node", "id": 288976935, "lat": 53.7924226, "lon": -1.5121469, "tags": {"bench": "no", "bin": "no", "bus": "yes", "highway": "bus_stop", "local_ref": "45010739", "name": "East Park Parade East Park Road", "naptan:AtcoCode": "450010739", "naptan:Bearing": "SW", "naptan:CommonName": "East Park Parade East Park Road", "naptan:Crossing": "East Park Road", "naptan:Indicator": "Stop 45010739", "naptan:Landmark": "Cross Green Park", "naptan:PlusbusZoneRef": "LEEDS", "naptan:ShortCommonName": "East Park Road", "naptan:Street": "East Park Parade", "naptan:verified": "yes", "public_transport": "platform", "ref": "45010739", "shelter": "yes", "source": "naptan_import", "tactile_paving": "no"}}, {"type": "node", "id": 289076913, "lat": 53.7988311, "lon": -1.5058306, "tags": {"bus": "yes", "highway": "bus_stop", "local_ref": "45012035", "name": "Ivy Avenue Dawlish Place", "naptan:AtcoCode": "450012035", "naptan:Bearing": "NE", "naptan:CommonName": "Ivy Avenue Dawlish Place", "naptan:Crossing": "Dawlish Place", "naptan:Indicator": "Stop 45012035", "naptan:PlusbusZoneRef": "LEEDS", "naptan:ShortCommonName": "Dawlish Place", "naptan:Street": "Ivy Avenue", "naptan:verified": "yes", "public_transport": "platform", "ref": "45012035", "source": "naptan_import;survey"}}, {"type": "node", "id": 289076915, "lat": 53.7945804, "lon": -1.509758, "tags": {"bus": "yes", "highway": "bus_stop", "local_ref": "45012024", "name": "East End Park", "naptan:AtcoCode": "450012024", "naptan:Bearing": "N", "naptan:CommonName": "East End Park", "naptan:Crossing": "Londesboro Terrace", "naptan:Indicator": "Stop 45012024", "naptan:Landmark": "School", "naptan:PlusbusZoneRef": "LEEDS", "naptan:ShortCommonName": "East Park Pde", "naptan:Street": "East Park Parade", "naptan:verified": "yes", "public_transport": "platform", "ref": "45021024", "source": "naptan_import;survey"}}, {"type": "node", "id": 301690827, "lat": 53.7941402, "lon": -1.546407}, {"type": "node", "id": 308513050, "lat": 53.7861935, "lon": -1.5402765}, {"type": "node", "id": 308513056, "lat": 53.7840221, "lon": -1.5396459}, {"type": "node", "id": 313241883, "lat": 53.7939173, "lon": -1.5477404}, {"type": "node", "id": 317020341, "lat": 53.7945248, "lon": -1.54489}, {"type": "node", "id": 317087835, "lat": 53.791185, "lon": -1.5341334, "tags": {"bench": "yes", "bin": "no", "bus": "yes", "covered": "no", "highway": "bus_stop", "lit": "yes", "live_display": "yes", "local_ref": "45027147", "name": "Leeds Dock A", "naptan:AtcoCode": "450027147", "naptan:Bearing": "S", "naptan:CommonName": "A1 Leeds Chadwick Street", "naptan:Crossing": "Clarence Dock", "naptan:Indicator": "Stop 45027147", "naptan:Landmark": "Royal Armouries", "naptan:Notes": "Possible site for Solar lighting 25/11/08 - IUS want \u00a32,761", "naptan:PlusbusZoneRef": "LEEDS", "naptan:ShortCommonName": "Royal Armouries", "naptan:Street": "Chadwick Street", "naptan:verified": "yes", "old_name": "A1;A1 Leeds Chadwick Street", "public_transport": "platform", "ref": "45027147", "shelter": "yes", "source": "naptan_import", "tactile_paving": "no", "timetable": "yes"}}, {"type": "node", "id": 322936699, "lat": 53.7915347, "lon": -1.5381841, "tags": {"bench": "no", "bin": "yes", "bus": "yes", "highway": "bus_stop", "local_ref": "45011974", "name": "Crown Point E", "naptan:AtcoCode": "450011974", "naptan:Bearing": "NE", "naptan:CommonName": "A2 Leeds Crown Point Road", "naptan:Crossing": "Sheaf Street", "naptan:Indicator": "Stop 45011974", "naptan:Landmark": "Brewery", "naptan:PlusbusZoneRef": "LEEDS", "naptan:ShortCommonName": "Sheaf Street", "naptan:Street": "Crown Point Road", "naptan:verified": "yes", "old_name": "A2 Leeds Crown Point Road", "public_transport": "platform", "ref": "45011974", "shelter": "no", "source": "naptan_import", "tactile_paving": "yes"}}, {"type": "node", "id": 322936701, "lat": 53.7925221, "lon": -1.5363162, "tags": {"bench": "no", "bin": "yes", "bus": "yes", "highway": "bus_stop", "local_ref": "45026789", "name": "Leeds Dock C", "naptan:AtcoCode": "450026789", "naptan:Bearing": "NE", "naptan:CommonName": "A3 Leeds Crown Point Road", "naptan:Crossing": "Crown Point Bridge", "naptan:Indicator": "Stop 45026789", "naptan:PlusbusZoneRef": "LEEDS", "naptan:ShortCommonName": "Crown Point Bridge", "naptan:Street": "Crown Point Road", "naptan:verified": "yes", "old_name": "A3 Leeds Crown Point Road", "public_transport": "platform", "ref": "45026789", "shelter": "no", "source": "naptan_import", "tactile_paving": "no"}}, {"type": "node", "id": 322936702, "lat": 53.7864492, "lon": -1.5337838, "tags": {"bus": "yes", "highway": "bus_stop", "local_ref": "45010647", "name": "Hunslet Road South Accomodation Road", "naptan:AtcoCode": "450010647", "naptan:Bearing": "NW", "naptan:CommonName": "Hunslet Road South Accomodation Road", "naptan:Crossing": "Brookfield Street", "naptan:Indicator": "Stop 45010647", "naptan:Landmark": "Brookfield PH", "naptan:PlusbusZoneRef": "LEEDS", "naptan:ShortCommonName": "Brookfield Street", "naptan:Street": "Hunslet Road", "naptan:verified": "yes", "public_transport": "platform", "ref": "45010647", "shelter": "yes", "source": "naptan_import", "timetable": "yes"}}, {"type": "node", "id": 340486253, "lat": 53.7956154, "lon": -1.5388086}, {"type": "node", "id": 340486255, "lat": 53.7957021, "lon": -1.5383426}, {"type": "node", "id": 342579533, "lat": 53.7976989, "lon": -1.5357468}, {"type": "node", "id": 342579669, "lat": 53.7976765, "lon": -1.5359934}, {"type": "node", "id": 342579671, "lat": 53.797676, "lon": -1.5360239}, {"type": "node", "id": 342579676, "lat": 53.7976692, "lon": -1.5360988}, {"type": "node", "id": 342579678, "lat": 53.7976453, "lon": -1.5360521}, {"type": "node", "id": 342579680, "lat": 53.7976789, "lon": -1.5358406}, {"type": "node", "id": 342660337, "lat": 53.8016512, "lon": -1.5453086, "tags": {"bus": "yes", "name": "Merrion C", "public_transport": "stop_position", "ref": "450010914"}}, {"type": "node", "id": 345026193, "lat": 53.7937299, "lon": -1.5466792, "tags": {"bench": "yes", "bin": "yes", "bus": "yes", "highway": "bus_stop", "lit": "no", "local_ref": "45013262", "name": "Station F", "naptan:AtcoCode": "450013262", "naptan:Bearing": "S", "naptan:CommonName": "Z2 Neville Street", "naptan:Crossing": "Sovereign Street", "naptan:Indicator": "Stop 45013262", "naptan:Landmark": "Hilton Hotel", "naptan:Notes": "Stop in Temp location 24/06/08", "naptan:PlusbusZoneRef": "LEEDS", "naptan:ShortCommonName": "Neville Street Z2", "naptan:Street": "Neville Street", "naptan:verified": "yes", "public_transport": "platform", "ref": "45013262", "shelter": "yes", "source": "naptan_import", "tactile_paving": "no"}}, {"type": "node", "id": 345026194, "lat": 53.7938658, "lon": -1.5466387, "tags": {"bench": "yes", "bin": "yes", "bus": "yes", "highway": "bus_stop", "lit": "no", "local_ref": "45013261", "name": "Station E", "naptan:AtcoCode": "450013261", "naptan:Bearing": "S", "naptan:CommonName": "Z3 Neville Street", "naptan:Crossing": "Sovereign Street", "naptan:Indicator": "Stop 45013261", "naptan:Landmark": "Hilton Hotel", "naptan:Notes": "Stop in Temp location 24/06/08", "naptan:PlusbusZoneRef": "LEEDS", "naptan:ShortCommonName": "Neville Street Z3", "naptan:Street": "Neville Street", "naptan:verified": "yes", "public_transport": "platform", "ref": "45013261", "shelter": "yes", "source": "naptan_import", "tactile_paving": "no"}}, {"type": "node", "id": 345037039, "lat": 53.7939319, "lon": -1.5476533}, {"type": "node", "id": 345037046, "lat": 53.7946986, "lon": -1.5467643}, {"type": "node", "id": 345037049, "lat": 53.7956133, "lon": -1.5484354, "tags": {"entrance": "main", "railway": "train_station_entrance"}}, {"type": "node", "id": 375621371, "lat": 53.7868183, "lon": -1.503495, "tags": {"bus": "yes", "public_transport": "stop_position", "ref": "45012001"}}, {"type": "node", "id": 389498890, "lat": 53.7865797, "lon": -1.5534396}, {"type": "node", "id": 389498891, "lat": 53.7862504, "lon": -1.5525905}, {"type": "node", "id": 389498892, "lat": 53.7859017, "lon": -1.5513519}, {"type": "node", "id": 392388601, "lat": 53.8026618, "lon": -1.523939, "tags": {"bus": "yes", "highway": "bus_stop", "kerb": "raised", "local_ref": "45010294", "name": "Beckett Street / Accommodation Road", "naptan:AtcoCode": "450010294", "naptan:Bearing": "S", "naptan:CommonName": "Beckett Street Accommodation Road", "naptan:Crossing": "Accomodation Road", "naptan:Indicator": "Stop 45010294", "naptan:Notes": "OSR taken place 260805", "naptan:PlusbusZoneRef": "LEEDS", "naptan:ShortCommonName": "Accommodation Road", "naptan:Street": "Beckett Street", "naptan:verified": "no", "public_transport": "platform", "shelter": "yes", "source": "naptan_import", "towards": "Leeds City Centre", "wheelchair": "yes"}}, {"type": "node", "id": 429553234, "lat": 53.7967628, "lon": -1.5300123, "tags": {"abandoned:railway": "station", "name": "Leeds Marsh Lane", "wikidata": "Q6773330", "wikipedia": "en:Leeds Marsh Lane railway station"}}, {"type": "node", "id": 429553235, "lat": 53.8000698, "lon": -1.4889003}, {"type": "node", "id": 444562370, "lat": 53.8020584, "lon": -1.5374592, "tags": {"bench": "no", "bus": "yes", "highway": "bus_stop", "local_ref": "45023950", "name": "Lovell Park", "naptan:AtcoCode": "450023950", "naptan:Bearing": "SW", "naptan:CommonName": "North Street St Thomas Row", "naptan:Crossing": "St Thomas Row", "naptan:Indicator": "Stop 45023950", "naptan:Notes": "On L/C-9New ttcase size 1 to be fitted awaiting new photo 30/05/08", "naptan:PlusbusZoneRef": "LEEDS", "naptan:ShortCommonName": "St Thomas Row", "naptan:Street": "North Street", "old_name": "North Street St Thomas Row", "public_transport": "platform", "ref": "45023950", "shelter": "no", "source": "naptan_import", "timetable": "yes"}}, {"type": "node", "id": 459187401, "lat": 53.7972636, "lon": -1.5360406}, {"type": "node", "id": 459187404, "lat": 53.7974562, "lon": -1.5363712}, {"type": "node", "id": 459187414, "lat": 53.7976137, "lon": -1.5363757}, {"type": "node", "id": 459187428, "lat": 53.796653, "lon": -1.5357342}, {"type": "node", "id": 492896377, "lat": 53.7898462, "lon": -1.529561, "tags": {"bench": "yes", "bin": "yes", "bus": "yes", "covered": "yes", "highway": "bus_stop", "lit": "yes", "local_ref": "45023970", "name": "Clarence Dock", "naptan:AtcoCode": "450023970", "naptan:Bearing": "SE", "naptan:CommonName": "Clarence Dock", "naptan:Crossing": "Armouries Drive", "naptan:Indicator": "Stop 45023970", "naptan:PlusbusZoneRef": "LEEDS", "naptan:ShortCommonName": "Armouries Drive", "naptan:Street": "Clarence Road", "naptan:verified": "no", "public_transport": "platform", "ref": "45023970", "shelter": "yes;no", "source": "naptan_import", "tactile_paving": "no"}}, {"type": "node", "id": 496714640, "lat": 53.8182401, "lon": -1.491483, "tags": {"bus": "yes", "highway": "bus_stop", "local_ref": "45010242", "name": "Oakwood Lane Dib Lane", "naptan:AtcoCode": "450010242", "naptan:Bearing": "S", "naptan:CommonName": "Oakwood Lane Dib Lane", "naptan:Crossing": "Dib Lane", "naptan:Indicator": "Stop 45010242", "naptan:PlusbusZoneRef": "LEEDS", "naptan:ShortCommonName": "Dib Lane", "naptan:Street": "Oakwood Lane", "naptan:verified": "no", "public_transport": "platform", "source": "naptan_import"}}, {"type": "node", "id": 496714641, "lat": 53.8159388, "lon": -1.4914197, "tags": {"bus": "yes", "highway": "bus_stop", "local_ref": "45010243", "name": "Oakwood Lane Amberton Approach", "naptan:AtcoCode": "450010243", "naptan:Bearing": "N", "naptan:CommonName": "Oakwood Lane Amberton Approach", "naptan:Crossing": "Amberton Approach", "naptan:Indicator": "Stop 45010243", "naptan:Landmark": "Sports Centre", "naptan:Notes": "Electric box broken but has no power supply no action needed", "naptan:PlusbusZoneRef": "LEEDS", "naptan:ShortCommonName": "Amberton Approach", "naptan:Street": "Oakwood Lane", "naptan:verified": "no", "public_transport": "platform", "source": "naptan_import"}}, {"type": "node", "id": 496714678, "lat": 53.8122185, "lon": -1.5382879, "tags": {"bench": "yes", "bus": "yes", "highway": "bus_stop", "local_ref": "45010281", "name": "Sheepscar Street North Sheepscar Way", "naptan:AtcoCode": "450010281", "naptan:Bearing": "N", "naptan:CommonName": "Sheepscar Street North Sheepscar Way", "naptan:Crossing": "Sheepscar Way", "naptan:Indicator": "Stop 45010281", "naptan:Landmark": "Garage", "naptan:PlusbusZoneRef": "LEEDS", "naptan:ShortCommonName": "Sheepscar Way", "naptan:Street": "Sheepscar Street North", "naptan:verified": "no", "public_transport": "platform", "shelter": "yes", "source": "naptan_import"}}, {"type": "node", "id": 496714698, "lat": 53.8183826, "lon": -1.540134, "tags": {"bench": "yes", "bin": "yes", "bus": "yes", "highway": "bus_stop", "lit": "yes", "local_ref": "45010288", "name": "Scott Hall Road Sholebroke Mount", "naptan:AtcoCode": "450010288", "naptan:Bearing": "SE", "naptan:CommonName": "Scott Hall Road Sholebroke Mount", "naptan:Crossing": "Sholebroke Mount", "naptan:Indicator": "Stop 45010288", "naptan:PlusbusZoneRef": "LEEDS", "naptan:ShortCommonName": "Sholebroke Mount", "naptan:Street": "Scott Hall Road", "naptan:verified": "no", "public_transport": "platform", "shelter": "yes", "source": "naptan_import", "tactile_paving": "no"}}, {"type": "node", "id": 496714699, "lat": 53.8106296, "lon": -1.5363188, "tags": {"bench": "yes", "bin": "no", "bus": "yes", "highway": "bus_stop", "kerb": "raised", "local_ref": "45010290", "name": "Sheepscar Street North Barrack Street", "naptan:AtcoCode": "450010290", "naptan:Bearing": "SE", "naptan:CommonName": "Sheepscar Street North Barrack Street", "naptan:Crossing": "Barrack Street", "naptan:Indicator": "Stop 45010290", "naptan:Landmark": "Garage", "naptan:PlusbusZoneRef": "LEEDS", "naptan:ShortCommonName": "Barrack Street", "naptan:Street": "Sheepscar Street North", "naptan:verified": "no", "public_transport": "platform", "shelter": "yes", "source": "naptan_import"}}, {"type": "node", "id": 496714700, "lat": 53.8027936, "lon": -1.527717, "tags": {"bench": "yes", "bin": "yes", "bus": "yes", "highway": "bus_stop", "lit": "yes", "local_ref": "45010292", "name": "Lincoln Green Road Cromwell Street", "naptan:AtcoCode": "450010292", "naptan:Bearing": "W", "naptan:CommonName": "Lincoln Green Road Cromwell Street", "naptan:Crossing": "Cromwell Street", "naptan:Indicator": "Stop 45010292", "naptan:PlusbusZoneRef": "LEEDS", "naptan:ShortCommonName": "Cromwell Street", "naptan:Street": "Lincoln Green Road", "naptan:verified": "no", "public_transport": "platform", "shelter": "yes", "source": "naptan_import", "tactile_paving": "no"}}, {"type": "node", "id": 496714701, "lat": 53.8031302, "lon": -1.5287458, "tags": {"bench": "no", "bin": "no", "bus": "yes", "highway": "bus_stop", "lit": "yes", "local_ref": "45010293", "name": "Lincoln Green Road Macauley Street", "naptan:AtcoCode": "450010293", "naptan:Bearing": "E", "naptan:CommonName": "Lincoln Green Road Macauley Street", "naptan:Crossing": "Macauley Street", "naptan:Indicator": "Stop 45010293", "naptan:Landmark": "Cherry Court Flats", "naptan:PlusbusZoneRef": "LEEDS", "naptan:ShortCommonName": "Macauley Street", "naptan:Street": "Lincoln Green Road", "naptan:verified": "no", "public_transport": "platform", "shelter": "no", "source": "naptan_import", "tactile_paving": "no"}}, {"type": "node", "id": 496714703, "lat": 53.8045213, "lon": -1.5222204, "tags": {"bus": "yes", "highway": "bus_stop", "kerb": "raised", "local_ref": "45010296", "name": "St James Hospital Bexley Wing", "naptan:AtcoCode": "450010296", "naptan:Bearing": "SW", "naptan:CommonName": "St James Hospital Bexley Wing", "naptan:Crossing": "Alma Street", "naptan:Indicator": "Stop 45010296", "naptan:Landmark": "Bexley Wing Oncology Unit", "naptan:PlusbusZoneRef": "LEEDS", "naptan:ShortCommonName": "Bexley Wing", "naptan:Street": "Beckett Street", "naptan:verified": "no", "public_transport": "platform", "shelter": "yes", "source": "naptan_import"}}, {"type": "node", "id": 496714704, "lat": 53.8058091, "lon": -1.5204475, "tags": {"bus": "yes", "highway": "bus_stop", "local_ref": "45010297", "name": "St James Hospital", "naptan:AtcoCode": "450010297", "naptan:Bearing": "SW", "naptan:CommonName": "St James Hospital", "naptan:Crossing": "Industrial Street", "naptan:Indicator": "Stop 45010297", "naptan:Landmark": "St James Hospital", "naptan:PlusbusZoneRef": "LEEDS", "naptan:ShortCommonName": "St James Hospital", "naptan:Street": "Beckett Street", "naptan:verified": "no", "public_transport": "platform", "shelter": "yes", "source": "naptan_import"}}, {"type": "node", "id": 496714705, "lat": 53.8072111, "lon": -1.5197404, "tags": {"bus": "yes", "highway": "bus_stop", "local_ref": "45010298", "name": "St James Hospital", "naptan:AtcoCode": "450010298", "naptan:Bearing": "E", "naptan:CommonName": "St James Hospital", "naptan:Crossing": "Shakespeare Street", "naptan:Indicator": "Stop 45010298", "naptan:Landmark": "St James Hospital", "naptan:Notes": "OSR taken place 260805", "naptan:PlusbusZoneRef": "LEEDS", "naptan:ShortCommonName": "St James Hospital", "naptan:Street": "St James Hospital Grounds - Beckett Street", "naptan:verified": "no", "public_transport": "platform", "source": "naptan_import"}}, {"type": "node", "id": 496714706, "lat": 53.8072267, "lon": -1.5187226, "tags": {"bus": "yes", "highway": "bus_stop", "local_ref": "45010299", "name": "St James Hospital", "naptan:AtcoCode": "450010299", "naptan:Bearing": "NE", "naptan:CommonName": "St James Hospital", "naptan:Crossing": "Shakespeare Street", "naptan:Indicator": "Stop 45010299", "naptan:Landmark": "St James Hospital", "naptan:PlusbusZoneRef": "LEEDS", "naptan:ShortCommonName": "St James Hospital", "naptan:Street": "Beckett Street", "naptan:verified": "no", "public_transport": "platform", "source": "naptan_import"}}, {"type": "node", "id": 496714707, "lat": 53.802601, "lon": -1.5371531, "tags": {"bench": "yes", "bin": "yes", "bus": "yes", "highway": "bus_stop", "lit": "yes", "local_ref": "45010300", "name": "Lovell Park", "naptan:AtcoCode": "450010300", "naptan:Bearing": "NE", "naptan:CommonName": "North Street Byron Street", "naptan:Crossing": "Byron Street", "naptan:Indicator": "Stop 45010300", "naptan:PlusbusZoneRef": "LEEDS", "naptan:ShortCommonName": "Byron Street", "naptan:Street": "North Street", "naptan:verified": "yes", "old_name": "North Street Byron Street", "public_transport": "platform", "ref": "45010300", "shelter": "yes", "source": "naptan_import", "tactile_paving": "no", "timetable": "yes"}}, {"type": "node", "id": 496714708, "lat": 53.8056152, "lon": -1.5357121, "tags": {"bus": "yes", "highway": "bus_stop", "local_ref": "45010301", "name": "North Street Benson Street", "naptan:AtcoCode": "450010301", "naptan:Bearing": "N", "naptan:CommonName": "North Street Benson Street", "naptan:Crossing": "Benson Street", "naptan:Indicator": "Stop 45010301", "naptan:Landmark": "Eagle Tavern", "naptan:PlusbusZoneRef": "LEEDS", "naptan:ShortCommonName": "Benson Street", "naptan:Street": "North Street", "naptan:verified": "yes", "public_transport": "platform", "shelter": "yes", "source": "naptan_import", "timetable": "yes"}}, {"type": "node", "id": 496714709, "lat": 53.8065038, "lon": -1.5354611, "tags": {"bench": "yes", "bin": "no", "bus": "yes", "highway": "bus_stop", "lit": "yes", "local_ref": "45010302", "name": "North Street Meanwood Road", "naptan:AtcoCode": "450010302", "naptan:Bearing": "N", "naptan:CommonName": "North Street Meanwood Road", "naptan:Crossing": "Meanwood Road", "naptan:Indicator": "Stop 45010302", "naptan:PlusbusZoneRef": "LEEDS", "naptan:ShortCommonName": "Meanwood Road", "naptan:Street": "North Street", "naptan:verified": "yes", "network": "Metro West Yorkshire", "network:wikidata": "Q7987043", "public_transport": "platform", "ref": "450010302", "shelter": "yes", "source": "naptan_import", "tactile_paving": "no", "timetable": "yes"}}, {"type": "node", "id": 496714710, "lat": 53.8069994, "lon": -1.5349463, "tags": {"bench": "yes", "bin": "no", "bus": "yes", "highway": "bus_stop", "lit": "yes", "local_ref": "45010303", "name": "North Street Sheepscar Street South", "naptan:AtcoCode": "450010303", "naptan:Bearing": "SW", "naptan:CommonName": "North Street Sheepscar Street South", "naptan:Crossing": "Sheepscar Street South", "naptan:Indicator": "Stop 45010303", "naptan:PlusbusZoneRef": "LEEDS", "naptan:ShortCommonName": "Sheepscar St South", "naptan:Street": "North Street", "naptan:verified": "yes", "public_transport": "platform", "shelter": "yes", "source": "naptan_import", "tactile_paving": "no", "timetable": "yes"}}, {"type": "node", "id": 496714711, "lat": 53.8083609, "lon": -1.5337777, "tags": {"bench": "yes", "bin": "no", "bus": "yes", "check_date:shelter": "2024-02-25", "highway": "bus_stop", "lit": "yes", "local_ref": "45010304", "name": "Roundhay Road Cross Wingham Street", "naptan:AtcoCode": "450010304", "naptan:Bearing": "SW", "naptan:CommonName": "Roundhay Road Cross Wingham Street", "naptan:Crossing": "Cross Wingham Street", "naptan:Indicator": "Stop 45010304", "naptan:PlusbusZoneRef": "LEEDS", "naptan:ShortCommonName": "Cross Wingham St", "naptan:Street": "Roundhay Road", "naptan:verified": "yes", "public_transport": "platform", "shelter": "yes", "source": "naptan_import", "tactile_paving": "no", "timetable": "yes"}}, {"type": "node", "id": 496714712, "lat": 53.8084998, "lon": -1.5337012, "tags": {"bench": "yes", "bin": "no", "bus": "yes", "check_date:shelter": "2024-02-25", "highway": "bus_stop", "local_ref": "45010305", "name": "Roundhay Road Cross Wingham Street", "naptan:AtcoCode": "450010305", "naptan:Bearing": "NE", "naptan:CommonName": "Roundhay Road Cross Wingham Street", "naptan:Crossing": "Cross Wingham Street", "naptan:Indicator": "Stop 45010305", "naptan:PlusbusZoneRef": "LEEDS", "naptan:ShortCommonName": "Cross Wingham St", "naptan:Street": "Roundhay Road", "naptan:verified": "yes", "public_transport": "platform", "shelter": "yes", "source": "naptan_import", "tactile_paving": "no", "timetable": "yes"}}, {"type": "node", "id": 496714713, "lat": 53.8093916, "lon": -1.5306336, "tags": {"bench": "yes", "bin": "no", "bus": "yes", "check_date:shelter": "2024-02-25", "highway": "bus_stop", "lit": "yes", "local_ref": "45010306", "name": "Roundhay Road Thomas Danby College", "naptan:AtcoCode": "450010306", "naptan:Bearing": "NE", "naptan:CommonName": "Roundhay Road Thomas Danby College", "naptan:Crossing": "Enfield Street", "naptan:Indicator": "Stop 45010306", "naptan:Landmark": "College", "naptan:Notes": "Adshel shelter removed on 28/1/08. New TF shelter installed on 30/1/08.", "naptan:PlusbusZoneRef": "LEEDS", "naptan:ShortCommonName": "Thomas Danby Col", "naptan:Street": "Roundhay Road", "naptan:verified": "yes", "public_transport": "platform", "shelter": "yes", "source": "naptan_import", "tactile_paving": "no", "timetable": "yes"}}, {"type": "node", "id": 496714714, "lat": 53.8094008, "lon": -1.5302093, "tags": {"bus": "yes", "highway": "bus_stop", "local_ref": "45010307", "name": "Roundhay Road Enfield Street", "naptan:AtcoCode": "450010307", "naptan:Bearing": "SW", "naptan:CommonName": "Roundhay Road Enfield Street", "naptan:Crossing": "Enfield Street", "naptan:Indicator": "Stop 45010307", "naptan:Landmark": "College", "naptan:PlusbusZoneRef": "LEEDS", "naptan:ShortCommonName": "Thomas Danby Col", "naptan:Street": "Roundhay Road", "naptan:verified": "no", "public_transport": "platform", "source": "naptan_import"}}, {"type": "node", "id": 496714715, "lat": 53.8181335, "lon": -1.5156663, "tags": {"bus": "yes", "highway": "bus_stop", "kerb": "raised", "local_ref": "45010308", "name": "Harehills Lane", "naptan:AtcoCode": "450010308", "naptan:Bearing": "NE", "naptan:CommonName": "Harehills Lane", "naptan:Crossing": "Harehills Lane", "naptan:Indicator": "Stop 45010308", "naptan:Notes": "Adshel Removed  210208Trueform to be installled 150308", "naptan:PlusbusZoneRef": "LEEDS", "naptan:ShortCommonName": "Harehills", "naptan:Street": "Roundhay Road", "naptan:verified": "yes", "public_transport": "platform", "shelter": "yes", "source": "naptan_import", "timetable": "yes"}}, {"type": "node", "id": 496714721, "lat": 53.8192863, "lon": -1.5140124, "tags": {"bus": "yes", "highway": "bus_stop", "local_ref": "45010314", "name": "Roundhay Road Copgrove Road", "naptan:AtcoCode": "450010314", "naptan:Bearing": "SW", "naptan:CommonName": "Roundhay Road Copgrove Road", "naptan:Crossing": "Copgrove Road", "naptan:Indicator": "Stop 45010314", "naptan:PlusbusZoneRef": "LEEDS", "naptan:ShortCommonName": "Copgrove Road", "naptan:Street": "Roundhay Road", "naptan:verified": "no", "public_transport": "platform", "source": "naptan_import"}}, {"type": "node", "id": 496714722, "lat": 53.8146426, "lon": -1.519291, "tags": {"bench": "yes", "bin": "yes", "bus": "yes", "highway": "bus_stop", "local_ref": "45010315", "name": "Roundhay Road Lascelles Terrace", "naptan:AtcoCode": "450010315", "naptan:Bearing": "SW", "naptan:CommonName": "Roundhay Road Lascelles Terrace", "naptan:Crossing": "Lascelles Terrace", "naptan:Indicator": "Stop 45010315", "naptan:Notes": "New Timetable case to be fitted by contractor", "naptan:PlusbusZoneRef": "LEEDS", "naptan:ShortCommonName": "Lascelles Terrace", "naptan:Street": "Roundhay Road", "naptan:verified": "yes", "public_transport": "platform", "shelter": "yes", "source": "naptan_import", "timetable": "yes"}}, {"type": "node", "id": 496714723, "lat": 53.8128968, "lon": -1.5210272, "tags": {"bench": "yes", "bin": "yes", "bus": "yes", "highway": "bus_stop", "kerb": "raised", "lit": "yes", "local_ref": "45010316", "name": "Roundhay Road Elford Place", "naptan:AtcoCode": "450010316", "naptan:Bearing": "SW", "naptan:CommonName": "Roundhay Road Elford Place", "naptan:Crossing": "Elford Place", "naptan:Indicator": "Stop 45010316", "naptan:Landmark": "Church", "naptan:PlusbusZoneRef": "LEEDS", "naptan:ShortCommonName": "Elford Place", "naptan:Street": "Roundhay Road", "naptan:verified": "yes", "public_transport": "platform", "shelter": "yes", "source": "naptan_import", "tactile_paving": "no", "timetable": "yes"}}, {"type": "node", "id": 496714848, "lat": 53.8133627, "lon": -1.5436974, "tags": {"bus": "yes", "highway": "bus_stop", "local_ref": "45010452", "name": "Meanwood Road Penraevon Avenue", "naptan:AtcoCode": "450010452", "naptan:Bearing": "SE", "naptan:CommonName": "Meanwood Road Penraevon Avenue", "naptan:Crossing": "Penraevon Avenue", "naptan:Indicator": "Stop 45010452", "naptan:PlusbusZoneRef": "LEEDS", "naptan:ShortCommonName": "Penraevon Avenue", "naptan:Street": "Meanwood Road", "naptan:verified": "no", "public_transport": "platform", "source": "naptan_import"}}, {"type": "node", "id": 496714849, "lat": 53.8110086, "lon": -1.5415512, "tags": {"bench": "no", "bus": "yes", "highway": "bus_stop", "local_ref": "45010453", "name": "Meanwood Road Oatland Road", "naptan:AtcoCode": "450010453", "naptan:Bearing": "SE", "naptan:CommonName": "Meanwood Road Oatland Road", "naptan:Crossing": "Oatland Road", "naptan:Indicator": "Stop 45010453", "naptan:Landmark": "Adventist Church", "naptan:PlusbusZoneRef": "LEEDS", "naptan:ShortCommonName": "Oatland Road", "naptan:Street": "Meanwood Road", "naptan:verified": "no", "public_transport": "platform", "shelter": "no", "source": "naptan_import", "tactile_paving": "no"}}, {"type": "node", "id": 496715447, "lat": 53.7988907, "lon": -1.5387531, "tags": {"bench": "yes", "bin": "yes", "bus": "yes", "highway": "bus_stop", "lit": "yes", "live_display": "yes", "local_ref": "45010668", "name": "Victoria A", "naptan:AtcoCode": "450010668", "naptan:Bearing": "E", "naptan:CommonName": "G1 Leeds Eastgate", "naptan:Crossing": "Harewood Street", "naptan:Indicator": "Stop 45010668", "naptan:PlusbusZoneRef": "LEEDS", "naptan:ShortCommonName": "Eastgate G1", "naptan:Street": "Eastgate", "naptan:verified": "yes", "network": "Metro West Yorkshire", "network:wikidata": "Q7987043", "old_name": "G1 Leeds Eastgate", "public_transport": "platform", "ref": "45010668", "shelter": "yes", "source": "naptan_import", "tactile_paving": "no", "timetable": "yes"}}, {"type": "node", "id": 496715448, "lat": 53.7988628, "lon": -1.5385105, "tags": {"bench": "no", "bus": "yes", "highway": "bus_stop", "live_display": "yes", "local_ref": "45010669", "name": "Victoria B", "naptan:AtcoCode": "450010669", "naptan:Bearing": "E", "naptan:CommonName": "G2 Leeds Eastgate", "naptan:Crossing": "Harewood Street", "naptan:Indicator": "Stop 45010669", "naptan:PlusbusZoneRef": "LEEDS", "naptan:ShortCommonName": "Eastgate G2", "naptan:Street": "Eastgate", "naptan:verified": "yes", "old_name": "G2 Leeds Eastgate", "public_transport": "platform", "ref": "45010669", "shelter": "no", "source": "naptan_import", "timetable": "yes"}}, {"type": "node", "id": 496715449, "lat": 53.7987961, "lon": -1.5375396, "tags": {"bench": "yes", "bin": "yes", "bus": "yes", "highway": "bus_stop", "local_ref": "45010670", "name": "Victoria C", "naptan:AtcoCode": "450029157", "naptan:Bearing": "E", "naptan:CommonName": "Victoria C", "naptan:Crossing": "Millgarth Street", "naptan:Indicator": "Stop 45010670", "naptan:NaptanCode": "45029157", "naptan:PlusbusZoneRef": "LEEDS", "naptan:ShortCommonName": "Eastgate G3", "naptan:Street": "Eastgate", "naptan:verified": "yes", "network": "Metro West Yorkshire", "network:wikidata": "Q7987043", "old_name": "G3 Leeds Eastgate", "public_transport": "platform", "ref": "45029157", "shelter": "yes", "source": "naptan_import", "tactile_paving": "no", "timetable": "yes"}}, {"type": "node", "id": 496715450, "lat": 53.798777, "lon": -1.5372513, "tags": {"bench": "yes", "bin": "yes", "bus": "yes", "highway": "bus_stop", "live_display": "yes", "local_ref": "45010671", "name": "Victoria D", "naptan:AtcoCode": "450010671", "naptan:Bearing": "E", "naptan:CommonName": "G4 Leeds Eastgate", "naptan:Crossing": "Lady Lane", "naptan:Indicator": "Stop 45010671", "naptan:PlusbusZoneRef": "LEEDS", "naptan:ShortCommonName": "Eastgate G4", "naptan:Street": "Eastgate", "naptan:verified": "yes", "network": "Metro West Yorkshire", "network:wikidata": "Q7987043", "old_name": "G4 Leeds Eastgate", "public_transport": "platform", "ref": "45010671", "shelter": "yes", "source": "naptan_import", "tactile_paving": "no", "timetable": "yes"}}, {"type": "node", "id": 496715451, "lat": 53.7995139, "lon": -1.5418892, "tags": {"bus": "yes", "demolished:highway": "bus_stop", "local_ref": "45010672", "name": "N1 Leeds New Briggate", "naptan:AtcoCode": "450010672", "naptan:Bearing": "N", "naptan:CommonName": "N1 Leeds New Briggate", "naptan:Crossing": "The Headrow", "naptan:Indicator": "Stop 45010672", "naptan:PlusbusZoneRef": "LEEDS", "naptan:ShortCommonName": "New Briggate N1", "naptan:Street": "New Briggate", "naptan:verified": "yes", "public_transport": "no", "shelter": "yes", "source": "naptan_import", "timetable": "yes"}}, {"type": "node", "id": 496715452, "lat": 53.7998634, "lon": -1.5416272, "tags": {"bus": "yes", "demolished:highway": "bus_stop", "live_display": "yes", "local_ref": "45010673", "name": "N2 New Briggate", "naptan:AtcoCode": "450010673", "naptan:Bearing": "NE", "naptan:CommonName": "N2 New Briggate", "naptan:Crossing": "Mark Lane", "naptan:Indicator": "Stop 45010673", "naptan:PlusbusZoneRef": "LEEDS", "naptan:ShortCommonName": "New Briggate N2", "naptan:Street": "New Briggate", "naptan:verified": "yes", "public_transport": "no", "shelter": "yes", "source": "naptan_import", "timetable": "yes"}}, {"type": "node", "id": 496715453, "lat": 53.7999888, "lon": -1.5415196, "tags": {"bus": "yes", "demolished:highway": "bus_stop", "live_display": "yes", "local_ref": "45010674", "name": "N3 New Briggate", "naptan:AtcoCode": "450010674", "naptan:Bearing": "NE", "naptan:CommonName": "N3 New Briggate", "naptan:Crossing": "Nr-At Mark Lane", "naptan:Indicator": "Stop 45010674", "naptan:Landmark": "Grand Theatre", "naptan:PlusbusZoneRef": "LEEDS", "naptan:ShortCommonName": "New Briggate N3", "naptan:Street": "New Briggate", "naptan:verified": "yes", "public_transport": "no", "shelter": "yes", "source": "naptan_import", "timetable": "yes"}}, {"type": "node", "id": 496715454, "lat": 53.8001322, "lon": -1.5414117, "tags": {"bus": "yes", "demolished:highway": "bus_stop", "live_display": "yes", "local_ref": "45010675", "name": "N4 New Briggate", "naptan:AtcoCode": "450010675", "naptan:Bearing": "NE", "naptan:CommonName": "N4 New Briggate", "naptan:Crossing": "Twixt Mark Lane & Merrion Street", "naptan:Indicator": "Stop 45010675", "naptan:PlusbusZoneRef": "LEEDS", "naptan:ShortCommonName": "New Briggate N4", "naptan:Street": "New Briggate", "naptan:verified": "yes", "public_transport": "no", "shelter": "yes", "source": "naptan_import", "timetable": "yes"}}, {"type": "node", "id": 496715457, "lat": 53.7983524, "lon": -1.5397999, "tags": {"bench": "yes", "bin": "yes", "bus": "yes", "bus_routes": "75 117 118 118A 118S 200 201 201A 202 203 229 254 254A 255 X17", "highway": "bus_stop", "lit": "no", "live_display": "yes", "local_ref": "45010679", "local_ref_1": "M3", "name": "Victoria Q", "naptan:AtcoCode": "450010679", "naptan:Bearing": "S", "naptan:CommonName": "M3 Vicar Lane", "naptan:Crossing": "Sidney Street", "naptan:Indicator": "Stop 45010679", "naptan:PlusbusZoneRef": "LEEDS", "naptan:ShortCommonName": "Vicar Lane M3", "naptan:Street": "Vicar Lane", "naptan:verified": "yes", "network": "Metro West Yorkshire", "network:wikidata": "Q7987043", "old_name": "M3 Vicar Lane", "public_transport": "platform", "ref": "45010679", "shelter": "yes", "source": "naptan_import", "tactile_paving": "no", "timetable": "yes"}}, {"type": "node", "id": 496715460, "lat": 53.7967225, "lon": -1.5405836, "tags": {"bench": "yes", "bin": "yes", "bus": "yes", "highway": "bus_stop", "lit": "yes", "live_display": "yes", "local_ref": "45010683", "name": "Corn Exchange B", "naptan:AtcoCode": "450010683", "naptan:Bearing": "N", "naptan:CommonName": "V2 Leeds New Market Street", "naptan:Crossing": "Kirkgate", "naptan:Indicator": "Stop 45010683", "naptan:Landmark": "Corn Exchange", "naptan:PlusbusZoneRef": "LEEDS", "naptan:ShortCommonName": "New Market St V2", "naptan:Street": "New Market Street", "naptan:verified": "yes", "network": "Metro West Yorkshire", "network:wikidata": "Q7987043", "public_transport": "platform", "ref": "45010683", "shelter": "yes", "source": "naptan_import", "tactile_paving": "no", "timetable": "yes"}}, {"type": "node", "id": 496715461, "lat": 53.7962561, "lon": -1.5408719, "tags": {"bench": "yes", "bin": "yes", "bus": "yes", "highway": "bus_stop", "lit": "yes", "live_display": "yes", "local_ref": "45010684", "name": "Corn Exchange A", "naptan:AtcoCode": "450010684", "naptan:Bearing": "N", "naptan:CommonName": "V1 Leeds New Market Street", "naptan:Crossing": "Central Road", "naptan:Indicator": "Stop 45010684", "naptan:Landmark": "Corn Exchange", "naptan:PlusbusZoneRef": "LEEDS", "naptan:ShortCommonName": "New Market St V1", "naptan:Street": "New Market Street", "naptan:verified": "yes", "network": "Metro West Yorkshire", "network:wikidata": "Q7987043", "public_transport": "platform", "ref": "45010684", "shelter": "yes", "source": "naptan_import", "tactile_paving": "no", "timetable": "yes"}}, {"type": "node", "id": 496715462, "lat": 53.7959233, "lon": -1.5431276, "tags": {"bench": "yes", "bin": "yes", "bus": "yes", "highway": "bus_stop", "lit": "yes", "live_display": "yes", "local_ref": "45010685", "name": "Trinity M", "naptan:AtcoCode": "450010685", "naptan:Bearing": "W", "naptan:CommonName": "T6 Boar Lane", "naptan:Crossing": "Lower Briggate", "naptan:Indicator": "Stop 45010685", "naptan:PlusbusZoneRef": "LEEDS", "naptan:ShortCommonName": "Boar Lane T6", "naptan:Street": "Boar Lane", "naptan:verified": "yes", "old_name": "T6 Boar Lane", "public_transport": "platform", "ref": "45010685", "shelter": "yes", "source": "naptan_import", "tactile_paving": "no", "timetable": "yes"}}, {"type": "node", "id": 496715463, "lat": 53.7959067, "lon": -1.5435567, "tags": {"bench": "yes", "bin": "yes", "bus": "yes", "highway": "bus_stop", "lit": "yes", "live_display": "yes", "local_ref": "45010686", "name": "Trinity N", "naptan:AtcoCode": "450010686", "naptan:Bearing": "W", "naptan:CommonName": "T7 Boar Lane", "naptan:Crossing": "Lower Briggate", "naptan:Indicator": "Stop 45010686", "naptan:Landmark": "Church", "naptan:PlusbusZoneRef": "LEEDS", "naptan:ShortCommonName": "Boar Lane T7", "naptan:Street": "Boar Lane", "naptan:verified": "yes", "old_name": "T7 Boar Lane", "public_transport": "platform", "ref": "45010686", "shelter": "yes", "source": "naptan_import", "tactile_paving": "no", "timetable": "yes"}}, {"type": "node", "id": 496715464, "lat": 53.796004, "lon": -1.543442, "tags": {"bench": "yes", "bin": "yes", "bus": "yes", "highway": "bus_stop", "lit": "yes", "live_display": "yes", "local_ref": "45010687", "name": "Trinity R", "naptan:AtcoCode": "450010687", "naptan:Bearing": "E", "naptan:CommonName": "T4 Boar Lane", "naptan:Crossing": "Adj Bank Street", "naptan:Indicator": "Stop 45010687", "naptan:Landmark": "Holy Trinity Church", "naptan:PlusbusZoneRef": "LEEDS", "naptan:ShortCommonName": "Boar Lane T4", "naptan:Street": "Boar Lane", "naptan:verified": "yes", "old_name": "T4 Boar Lane", "public_transport": "platform", "ref": "45010687", "shelter": "yes", "source": "naptan_import", "tactile_paving": "no", "timetable": "yes"}}, {"type": "node", "id": 496715465, "lat": 53.7958279, "lon": -1.5440396, "tags": {"bench": "yes", "bin": "no", "bus": "yes", "highway": "bus_stop", "lit": "yes", "live_display": "yes", "local_ref": "45010688", "name": "Trinity O", "naptan:AtcoCode": "450010688", "naptan:Bearing": "W", "naptan:CommonName": "T8 Boar Lane", "naptan:Crossing": "Bank Street", "naptan:Indicator": "Stop 45010688", "naptan:Landmark": "Church", "naptan:PlusbusZoneRef": "LEEDS", "naptan:ShortCommonName": "Boar Lane T8", "naptan:Street": "Boar Lane", "naptan:verified": "yes", "old_name": "T8 Boar Lane", "public_transport": "platform", "ref": "450010688", "shelter": "yes", "source": "naptan_import", "tactile_paving": "no", "timetable": "yes"}}, {"type": "node", "id": 496715466, "lat": 53.7957577, "lon": -1.5444806, "tags": {"bench": "yes", "bin": "yes", "bus": "yes", "highway": "bus_stop", "lit": "yes", "live_display": "yes", "local_ref": "45010689", "name": "Trinity P", "naptan:AtcoCode": "450010689", "naptan:Bearing": "W", "naptan:CommonName": "T9 Boar Lane", "naptan:Crossing": "New Station Street", "naptan:Indicator": "Stop 45010689", "naptan:Landmark": "Square on the Lane PH", "naptan:PlusbusZoneRef": "LEEDS", "naptan:ShortCommonName": "Boar Lane T9", "naptan:Street": "Boar Lane", "naptan:verified": "yes", "old_name": "T9 Boar Lane", "public_transport": "platform", "ref": "45010689", "shelter": "yes", "source": "naptan_import", "tactile_paving": "no", "timetable": "yes"}}, {"type": "node", "id": 496715471, "lat": 53.7975209, "lon": -1.546964, "tags": {"bench": "yes", "bin": "yes", "bus": "yes", "check_date:shelter": "2025-10-18", "highway": "bus_stop", "lit": "yes", "live_display": "yes", "local_ref": "45010700", "name": "City Square G", "naptan:AtcoCode": "450010700", "naptan:Bearing": "S", "naptan:CommonName": "P1 Park Row", "naptan:Crossing": "Greek Street", "naptan:Indicator": "Stop 45010700", "naptan:Landmark": "Abbey National", "naptan:PlusbusZoneRef": "LEEDS", "naptan:ShortCommonName": "Park Row P1", "naptan:Street": "Park Row", "naptan:verified": "yes", "public_transport": "platform", "ref": "450010700", "shelter": "yes", "source": "naptan_import", "tactile_paving": "no", "timetable": "yes"}}, {"type": "node", "id": 496715476, "lat": 53.8181275, "lon": -1.5164106, "tags": {"bus": "yes", "highway": "bus_stop", "local_ref": "45010705", "name": "Harehills Lane Hill Top Mount", "naptan:AtcoCode": "450010705", "naptan:Bearing": "NW", "naptan:CommonName": "Harehills Lane Hill Top Mount", "naptan:Crossing": "Hill Top Mount", "naptan:Indicator": "Stop 45010705", "naptan:PlusbusZoneRef": "LEEDS", "naptan:ShortCommonName": "Hill Top Mount", "naptan:Street": "Harehills Lane", "naptan:verified": "no", "public_transport": "platform", "source": "naptan_import"}}, {"type": "node", "id": 496715477, "lat": 53.8174319, "lon": -1.5155528, "tags": {"bus": "yes", "highway": "bus_stop", "local_ref": "45010706", "name": "Harehills Lane Roundhay Road", "naptan:AtcoCode": "450010706", "naptan:Bearing": "SE", "naptan:CommonName": "Harehills Lane Roundhay Road", "naptan:Crossing": "Roundhay Road", "naptan:Indicator": "Stop 45010706", "naptan:Landmark": "FForde Green PH", "naptan:PlusbusZoneRef": "LEEDS", "naptan:ShortCommonName": "Harehills", "naptan:Street": "Harehills Lane", "naptan:verified": "no", "public_transport": "platform", "source": "naptan_import"}}, {"type": "node", "id": 496715478, "lat": 53.8119276, "lon": -1.5124725, "tags": {"bus": "yes", "highway": "bus_stop", "local_ref": "45010707", "name": "Harehills Lane Darfield Road", "naptan:AtcoCode": "450010707", "naptan:Bearing": "NW", "naptan:CommonName": "Harehills Lane Darfield Road", "naptan:Crossing": "Darfield Road", "naptan:Indicator": "Stop 45010707", "naptan:Notes": "Trueform/Adshel panels a/w survey & photo", "naptan:PlusbusZoneRef": "LEEDS", "naptan:ShortCommonName": "Darfield Road", "naptan:Street": "Harehills Lane", "naptan:verified": "no", "public_transport": "platform", "source": "naptan_import"}}, {"type": "node", "id": 496715479, "lat": 53.8094449, "lon": -1.5097829, "tags": {"bench": "yes", "bus": "yes", "highway": "bus_stop", "local_ref": "45010709", "name": "Harehills Lane Compton Road", "naptan:AtcoCode": "450010709", "naptan:Bearing": "NW", "naptan:CommonName": "Harehills Lane Compton Road", "naptan:Crossing": "Compton Road", "naptan:Indicator": "Stop 45010709", "naptan:Notes": "New TF shelter with advert panels fitted awaiting photos", "naptan:PlusbusZoneRef": "LEEDS", "naptan:ShortCommonName": "Compton Road", "naptan:Street": "Harehills Lane", "naptan:verified": "no", "public_transport": "platform", "shelter": "yes", "source": "naptan_import"}}, {"type": "node", "id": 496715480, "lat": 53.8092904, "lon": -1.5093899, "tags": {"bench": "yes", "bin": "no", "bus": "yes", "highway": "bus_stop", "lit": "yes", "local_ref": "45010710", "name": "Harehills Lane Foundry Approach", "naptan:AtcoCode": "450010710", "naptan:Bearing": "SE", "naptan:CommonName": "Harehills Lane Foundry Approach", "naptan:Crossing": "Foundry Approach", "naptan:Indicator": "Stop 45010710", "naptan:Notes": "New TF shelter with advert panels fitted awaiting photos", "naptan:PlusbusZoneRef": "LEEDS", "naptan:ShortCommonName": "Foundry Approach", "naptan:Street": "Harehills Lane", "naptan:verified": "no", "public_transport": "platform", "shelter": "yes", "source": "naptan_import", "tactile_paving": "no"}}, {"type": "node", "id": 496715481, "lat": 53.8059295, "lon": -1.5051773, "tags": {"bench": "yes", "bin": "yes", "bus": "yes", "highway": "bus_stop", "lit": "yes", "local_ref": "45010711", "name": "Harehills Lane Lupton Avenue", "naptan:AtcoCode": "450010711", "naptan:Bearing": "NW", "naptan:CommonName": "Harehills Lane Lupton Avenue", "naptan:Crossing": "Lupton Avenue", "naptan:Indicator": "Stop 45010711", "naptan:Landmark": "Brown Hare PH", "naptan:Notes": "OSR taken place 260805", "naptan:PlusbusZoneRef": "LEEDS", "naptan:ShortCommonName": "Lupton Avenue", "naptan:Street": "Harehills Lane", "naptan:verified": "no", "public_transport": "platform", "shelter": "yes", "source": "naptan_import", "tactile_paving": "no"}}, {"type": "node", "id": 496715490, "lat": 53.7996704, "lon": -1.5087582, "tags": {"bench": "yes", "bin": "yes", "bus": "yes", "highway": "bus_stop", "local_ref": "45010720", "name": "Lupton Avenue Torre Road", "naptan:AtcoCode": "450010720", "naptan:Bearing": "S", "naptan:CommonName": "Lupton Avenue Torre Road", "naptan:Crossing": "Torre Road", "naptan:Indicator": "Stop 45010720", "naptan:Landmark": "Probation Office", "naptan:Notes": "OSR taken place 210905", "naptan:PlusbusZoneRef": "LEEDS", "naptan:ShortCommonName": "Torre Road", "naptan:Street": "Lupton Avenue", "naptan:verified": "no", "public_transport": "platform", "shelter": "yes", "source": "naptan_import", "tactile_paving": "no"}}, {"type": "node", "id": 496715491, "lat": 53.8033957, "lon": -1.5075758, "tags": {"bench": "yes", "bin": "yes", "bus": "yes", "highway": "bus_stop", "lit": "yes", "local_ref": "45010721", "name": "Lupton Avenue", "naptan:AtcoCode": "450010721", "naptan:Bearing": "N", "naptan:CommonName": "Lupton Avenue", "naptan:Crossing": "Hudson Road", "naptan:Indicator": "Stop 45010721", "naptan:PlusbusZoneRef": "LEEDS", "naptan:ShortCommonName": "Hudson Road", "naptan:Street": "Lupton Avenue", "naptan:verified": "no", "public_transport": "platform", "shelter": "yes", "source": "naptan_import", "tactile_paving": "no"}}, {"type": "node", "id": 496715492, "lat": 53.8035746, "lon": -1.5073763, "tags": {"bench": "yes", "bin": "yes", "bus": "yes", "highway": "bus_stop", "lit": "yes", "local_ref": "45010722", "name": "Lupton Avenue", "naptan:AtcoCode": "450010722", "naptan:Bearing": "S", "naptan:CommonName": "Lupton Avenue", "naptan:Crossing": "Nowell Lane", "naptan:Indicator": "Stop 45010722", "naptan:PlusbusZoneRef": "LEEDS", "naptan:ShortCommonName": "Hudson Road", "naptan:Street": "Lupton Avenue", "naptan:verified": "no", "public_transport": "platform", "shelter": "yes", "source": "naptan_import", "tactile_paving": "no"}}, {"type": "node", "id": 496715494, "lat": 53.8038352, "lon": -1.5184276, "tags": {"bus": "yes", "highway": "bus_stop", "local_ref": "45010724", "name": "Stoney Rock Lane Middleton Avenue", "naptan:AtcoCode": "450010724", "naptan:Bearing": "SW", "naptan:CommonName": "Stoney Rock Lane Middleton Avenue", "naptan:Crossing": "Middleton Avenue", "naptan:Indicator": "Stop 45010724", "naptan:Landmark": "The Sportsman PH", "naptan:Notes": "OSR taken place 260805", "naptan:PlusbusZoneRef": "LEEDS", "naptan:ShortCommonName": "Middleton Avenue", "naptan:Street": "Stoney Rock Lane", "naptan:verified": "no", "public_transport": "platform", "source": "naptan_import"}}, {"type": "node", "id": 496715495, "lat": 53.8087643, "lon": -1.5170651, "tags": {"bus": "yes", "highway": "bus_stop", "local_ref": "45010725", "name": "Harehills Road Bexley View", "naptan:AtcoCode": "450010725", "naptan:Bearing": "N", "naptan:CommonName": "Harehills Road Bexley View", "naptan:Crossing": "Bexley View", "naptan:Indicator": "Stop 45010725", "naptan:PlusbusZoneRef": "LEEDS", "naptan:ShortCommonName": "Bexley View", "naptan:Street": "Harehills Road", "naptan:verified": "no", "public_transport": "platform", "source": "naptan_import"}}, {"type": "node", "id": 496715496, "lat": 53.8160897, "lon": -1.5170416, "tags": {"bus": "yes", "highway": "bus_stop", "local_ref": "45010726", "name": "Harehills Road Nice View", "naptan:AtcoCode": "450010726", "naptan:Bearing": "E", "naptan:CommonName": "Harehills Road Nice View", "naptan:Crossing": "Nice View", "naptan:Indicator": "Stop 45010726", "naptan:PlusbusZoneRef": "LEEDS", "naptan:ShortCommonName": "Harehills Nice View", "naptan:Street": "Harehills Road", "naptan:verified": "no", "public_transport": "platform", "source": "naptan_import"}}, {"type": "node", "id": 496715497, "lat": 53.8140139, "lon": -1.5171718, "tags": {"bus": "yes", "highway": "bus_stop", "local_ref": "45010727", "name": "Harehills Road Harehills Place", "naptan:AtcoCode": "450010727", "naptan:Bearing": "S", "naptan:CommonName": "Harehills Road Harehills Place", "naptan:Crossing": "Harehills Place", "naptan:Indicator": "Stop 45010727", "naptan:Landmark": "Community Centre", "naptan:PlusbusZoneRef": "LEEDS", "naptan:ShortCommonName": "Harehills Place", "naptan:Street": "Harehills Road", "naptan:verified": "no", "public_transport": "platform", "source": "naptan_import"}}, {"type": "node", "id": 496715498, "lat": 53.81156, "lon": -1.5171545, "tags": {"bus": "yes", "highway": "bus_stop", "local_ref": "45010728", "name": "Harehills Road Conway View", "naptan:AtcoCode": "450010728", "naptan:Bearing": "S", "naptan:CommonName": "Harehills Road Conway View", "naptan:Crossing": "Conway View", "naptan:Indicator": "Stop 45010728", "naptan:PlusbusZoneRef": "LEEDS", "naptan:ShortCommonName": "Conway View", "naptan:Street": "Harehills Road", "naptan:verified": "no", "public_transport": "platform", "source": "naptan_import"}}, {"type": "node", "id": 496715499, "lat": 53.8088714, "lon": -1.5168664, "tags": {"bus": "yes", "highway": "bus_stop", "local_ref": "45010729", "name": "Harehills Road Ashton Grove", "naptan:AtcoCode": "450010729", "naptan:Bearing": "S", "naptan:CommonName": "Harehills Road Ashton Grove", "naptan:Crossing": "Ashton Grove", "naptan:Indicator": "Stop 45010729", "naptan:PlusbusZoneRef": "LEEDS", "naptan:ShortCommonName": "Ashton Grove", "naptan:Street": "Harehills Road", "naptan:verified": "no", "public_transport": "platform", "source": "naptan_import"}}, {"type": "node", "id": 496715500, "lat": 53.808447, "lon": -1.5163854, "tags": {"bus": "yes", "highway": "bus_stop", "local_ref": "45010730", "name": "Stanley Road Ashley Road", "naptan:AtcoCode": "450010730", "naptan:Bearing": "SE", "naptan:CommonName": "Stanley Road Ashley Road", "naptan:Crossing": "Ashley Road", "naptan:Indicator": "Stop 45010730", "naptan:Landmark": "Dock Green PH", "naptan:PlusbusZoneRef": "LEEDS", "naptan:ShortCommonName": "Ashley Road", "naptan:Street": "Stanley Road", "naptan:verified": "no", "public_transport": "platform", "source": "naptan_import"}}, {"type": "node", "id": 496715501, "lat": 53.8083257, "lon": -1.5164639, "tags": {"bus": "yes", "highway": "bus_stop", "local_ref": "45010731", "name": "Stanley Road Ashley Road", "naptan:AtcoCode": "450010731", "naptan:Bearing": "NW", "naptan:CommonName": "Stanley Road Ashley Road", "naptan:Crossing": "Ashley Road", "naptan:Indicator": "Stop 45010731", "naptan:Landmark": "Dock Green PH", "naptan:PlusbusZoneRef": "LEEDS", "naptan:ShortCommonName": "Ashley Road", "naptan:Street": "Stanley Road", "naptan:verified": "no", "public_transport": "platform", "shelter": "yes", "source": "naptan_import"}}, {"type": "node", "id": 496715502, "lat": 53.8085488, "lon": -1.5098373, "tags": {"bus": "yes", "departures_board": "realtime", "highway": "bus_stop", "local_ref": "45010732", "name": "Harehills Compton Road", "naptan:AtcoCode": "450010732", "naptan:Bearing": "NE", "naptan:CommonName": "Harehills Compton Road", "naptan:Crossing": "Harehills Lane", "naptan:Indicator": "Stop 45010732", "naptan:PlusbusZoneRef": "LEEDS", "naptan:ShortCommonName": "Harehills Lane", "naptan:Street": "Compton Road", "naptan:verified": "no", "public_transport": "platform", "ref": "45010732", "shelter": "yes", "source": "naptan_import"}}, {"type": "node", "id": 496715503, "lat": 53.8018442, "lon": -1.4990275, "tags": {"bus": "yes", "departures_board": "timetable", "highway": "bus_stop", "local_ref": "45010733", "name": "Harehills Lane (E)", "naptan:AtcoCode": "450010733", "naptan:Bearing": "SE", "naptan:CommonName": "E Harehills Lane", "naptan:Crossing": "York Road", "naptan:Indicator": "Stop 45010733", "naptan:Landmark": "Shaftsbury PH", "naptan:PlusbusZoneRef": "LEEDS", "naptan:ShortCommonName": "Harehills Lane E", "naptan:Street": "Harehills Lane", "naptan:verified": "yes", "network": "Metro West Yorkshire", "network:wikidata": "Q7987043", "public_transport": "platform", "shelter": "yes", "source": "naptan_import", "timetable": "yes"}}, {"type": "node", "id": 496715504, "lat": 53.8018699, "lon": -1.49944, "tags": {"bus": "yes", "departures_board": "yes", "highway": "bus_stop", "local_ref": "45010734", "name": "Harehills Lane (D)", "naptan:AtcoCode": "450010734", "naptan:Bearing": "NW", "naptan:CommonName": "D Harehills Lane", "naptan:Crossing": "York Road", "naptan:Indicator": "Stop 45010734", "naptan:Landmark": "Surgery", "naptan:PlusbusZoneRef": "LEEDS", "naptan:ShortCommonName": "Harehills Lane D", "naptan:Street": "Harehills Lane", "naptan:verified": "yes", "network": "Metro West Yorkshire", "network:wikidata": "Q7987043", "public_transport": "platform", "shelter": "yes", "source": "naptan_import", "timetable": "yes"}}, {"type": "node", "id": 496715506, "lat": 53.7989247, "lon": -1.4980024, "tags": {"bus": "yes", "highway": "bus_stop", "local_ref": "45010735", "name": "Osmondthorpe Lane Rookwood Terrace", "naptan:AtcoCode": "450010735", "naptan:Bearing": "N", "naptan:CommonName": "Osmondthorpe Lane Rookwood Terrace", "naptan:Crossing": "Rookwood Terrace", "naptan:Indicator": "Stop 45010735", "naptan:Landmark": "Health Centre", "naptan:PlusbusZoneRef": "LEEDS", "naptan:ShortCommonName": "Rookwood Terrace", "naptan:Street": "Osmondthorpe Lane", "naptan:verified": "no", "public_transport": "platform", "source": "naptan_import"}}, {"type": "node", "id": 496715508, "lat": 53.7885928, "lon": -1.5166289, "tags": {"bus": "yes", "highway": "bus_stop", "local_ref": "45010736", "name": "Copperfields College", "naptan:AtcoCode": "450010736", "naptan:Bearing": "SW", "naptan:CommonName": "Copperfields College", "naptan:Crossing": "Glencoe View", "naptan:Indicator": "Stop 45010736", "naptan:Landmark": "Copperfields College", "naptan:PlusbusZoneRef": "LEEDS", "naptan:ShortCommonName": "Copperfields Coll", "naptan:Street": "Cross Green Lane", "naptan:verified": "no", "public_transport": "platform", "source": "naptan_import"}}, {"type": "node", "id": 496715510, "lat": 53.7945981, "lon": -1.5191407, "tags": {"bench": "yes", "bin": "yes", "bus": "yes", "highway": "bus_stop", "local_ref": "45010737", "name": "Pontefract Road Pontefract Street", "naptan:AtcoCode": "450010737", "naptan:Bearing": "NW", "naptan:CommonName": "Pontefract Road Pontefract Street", "naptan:Crossing": "Pontefract Street", "naptan:Indicator": "Stop 45010737", "naptan:Notes": "Selter in RTA - Removed temp stop left 07/02/07 - New TF shelter & 3P ttcase 1.3.07", "naptan:PlusbusZoneRef": "LEEDS", "naptan:ShortCommonName": "Pontefract Street", "naptan:Street": "Pontefract Lane", "naptan:verified": "no", "public_transport": "platform", "shelter": "yes", "source": "naptan_import", "tactile_paving": "no"}}, {"type": "node", "id": 496715511, "lat": 53.7930396, "lon": -1.5227563, "tags": {"bus": "yes", "highway": "bus_stop", "local_ref": "45010738", "name": "Upper Accomodation Road Sussex Street", "naptan:AtcoCode": "450010738", "naptan:Bearing": "S", "naptan:CommonName": "Upper Accomodation Road Sussex Street", "naptan:Crossing": "Sussex Street", "naptan:Indicator": "Stop 45010738", "naptan:Landmark": "Medical Centre", "naptan:PlusbusZoneRef": "LEEDS", "naptan:ShortCommonName": "Sussex Street", "naptan:Street": "Upper Accommodation Road", "naptan:verified": "no", "public_transport": "platform", "source": "naptan_import"}}, {"type": "node", "id": 496715515, "lat": 53.7971813, "lon": -1.5089239, "tags": {"bus": "yes", "highway": "bus_stop", "local_ref": "45010741", "name": "East End Park Richmond Hill", "naptan:AtcoCode": "450010741", "naptan:Bearing": "NW", "naptan:CommonName": "East End Park Richmond Hill", "naptan:Crossing": "Ivy Avenue", "naptan:Indicator": "Stop 45010741", "naptan:PlusbusZoneRef": "LEEDS", "naptan:ShortCommonName": "Ivy Road", "naptan:Street": "Ivy Street", "naptan:verified": "no", "public_transport": "platform", "source": "naptan_import"}}, {"type": "node", "id": 496715516, "lat": 53.79194, "lon": -1.495533, "tags": {"bus": "yes", "highway": "bus_stop", "local_ref": "45010742", "name": "Neville Parade Neville Avenue", "naptan:AtcoCode": "450010742", "naptan:Bearing": "W", "naptan:CommonName": "Neville Parade Neville Avenue", "naptan:Crossing": "Neville Avenue", "naptan:Indicator": "Stop 45010742", "naptan:PlusbusZoneRef": "LEEDS", "naptan:ShortCommonName": "Neville Avenue", "naptan:Street": "Neville Parade", "naptan:verified": "yes", "public_transport": "platform", "shelter": "yes", "source": "naptan_import"}}, {"type": "node", "id": 496715518, "lat": 53.7939343, "lon": -1.4911395, "tags": {"bus": "yes", "highway": "bus_stop", "local_ref": "45010743", "name": "Halton Moor Avenue Neville Place", "naptan:AtcoCode": "450010743", "naptan:Bearing": "SW", "naptan:CommonName": "Halton Moor Avenue Neville Place", "naptan:Crossing": "Neville Place", "naptan:Indicator": "Stop 45010743", "naptan:PlusbusZoneRef": "LEEDS", "naptan:ShortCommonName": "Neville Place", "naptan:Street": "Halton Moor Avenue", "naptan:verified": "no", "public_transport": "platform", "source": "naptan_import"}}, {"type": "node", "id": 496715519, "lat": 53.792329, "lon": -1.4919938, "tags": {"bus": "yes", "highway": "bus_stop", "local_ref": "45010744", "name": "Halton Moor Avenue Neville Place", "naptan:AtcoCode": "450010744", "naptan:Bearing": "S", "naptan:CommonName": "Halton Moor Avenue Neville Place", "naptan:Crossing": "Neville Place", "naptan:Indicator": "Stop 45010744", "naptan:PlusbusZoneRef": "LEEDS", "naptan:ShortCommonName": "Neville Place", "naptan:Street": "Halton Moor Avenue", "naptan:verified": "no", "public_transport": "platform", "source": "naptan_import"}},