{"version": 0.6, "generator": "Overpass API 0.7.62.8 e802775f", "osm3s": {"timestamp_osm_base": "2026-01-12T07:00:15Z", "copyright": "The data included in this document is from www.openstreetmap.org. The data is made available under ODbL."}, "elements": [{"type": "node", "id": 248420920, "lat": 13.0386493, "lon": 80.2052158, "tags": {"addr:postcode": "600078", "amenity": "hospital", "healthcare": "hospital", "healthcare:speciality": "fertility;infertility;ivf_treatment", "name": "Kalaignar Karunanidhi Nagar", "name:en": "KK Nagar", "name:etymology:wikidata": "Q470875", "name:ta": "\u0b95\u0bb2\u0bc8\u0b9e\u0bb0\u0bcd \u0b95\u0bb0\u0bc1\u0ba3\u0bbe\u0ba8\u0bbf\u0ba4\u0bbf \u0ba8\u0b95\u0bb0\u0bcd", "operator": "Hospital", "wikidata": "Q6323457", "wikipedia": "en:K. K. Nagar, Chennai"}}, {"type": "node", "id": 308811614, "lat": 12.9787682, "lon": 80.1846471, "tags": {"addr:block": "Tambaram Mpty", "addr:city": "Chennai", "addr:district": "Kanchipuram", "addr:full": "Near By Ranga Theatre, Chennai, 100 Feet Road, Hinducolony, Nanagnanllur", "addr:postcode": "603209", "addr:state": "Tamil Nadu", "amenity": "hospital", "healthcare": "hospital", "name": "Hindu Mission Health Services, Kanchipuram", "source": "OpenGovernmentData"}}, {"type": "node", "id": 310015097, "lat": 13.0194622, "lon": 80.1972947, "tags": {"amenity": "hospital", "check_date": "2025-03-17", "created_by": "Potlatch 0.10f", "name": "Military Hospital"}}, {"type": "node", "id": 310909754, "lat": 12.9847145, "lon": 80.1905906, "tags": {"addr:district": "Chennai", "addr:full": "24 and 26, 'Swathi', 29 Th Street", "addr:postcode": "600061", "addr:state": "Tamil Nadu", "addr:subdistrict": "Nanganallur", "amenity": "hospital", "email": "info@hariharanhospitals.com", "healthcare": "hospital", "name": "Hariharan Hospital", "operator:type": "private", "source": "OpenGovernmentData", "website": "http://hariharanhospitals.com/"}}, {"type": "node", "id": 310910945, "lat": 12.9887616, "lon": 80.1904116, "tags": {"addr:street": "5th Main Road", "amenity": "hospital", "healthcare": "hospital", "name": "BM Hospital", "phone": "044-22670277", "website": "https://bmhospitals.com/", "wheelchair": "limited"}}, {"type": "node", "id": 311429396, "lat": 12.973463, "lon": 80.1841397, "tags": {"addr:district": "Kanchipuram", "addr:full": "5, Sarwamangala Nagar, Nanganallur", "addr:postcode": "600061", "addr:state": "Tamil Nadu", "amenity": "hospital", "healthcare": "hospital", "name": "K.F. Hospital", "source": "OpenGovernmentData"}}, {"type": "node", "id": 313027845, "lat": 13.0375371, "lon": 80.1386465}, {"type": "node", "id": 313027846, "lat": 13.0414008, "lon": 80.1392685}, {"type": "node", "id": 313027847, "lat": 13.042607, "lon": 80.1398808}, {"type": "node", "id": 313027848, "lat": 13.0437319, "lon": 80.1455092}, {"type": "node", "id": 313027850, "lat": 13.0373772, "lon": 80.1452797}, {"type": "node", "id": 313027851, "lat": 13.0372001, "lon": 80.1464013}, {"type": "node", "id": 313027852, "lat": 13.0363943, "lon": 80.1464057}, {"type": "node", "id": 313027868, "lat": 13.0380979, "lon": 80.1428047, "tags": {"amenity": "hospital", "healthcare": "hospital", "name": "Sri Ramachandra Medical Centre and Hospital"}}, {"type": "node", "id": 364650995, "lat": 13.0211808, "lon": 80.1858412, "tags": {"addr:district": "Chennai", "addr:full": "Manapakkam, 4/112, Mount Poonamalle Road", "addr:postcode": "600089", "addr:state": "Tamil Nadu", "addr:street": "4/112, Mount Poonamalle High Rd, Sathya Nagar, Manapakkam, Chennai, Tamil Nadu 600089", "amenity": "hospital", "email": "enq@miothospitals.com", "healthcare": "hospital", "name": "MIOT International", "opening_hours": "24/7", "operator:type": "private", "phone": "044 4200 2288", "source": "OpenGovernmentData", "website": "https://www.miotinternational.com/"}}, {"type": "node", "id": 366738197, "lat": 13.0337838, "lon": 80.2058285}, {"type": "node", "id": 367795605, "lat": 13.0122733, "lon": 80.196428, "tags": {"addr:district": "Kanchipuram", "addr:full": "No. 5, 105, Defence Colony 1st Ave, Seven Wells, St.Thomas Mount", "addr:postcode": "600016", "addr:state": "Tamil Nadu", "amenity": "hospital", "healthcare": "hospital", "name": "St. Thomas Hospital", "source": "OpenGovernmentData"}}, {"type": "node", "id": 370222369, "lat": 13.035569, "lon": 80.2060932}, {"type": "node", "id": 370495279, "lat": 13.0093121, "lon": 80.1948437}, {"type": "node", "id": 370495280, "lat": 13.0094878, "lon": 80.1948437}, {"type": "node", "id": 370495281, "lat": 13.0095212, "lon": 80.1946205}, {"type": "node", "id": 370495282, "lat": 13.009839, "lon": 80.1946291}, {"type": "node", "id": 370495283, "lat": 13.0098094, "lon": 80.1954082}, {"type": "node", "id": 370495284, "lat": 13.0093707, "lon": 80.195399}, {"type": "node", "id": 370967673, "lat": 13.009781, "lon": 80.1949734, "tags": {"amenity": "hospital", "healthcare": "hospital"}}, {"type": "node", "id": 372180644, "lat": 13.0336651, "lon": 80.2066161}, {"type": "node", "id": 442508332, "lat": 12.9653846, "lon": 80.2067733, "tags": {"amenity": "hospital", "healthcare": "hospital", "name": "Sarswathi Hospital", "wheelchair": "yes"}}, {"type": "node", "id": 459635161, "lat": 13.05244, "lon": 80.2041657, "tags": {"amenity": "hospital", "healthcare": "hospital", "name": "Apollo Clinic & Pharmacy"}}, {"type": "node", "id": 459648701, "lat": 13.0483819, "lon": 80.2070144, "tags": {"amenity": "hospital", "healthcare": "hospital", "name": "Vijaya Heart Centre"}}, {"type": "node", "id": 595706154, "lat": 13.0495316, "lon": 80.211027, "tags": {"addr:district": "Chennai", "addr:full": "D No 154/2, Aroot Road, Vadapalani", "addr:postcode": "600026", "addr:state": "Tamil Nadu", "amenity": "hospital", "healthcare": "hospital", "healthcare:speciality": "multi speciality", "name": "Vasan Eye Care Hospital, Vadapalani", "source": "OpenGovernmentData"}}, {"type": "node", "id": 992583956, "lat": 13.0529181, "lon": 80.2039631, "tags": {"amenity": "hospital", "healthcare": "hospital", "name": "Om Medicals"}}, {"type": "node", "id": 1015571498, "lat": 13.0331325, "lon": 80.1810857, "tags": {"addr:district": "Tiruvallur", "addr:full": "50 Bharathi Street, Ramapuram", "addr:postcode": "600089", "addr:state": "Tamil Nadu", "amenity": "hospital", "healthcare": "hospital", "name": "Srm Speciality Hospital", "source": "OpenGovernmentData"}}, {"type": "node", "id": 1015571601, "lat": 13.0321291, "lon": 80.1801201, "tags": {"amenity": "hospital", "healthcare": "hospital", "name": "SRM Dental Hospital"}}, {"type": "node", "id": 1391028839, "lat": 13.0324429, "lon": 80.2081334}, {"type": "node", "id": 1391028842, "lat": 13.0326935, "lon": 80.2064654}, {"type": "node", "id": 1391028854, "lat": 13.0333198, "lon": 80.2095996}, {"type": "node", "id": 1391028857, "lat": 13.0335347, "lon": 80.2083782}, {"type": "node", "id": 1391028858, "lat": 13.0350182, "lon": 80.2098525}, {"type": "node", "id": 1391574198, "lat": 13.0350754, "lon": 80.20602}, {"type": "node", "id": 1789987574, "lat": 12.9799192, "lon": 80.2044922, "tags": {"addr:street": "44, Shakti Nagar Main Road, Adambakkam, Balaji Nagar, Adambakkam, Chennai, Tamil Nadu 600088", "amenity": "hospital", "healthcare": "hospital", "name": "Prime Care Nursing Home"}}, {"type": "node", "id": 1955943159, "lat": 13.0385656, "lon": 80.2165845, "tags": {"amenity": "hospital", "designation": "Opthalmologist", "healthcare": "hospital", "name": "Agarwal Hospital", "source": "local knowledge"}}, {"type": "node", "id": 1979247767, "lat": 12.9730642, "lon": 80.1339663, "tags": {"addr:district": "Kanchipuram", "addr:full": "Plot No.6, Gokulam Colony, Anna Salai, Pammal, Kanchepuram", "addr:postcode": "600075", "addr:state": "Tamil Nadu", "amenity": "hospital", "emergency": "yes", "healthcare": "hospital", "name": "B.P. Jain Hospital (Sri Sankara Health Centre)", "source": "OpenGovernmentData"}}, {"type": "node", "id": 2072479943, "lat": 13.0358564, "lon": 80.1644897, "tags": {"amenity": "hospital", "emergency": "no", "name": "JK Hospital"}}, {"type": "node", "id": 2120763195, "lat": 12.9933638, "lon": 80.2009134, "tags": {"addr:district": "Kanchipuram", "addr:full": "No 11, Vellalar 1st Street, Adambakkam", "addr:postcode": "600088", "addr:state": "Tamil Nadu", "amenity": "hospital", "emergency": "yes", "healthcare": "hospital", "name": "SP Hospital", "source": "OpenGovernmentData"}}, {"type": "node", "id": 2126461371, "lat": 12.9837958, "lon": 80.1932105, "tags": {"addr:district": "Chennai", "addr:full": "No. 13, 7Th Street,Nanganallur", "addr:postcode": "600001", "addr:state": "Tamil Nadu", "amenity": "hospital", "healthcare": "hospital", "name": "Rotary Central Margaret Sidney Hospital", "source": "OpenGovernmentData"}}, {"type": "node", "id": 2145405955, "lat": 12.9786524, "lon": 80.1850278, "tags": {"addr:city": "Chennai", "amenity": "hospital", "healthcare": "hospital", "name": "Sri Chakra Hospital"}}, {"type": "node", "id": 2237512723, "lat": 13.0201297, "lon": 80.2237605}, {"type": "node", "id": 2237512725, "lat": 13.0202051, "lon": 80.2244395}, {"type": "node", "id": 2237806363, "lat": 13.0206874, "lon": 80.2236506}, {"type": "node", "id": 2237806365, "lat": 13.0207857, "lon": 80.224354}, {"type": "node", "id": 2250346308, "lat": 13.032777, "lon": 80.2082083}, {"type": "node", "id": 2250346454, "lat": 13.0352675, "lon": 80.2081602, "tags": {"access": "private", "barrier": "gate"}}, {"type": "node", "id": 2250346457, "lat": 13.0354242, "lon": 80.2070818}, {"type": "node", "id": 2253361647, "lat": 12.9842586, "lon": 80.1886083, "tags": {"amenity": "hospital", "healthcare": "hospital", "name": "Dr. Janardhanan Multispeciality Dental Clinic"}}, {"type": "node", "id": 2299085689, "lat": 12.9772356, "lon": 80.1884063}, {"type": "node", "id": 2299085690, "lat": 12.9775289, "lon": 80.1884332}, {"type": "node", "id": 2299085691, "lat": 12.9775414, "lon": 80.1882459}, {"type": "node", "id": 2299085692, "lat": 12.9772853, "lon": 80.1882325}, {"type": "node", "id": 2517035814, "lat": 12.9658002, "lon": 80.191882, "tags": {"addr:district": "Kanchipuram", "addr:full": "No: 683/5, Mahalingam Street ( Near Sbi ) Madipakkam", "addr:postcode": "600091", "addr:state": "Tamil Nadu", "amenity": "hospital", "healthcare": "hospital", "name": "Vasan Eye care", "source": "OpenGovernmentData"}}, {"type": "node", "id": 2669702938, "lat": 12.9710287, "lon": 80.2082964, "tags": {"addr:city": "Chennai", "addr:housename": "Sukrthi Nursing Home", "addr:housenumber": "21", "addr:postcode": "600091", "addr:street": "Mullai Street", "amenity": "hospital", "emergency": "yes", "healthcare": "hospital", "name": "Sukrthi Nursing Home"}}, {"type": "node", "id": 2676674712, "lat": 13.020804, "lon": 80.2243573}, {"type": "node", "id": 2676674713, "lat": 13.0209979, "lon": 80.2243027}, {"type": "node", "id": 2676674714, "lat": 13.0209604, "lon": 80.2239115}, {"type": "node", "id": 2676674715, "lat": 13.0207485, "lon": 80.2239355}, {"type": "node", "id": 2794348661, "lat": 13.0405941, "lon": 80.1784622, "tags": {"addr:block": "Chennai Zone Xi", "addr:district": "Chennai", "addr:full": "81-85, Near Indian Bank & Andhra Meals Hotel, Valasaravakkam", "addr:postcode": "600087", "addr:state": "Tamil Nadu", "amenity": "hospital", "emergency": "yes", "healthcare:speciality": "Cataract; Cornea and Refractive; Cornea; Lasik; Refractive; Contact Lens; Retina; Orbit and Oculoplasty; Glaucoma; Uvea; Neuro Ophthalmology; Squint and Pediatric Ophthalmolog", "name": "A.N.N Hospital", "source": "OpenGovernmentData"}}, {"type": "node", "id": 3396718585, "lat": 13.0357552, "lon": 80.2216604}, {"type": "node", "id": 3396718586, "lat": 13.0358858, "lon": 80.2220333}, {"type": "node", "id": 3396718587, "lat": 13.0361436, "lon": 80.2221462}, {"type": "node", "id": 3396718588, "lat": 13.0362421, "lon": 80.2217287}, {"type": "node", "id": 3396718589, "lat": 13.0361228, "lon": 80.2216986}, {"type": "node", "id": 3396718590, "lat": 13.0361038, "lon": 80.2216465}, {"type": "node", "id": 3396718591, "lat": 13.0360792, "lon": 80.2216581}, {"type": "node", "id": 3396718592, "lat": 13.0360413, "lon": 80.2215526}, {"type": "node", "id": 3396721106, "lat": 13.0362827, "lon": 80.2216769}, {"type": "node", "id": 3396721107, "lat": 13.0361734, "lon": 80.2221607}, {"type": "node", "id": 3396721108, "lat": 13.0362983, "lon": 80.2222001}, {"type": "node", "id": 3396721109, "lat": 13.0363452, "lon": 80.2219946}, {"type": "node", "id": 3396721110, "lat": 13.0365724, "lon": 80.2220252}, {"type": "node", "id": 3396721111, "lat": 13.0365951, "lon": 80.2219421}, {"type": "node", "id": 3396721112, "lat": 13.0363493, "lon": 80.221906}, {"type": "node", "id": 3396721113, "lat": 13.0363225, "lon": 80.2216798}, {"type": "node", "id": 3450009487, "lat": 13.0233818, "lon": 80.2227563}, {"type": "node", "id": 3450009488, "lat": 13.0233847, "lon": 80.2230708}, {"type": "node", "id": 3450009489, "lat": 13.0234417, "lon": 80.2227557}, {"type": "node", "id": 3450009490, "lat": 13.0234418, "lon": 80.2227635}, {"type": "node", "id": 3450009491, "lat": 13.023453, "lon": 80.2227634}, {"type": "node", "id": 3450009492, "lat": 13.0234532, "lon": 80.2227838}, {"type": "node", "id": 3450011993, "lat": 13.0234755, "lon": 80.2229879}, {"type": "node", "id": 3450011994, "lat": 13.0234763, "lon": 80.2230699}, {"type": "node", "id": 3450011995, "lat": 13.0234945, "lon": 80.2227834}, {"type": "node", "id": 3450011996, "lat": 13.0234964, "lon": 80.2229877}, {"type": "node", "id": 3450050682, "lat": 13.0222752, "lon": 80.2221852}, {"type": "node", "id": 3450050683, "lat": 13.0222765, "lon": 80.222371}, {"type": "node", "id": 3450050684, "lat": 13.0223467, "lon": 80.2223706}, {"type": "node", "id": 3450050685, "lat": 13.0223454, "lon": 80.2221848}, {"type": "node", "id": 3500408327, "lat": 13.0219096, "lon": 80.2256521}, {"type": "node", "id": 3500408328, "lat": 13.0215027, "lon": 80.2257745}, {"type": "node", "id": 3500408329, "lat": 13.0217646, "lon": 80.2258573}, {"type": "node", "id": 3500408330, "lat": 13.0219611, "lon": 80.2257841}, {"type": "node", "id": 3500408331, "lat": 13.0217985, "lon": 80.2256545}, {"type": "node", "id": 3500408332, "lat": 13.0218102, "lon": 80.2256881}, {"type": "node", "id": 3500408333, "lat": 13.0216898, "lon": 80.2258861}, {"type": "node", "id": 3562907944, "lat": 13.0418745, "lon": 80.2247788}, {"type": "node", "id": 3562907945, "lat": 13.0417207, "lon": 80.2247365}, {"type": "node", "id": 3562907946, "lat": 13.0417413, "lon": 80.22466}, {"type": "node", "id": 3562907947, "lat": 13.0417175, "lon": 80.224642}, {"type": "node", "id": 3562907948, "lat": 13.0417413, "lon": 80.2244857}, {"type": "node", "id": 3562907949, "lat": 13.0418333, "lon": 80.2245101}, {"type": "node", "id": 3562907950, "lat": 13.0418, "lon": 80.2246437}, {"type": "node", "id": 3562907951, "lat": 13.0419047, "lon": 80.224673}, {"type": "node", "id": 3602354635, "lat": 13.0073187, "lon": 80.2059344}, {"type": "node", "id": 3602354636, "lat": 13.0073406, "lon": 80.2062443}, {"type": "node", "id": 3602354643, "lat": 13.0074229, "lon": 80.2059262}, {"type": "node", "id": 3602354648, "lat": 13.0074851, "lon": 80.2062398}, {"type": "node", "id": 3602533540, "lat": 13.0380043, "lon": 80.1891262}, {"type": "node", "id": 3602533541, "lat": 13.0380058, "lon": 80.1889998}, {"type": "node", "id": 3602533619, "lat": 13.0382022, "lon": 80.1891286}, {"type": "node", "id": 3602533621, "lat": 13.0382036, "lon": 80.1890021}, {"type": "node", "id": 3606759079, "lat": 13.0307626, "lon": 80.1719283}, {"type": "node", "id": 3606759497, "lat": 13.0308788, "lon": 80.1715273}, {"type": "node", "id": 3606759519, "lat": 13.0308533, "lon": 80.171956}, {"type": "node", "id": 3606759539, "lat": 13.0309696, "lon": 80.171555}, {"type": "node", "id": 3606874346, "lat": 12.9855188, "lon": 80.2183753}, {"type": "node", "id": 3606874348, "lat": 12.9855221, "lon": 80.2184829}, {"type": "node", "id": 3606874517, "lat": 12.9856513, "lon": 80.2182846}, {"type": "node", "id": 3606874518, "lat": 12.985654, "lon": 80.2183709}, {"type": "node", "id": 3606874531, "lat": 12.9857021, "lon": 80.2182829}, {"type": "node", "id": 3606874533, "lat": 12.985708, "lon": 80.2184769}, {"type": "node", "id": 3683910119, "lat": 12.9808674, "lon": 80.1871242}, {"type": "node", "id": 3683910120, "lat": 12.9808749, "lon": 80.1871549}, {"type": "node", "id": 3683910121, "lat": 12.9809103, "lon": 80.1870668}, {"type": "node", "id": 3683910122, "lat": 12.9810196, "lon": 80.1871618}, {"type": "node", "id": 3683910123, "lat": 12.9810232, "lon": 80.1870716}, {"type": "node", "id": 3687685030, "lat": 12.9764429, "lon": 80.2221405}, {"type": "node", "id": 3687685031, "lat": 12.976479, "lon": 80.2221924}, {"type": "node", "id": 3687685032, "lat": 12.976426, "lon": 80.2222414}, {"type": "node", "id": 3687685033, "lat": 12.9763889, "lon": 80.222185}, {"type": "node", "id": 3687685034, "lat": 12.9764202, "lon": 80.2221583}, {"type": "node", "id": 3687711447, "lat": 12.9767775, "lon": 80.2223505, "tags": {"amenity": "hospital", "healthcare": "hospital", "name": "Kaya Skin clinic"}}, {"type": "node", "id": 4329387869, "lat": 12.9733792, "lon": 80.187599, "tags": {"addr:city": "nanganallur", "addr:district": "Kanchipuram", "addr:full": "11/77, Voltas Colony,6Th Street Nanganallur- 61", "addr:housenumber": "11/77", "addr:postcode": "600061", "addr:state": "Tamil Nadu", "addr:street": "6th street,voltas colony", "amenity": "hospital", "emergency": "yes", "healthcare": "hospital", "name": "Srinivasan Rajalakshmi Memorial Hospital", "operator": "Dr. S.Krishnan , MD.RT, Dr. Mrs. P. Radha [MD]", "operator:type": "private", "phone": "+91 98401 17136, +91 44 4504 6010", "source": "OpenGovernmentData", "wheelchair": "yes"}}, {"type": "node", "id": 4411855589, "lat": 13.026489, "lon": 80.1829882, "tags": {"amenity": "hospital"}}, {"type": "node", "id": 4485029941, "lat": 13.0380299, "lon": 80.1888497}, {"type": "node", "id": 4485029942, "lat": 13.0380299, "lon": 80.1889569}, {"type": "node", "id": 4485029944, "lat": 13.0381227, "lon": 80.1888497}, {"type": "node", "id": 4485029945, "lat": 13.0381227, "lon": 80.1889569}, {"type": "node", "id": 4486583996, "lat": 13.0380047, "lon": 80.1889685, "tags": {"amenity": "hospital", "healthcare": "hospital", "name": "Chennai Medical Centre Hospital"}}, {"type": "node", "id": 4488082604, "lat": 13.0515961, "lon": 80.2114304, "tags": {"addr:block": "Chennai Zone X", "addr:district": "Chennai", "addr:full": "No.1, Next To Vadapalani Metro Station, Vadapalani, Jawaharlal Nehru Salai", "addr:housenumber": "No. 1", "addr:postcode": "600026", "addr:state": "Tamil Nadu", "addr:street": "Jawaharlal Nehru Road (100 Feet Road)", "amenity": "hospital", "description": "SIMS Hospital", "healthcare": "hospital", "name": "SRM Institutes For Medical Science", "name:en": "SRM Institutes For Medical Science", "opening_hours": "24/7", "phone": "+91 44 2000 2001", "source": "OpenGovernmentData", "website": "https://www.simshospitals.com/"}}, {"type": "node", "id": 4644225942, "lat": 13.0074492, "lon": 80.2059613}, {"type": "node", "id": 4644225943, "lat": 13.0074515, "lon": 80.2060549}, {"type": "node", "id": 4644225944, "lat": 13.007469, "lon": 80.206071}, {"type": "node", "id": 4644225945, "lat": 13.0074809, "lon": 80.2061687}, {"type": "node", "id": 4644225946, "lat": 13.0074635, "lon": 80.2061644}, {"type": "node", "id": 4644225947, "lat": 13.0074607, "lon": 80.2061424}, {"type": "node", "id": 4644225948, "lat": 13.0074764, "lon": 80.2061364}, {"type": "node", "id": 5500158687, "lat": 13.0497391, "lon": 80.2083222, "tags": {"addr:block": "Chennai Zone Ix", "addr:district": "Chennai", "addr:full": "Gopathi Narayanaswami Chetty Rd, Satyamurthy Nagar, T. Nagar", "addr:postcode": "600017", "addr:state": "Tamil Nadu", "addr:street": "New No:434, Old No:180, NSK Salai Rd, Vadapalani, Chennai, Tamil Nadu 600026", "amenity": "hospital", "healthcare": "hospital", "name": "Vijaya Group of Hospital", "opening_hours": "24/7", "phone": "044 6664 6600", "source": "OpenGovernmentData", "website": "https://vijayahospital.org/"}}, {"type": "node", "id": 5631872266, "lat": 13.031147, "lon": 80.2228983, "tags": {"addr:city": "Chennai", "addr:district": "Chennai", "addr:full": "# 27, Govindan Raod, West Mambalam, Near Srinivasa Theatre", "addr:postcode": "600033", "addr:state": "Tamil Nadu", "addr:street": "Govindan Road", "amenity": "hospital", "healthcare": "hospital", "healthcare:speciality": "general", "name": "Annamalai Hospital", "operator": "Annamalai", "source": "OpenGovernmentData"}}, {"type": "node", "id": 5631872277, "lat": 13.0319539, "lon": 80.2207913, "tags": {"addr:city": "Saidapet", "addr:postcode": "600015", "addr:street": "Govindan Road", "amenity": "hospital", "emergency": "yes", "healthcare": "hospital", "healthcare:speciality": "general;orthopaedics", "name": "Ezhil Hospital", "operator": "Durairaj"}}, {"type": "node", "id": 5792664046, "lat": 12.9794, "lon": 80.2043658, "tags": {"addr:street": "68, 18th St, Balaji Nagar Extn-II, Vanuvampet, Madipakkam, Chennai, Tamil Nadu 600088", "amenity": "hospital", "healthcare": "hospital", "name": "Qure Ortho Clinic, Physiotherapy, X Ray & Pharmacy", "opening_hours": "Mo-Su 08:00-22:00", "phone": "095000 06644"}}, {"type": "node", "id": 6185882385, "lat": 13.0289663, "lon": 80.2085951, "tags": {"amenity": "hospital", "healthcare": "hospital", "name": "Nivas Skin Clinic"}}, {"type": "node", "id": 6755994529, "lat": 13.0437189, "lon": 80.145925}, {"type": "node", "id": 6755994530, "lat": 13.0437214, "lon": 80.1457728}, {"type": "node", "id": 6755994531, "lat": 13.0437281, "lon": 80.1456042}, {"type": "node", "id": 6914280093, "lat": 13.042307, "lon": 80.177473, "tags": {"addr:district": "Tiruvallur", "addr:full": "153, Arcot Road, Sai Square Complex Valasaravakkam Chennai Chennai", "addr:postcode": "600087", "addr:state": "Tamil Nadu", "amenity": "hospital", "name": "Rakshith Hospitals", "source": "OpenGovernmentData"}}, {"type": "node", "id": 6914768069, "lat": 13.0229098, "lon": 80.1670808, "tags": {"addr:city": "\u0b9a\u0bc6\u0ba9\u0bcd\u0ba9\u0bc8 - Chennai", "addr:district": "Kanchipuram", "addr:full": "19, Vinayagapuram, Mugalivakkam Main Road Porur", "addr:housenumber": "19", "addr:postcode": "600125", "addr:state": "Tamil Nadu", "addr:street": "Mugalivakkam Main Road", "amenity": "hospital", "healthcare": "hospital", "healthcare:speciality": "general;paediatrics", "name": "Kedar Hospital", "source": "OpenGovernmentData", "wheelchair": "yes"}}, {"type": "node", "id": 6914880539, "lat": 12.9789449, "lon": 80.2246302, "tags": {"addr:district": "Chennai", "addr:full": "No 6 12Th Cross Steet Dhandeeswaram Nagar Velachery", "addr:postcode": "600042", "addr:state": "Tamil Nadu", "amenity": "hospital", "healthcare": "hospital", "name": "Chennai Eye Care Hospital", "source": "OpenGovernmentData"}}, {"type": "node", "id": 6914911764, "lat": 13.0433091, "lon": 80.2187696, "tags": {"addr:district": "Chennai", "addr:full": "No.7, Varadappan Street,West Mambalam", "addr:postcode": "600033", "addr:state": "Tamil Nadu", "amenity": "hospital", "healthcare": "hospital", "name": "Vasanthram Hospital (P) Ltd.,", "source": "OpenGovernmentData"}}, {"type": "node", "id": 6914927162, "lat": 13.0516559, "lon": 80.2133146, "tags": {"addr:block": "Chennai Zone X", "addr:district": "Chennai", "addr:full": "Near Murugan Temple, Vadapalani, Palaniandavar Koil St", "addr:postcode": "600026", "addr:state": "Tamil Nadu", "amenity": "hospital", "healthcare": "hospital", "name": "Vadapalani Multispeciality Hospital", "source": "OpenGovernmentData"}}, {"type": "node", "id": 6914937617, "lat": 13.0378713, "lon": 80.1402023, "tags": {"addr:district": "Kanchipuram", "addr:full": "No.1, Ramchandra Nagar", "addr:postcode": "600016", "addr:state": "Tamil Nadu", "amenity": "hospital", "name": "Sri Ramachandra Hospital", "source": "OpenGovernmentData"}}, {"type": "node", "id": 6915201226, "lat": 12.9855882, "lon": 80.2189144, "tags": {"addr:district": "Chennai", "addr:full": "No.39, Rajalakhsmi Nagar", "addr:postcode": "600042", "addr:state": "Tamil Nadu", "amenity": "hospital", "healthcare": "hospital", "name": "Helios Hospital Pvt Ltd", "source": "OpenGovernmentData"}}, {"type": "node", "id": 6915231638, "lat": 12.971439, "lon": 80.1378152, "tags": {"addr:district": "Kanchipuram", "addr:full": "No.19, 4Th Cross Street, Krishna Nagar, Pammal, Chennai", "addr:postcode": "600075", "addr:state": "Tamil Nadu", "amenity": "hospital", "healthcare": "hospital", "name": "Devibala Maternity", "source": "OpenGovernmentData"}}, {"type": "node", "id": 6926045326, "lat": 13.0379843, "lon": 80.2163241, "tags": {"addr:block": "Chennai Zone X", "addr:district": "Chennai", "addr:full": "No.39, Ashok Nagar, 7Th Avenue", "addr:postcode": "600083", "addr:state": "Tamil Nadu", "amenity": "hospital", "healthcare": "hospital", "name": "Sri Sai Krs Hospital", "source": "OpenGovernmentData"}}, {"type": "node", "id": 6926049961, "lat": 12.9779713, "lon": 80.1883923, "tags": {"addr:district": "Kanchipuram", "addr:full": "18, 6Th Street Lakshmi Nagar, Nanganallur Chennai", "addr:postcode": "600061", "addr:state": "Tamil Nadu", "amenity": "hospital", "healthcare": "hospital", "name": "Gowri Nursing Home, Kanchipuram", "source": "OpenGovernmentData"}}, {"type": "node", "id": 6926055922, "lat": 13.0331935, "lon": 80.2159045, "tags": {"addr:district": "Chennai", "addr:full": "New No 80, 7Th Avenue Ashok Nagar", "addr:postcode": "600083", "addr:state": "Tamil Nadu", "addr:subdistrict": "Ashok Nagar", "amenity": "hospital", "email": "contact@ammayieyehospital.com", "healthcare": "hospital", "name": "Ammayi Eye Hospital", "operator:type": "private", "source": "OpenGovernmentData", "website": "http://www.ammayieyehospital.com/"}}, {"type": "node", "id": 6926055923, "lat": 13.0379671, "lon": 80.2013517, "tags": {"addr:district": "Chennai", "addr:full": "453 And 454, R.K. Shanmugam Salai , K.K. Nagar", "addr:postcode": "600001", "addr:state": "Tamil Nadu", "amenity": "hospital", "healthcare": "hospital", "name": "K.M. Speciality Hospital", "source": "OpenGovernmentData"}}, {"type": "node", "id": 6926118208, "lat": 13.0400969, "lon": 80.2044211, "tags": {"addr:district": "Chennai", "addr:full": "B-49B, Dr.Ramasamy Salai, Near Pillayar Koil Bus Stop, K.K Nagar", "addr:postcode": "600078", "addr:state": "Tamil Nadu", "amenity": "hospital", "healthcare": "hospital", "name": "S M Hospital, Chennai", "source": "OpenGovernmentData"}}, {"type": "node", "id": 6926173267, "lat": 13.0012687, "lon": 80.2001283, "tags": {"addr:district": "Kanchipuram", "addr:full": "Ii Gst Road, St. Thomas Mount", "addr:postcode": "600016", "addr:state": "Tamil Nadu", "amenity": "hospital", "healthcare": "hospital", "name": "Cu Shah Sankara Netralaya", "source": "OpenGovernmentData"}}, {"type": "node", "id": 6926494055, "lat": 12.9952982, "lon": 80.2068955, "tags": {"addr:district": "Chennai", "addr:full": "#12/6, City Link Road, Near NGO Colony Bus Stand", "addr:postcode": "600088", "addr:state": "Tamil Nadu", "addr:subdistrict": "Adambakkam", "amenity": "hospital", "email": "grhospital@gmail.com", "healthcare": "hospital", "name": "G. R. Hospital & Fertility Centre", "operator:type": "private", "source": "OpenGovernmentData", "website": "http://www.grfertilitycentre.com/"}}, {"type": "node", "id": 6926953024, "lat": 12.9911179, "lon": 80.1986745, "tags": {"addr:district": "Kanchipuram", "addr:full": "No 3, Near Jayalakshmi Cinema Hall & St Thomas Mount Railway Station, Medavakkam Main Road, Adambakkam, Chennai - 600088", "addr:postcode": "600088", "addr:state": "Tamil Nadu", "amenity": "hospital", "healthcare": "hospital", "name": "K P Childrens Hospital And Neuro Centre", "source": "OpenGovernmentData"}}, {"type": "node", "id": 6927647007, "lat": 13.054729, "lon": 80.2110462, "tags": {"addr:district": "Chennai", "addr:full": "180, Nsk Salai, Vadapalani", "addr:postcode": "600026", "addr:state": "Tamil Nadu", "amenity": "hospital", "healthcare": "hospital", "name": "Vijaya Heart Foundation - Vijaya Hospital", "source": "OpenGovernmentData"}}, {"type": "node", "id": 6928094720, "lat": 12.9762711, "lon": 80.2222002, "tags": {"addr:district": "Chennai", "addr:full": "No.-4, 100 Feet Road, Tansi Nagar, Velachery", "addr:postcode": "600042", "addr:state": "Tamil Nadu", "amenity": "hospital", "healthcare": "hospital", "name": "Athipathi Hospital and Research Centre", "source": "OpenGovernmentData"}}, {"type": "node", "id": 6928936148, "lat": 12.9832366, "lon": 80.217509, "tags": {"addr:district": "Chennai", "addr:full": "27, 100 Feet Road, Taramani Link Road, Velacherry", "addr:postcode": "600042", "addr:state": "Tamil Nadu", "amenity": "hospital", "healthcare": "hospital", "name": "Dr.Agarwals Eye Hospital - Velacherry", "operator": "Dr. Agarwal's Eye Hospital", "operator:type": "private", "operator:wikidata": "Q17052044", "source": "OpenGovernmentData"}}, {"type": "node", "id": 6928936149, "lat": 12.9827844, "lon": 80.1891661, "tags": {"addr:city": "Chennai", "addr:district": "Kanchipuram", "addr:full": "Ophthalmology Department, Margaret Sydney Hospital, 13,2nd Street, Nanganallur", "addr:postcode": "600061", "addr:state": "Tamil Nadu", "amenity": "hospital", "healthcare": "hospital", "name": "Dr.Agarwal's Eye Hospital Ltd, Nanganallur", "source": "OpenGovernmentData"}}, {"type": "node", "id": 6929259906, "lat": 13.0314888, "lon": 80.2218689, "tags": {"addr:block": "Chennai Zone X", "addr:district": "Chennai", "addr:full": "Near Srinivasa Theatre, West Mambalam, Govindan Road", "addr:postcode": "600033", "addr:state": "Tamil Nadu", "amenity": "hospital", "check_date": "2024-04-16", "healthcare": "hospital", "name": "Lakshmi Hospital", "source": "OpenGovernmentData"}}, {"type": "node", "id": 6929372896, "lat": 12.9823277, "lon": 80.1937835, "tags": {"addr:district": "Chennai", "addr:full": "72, I Main Road,Naganallur", "addr:housenumber": "72", "addr:postcode": "600061", "addr:state": "Tamil Nadu", "addr:street": "Nanganallur 1st Main Road", "amenity": "hospital", "healthcare": "hospital", "name": "Bharath Hospital", "opening_hours": "24/7", "phone": "+91 44 2224 6481;+91 44 2224 6789;+91 98419 72378", "source": "OpenGovernmentData", "website": "http://www.bharathhospital.in"}}, {"type": "node", "id": 6930163091, "lat": 13.0405732, "lon": 80.2146873, "tags": {"addr:block": "Chennai Zone X", "addr:district": "Chennai", "addr:full": "Door No.1, 40Th Street, 1St Floor, Opposite To Jfa, Near Ashok Nagar", "addr:postcode": "600083", "addr:state": "Tamil Nadu", "amenity": "hospital", "healthcare": "hospital", "name": "Je Nesam Hospital", "source": "OpenGovernmentData"}}, {"type": "node", "id": 6931658649, "lat": 13.0462892, "lon": 80.1979979, "tags": {"addr:district": "Kanchipuram", "addr:full": "No-4, Lal Bahadur Sastry Street Sathya Garden, Saligramam", "addr:postcode": "600043", "addr:state": "Tamil Nadu", "amenity": "hospital", "healthcare": "hospital", "name": "V H M Hospitals Pvt Ltd", "source": "OpenGovernmentData"}}, {"type": "node", "id": 6933828333, "lat": 13.0461063, "lon": 80.2220044, "tags": {"addr:district": "Chennai", "addr:full": "5 Kannadasan St.Ranga Rajapuram", "addr:postcode": "600024", "addr:state": "Tamil Nadu", "amenity": "hospital", "healthcare": "hospital", "name": "Madras Poly Clinic and R.R. Scan", "source": "OpenGovernmentData"}}, {"type": "node", "id": 6933831617, "lat": 13.0411063, "lon": 80.1747546, "tags": {"addr:district": "Tiruvallur", "addr:full": "No 50, Arcot Road, Valasaravakkam", "addr:postcode": "600087", "addr:state": "Tamil Nadu", "amenity": "hospital", "name": "Vasan Eye Care Hospital, Valasaravakkam", "source": "OpenGovernmentData"}}, {"type": "node", "id": 6934018868, "lat": 13.0473239, "lon": 80.2241461, "tags": {"addr:district": "Chennai", "addr:full": "New No: 177, Old No:77, Rangarajapuram Road, Kodambakkam", "addr:postcode": "600024", "addr:state": "Tamil Nadu", "amenity": "hospital", "healthcare": "hospital", "name": "S.V. Bone And Joint Hospital", "source": "OpenGovernmentData"}}, {"type": "node", "id": 6934031649, "lat": 12.9652266, "lon": 80.1927643, "tags": {"addr:district": "Kanchipuram", "addr:full": "#.39, Sabari Salai,Madipakkam", "addr:postcode": "600091", "addr:state": "Tamil Nadu", "amenity": "hospital", "healthcare": "hospital", "name": "Sri G.M. Hospital", "source": "OpenGovernmentData"}}, {"type": "node", "id": 6934061609, "lat": 12.97853, "lon": 80.1851381, "tags": {"addr:district": "Kancheepuram", "addr:full": "Chennai, No 1 Civil Aviation Colony, 100 Feet Road, Nanganallur", "addr:postcode": "600061", "addr:state": "Tamil Nadu", "addr:subdistrict": "Tambaram", "amenity": "hospital", "healthcare": "hospital", "name": "Srichakara Multispeciality Hospital", "source": "OpenGovernmentData"}}, {"type": "node", "id": 6934139598, "lat": 12.9731392, "lon": 80.1371252, "tags": {"addr:district": "Kanchipuram", "addr:full": "No. 1, Ganesan Street, (Pammal Main Road) Krishna Nagar, Pammal", "addr:postcode": "600075", "addr:state": "Tamil Nadu", "amenity": "hospital", "healthcare": "hospital", "name": "Arvind Sai Eye Hospital", "source": "OpenGovernmentData"}}, {"type": "node", "id": 6934163318, "lat": 12.9697917, "lon": 80.1904562, "tags": {"addr:district": "Kanchipuram", "addr:full": "Plot No. 5, Medavakkam Main Road, , Madipakkam,Near Madipakkam Koot Oad", "addr:postcode": "600091", "addr:state": "Tamil Nadu", "amenity": "hospital", "healthcare": "hospital", "name": "Sibi Hospital", "source": "OpenGovernmentData"}}, {"type": "node", "id": 6934186203, "lat": 12.9857914, "lon": 80.185987, "tags": {"addr:district": "Chennai", "addr:full": "No.1, 47th Street, 5th Main Road", "addr:postcode": "600 061", "addr:state": "Tamil Nadu", "addr:subdistrict": "Nanganallur", "amenity": "hospital", "email": "info@cmhospital.in", "healthcare": "hospital", "name": "Sri Venkateshwara`s C.M. Hospital", "operator:type": "private", "source": "OpenGovernmentData", "website": "https://cmhospital.in/"}}, {"type": "node", "id": 6934340601, "lat": 12.9784706, "lon": 80.2247932, "tags": {"addr:district": "Chennai", "addr:full": "40B, Tansi Nagar Vii St, Velachery", "addr:postcode": "600042", "addr:state": "Tamil Nadu", "amenity": "hospital", "healthcare": "hospital", "name": "Nandhini Hospital", "source": "OpenGovernmentData"}}, {"type": "node", "id": 6934340749, "lat": 13.0390564, "lon": 80.2086724, "tags": {"addr:district": "Chennai", "addr:full": "No. 25, 10Th Avenue, Ashoknagar", "addr:postcode": "600083", "addr:state": "Tamil Nadu", "amenity": "hospital", "healthcare": "hospital", "name": "Orthopedic and Specialities Hospital", "source": "OpenGovernmentData"}}, {"type": "node", "id": 6934340781, "lat": 13.0122123, "lon": 80.2235084, "tags": {"addr:district": "Dindigul", "addr:full": "4/12A, Anna Nagar,Palani", "addr:postcode": "624601", "addr:state": "Tamil Nadu", "amenity": "hospital", "name": "Palani Balaji Fertility Centre", "source": "OpenGovernmentData"}}, {"type": "node", "id": 6934340782, "lat": 13.0420391, "lon": 80.2126005, "tags": {"addr:block": "Chennai Zone X", "addr:district": "Chennai", "addr:full": "No.19A, Next To Bhuari Hotel, Ashok Nagar, First Avenue", "addr:postcode": "600083", "addr:state": "Tamil Nadu", "amenity": "hospital", "healthcare": "hospital", "name": "Pallava Hospital", "source": "OpenGovernmentData"}}, {"type": "node", "id": 6934340789, "lat": 12.9801472, "lon": 80.1835965, "tags": {"addr:district": "Kanchipuram", "addr:full": "C3, Hindu Colony, Nanganallur", "addr:postcode": "600061", "addr:state": "Tamil Nadu", "amenity": "hospital", "healthcare": "hospital", "name": "Pankajam Memorial Hospital", "source": "OpenGovernmentData"}}, {"type": "node", "id": 6935159758, "lat": 12.9673347, "lon": 80.1867983, "tags": {"addr:district": "Kanchipuram", "addr:full": "2/93, 2nd Main Rod, Ragavanagar, Madipakkam", "addr:postcode": "600091", "addr:state": "Tamil Nadu", "amenity": "hospital", "healthcare": "hospital", "name": "Thirimoorthys Heart Care Hospital", "source": "OpenGovernmentData"}}, {"type": "node", "id": 6936244762, "lat": 13.0449677, "lon": 80.1846506, "tags": {"addr:district": "Tiruvallur", "addr:full": "1, Jawaharlal Nehru Street, Valasarawakkam, Alwarthirunagar", "addr:postcode": "600087", "addr:state": "Tamil Nadu", "amenity": "hospital", "healthcare": "hospital", "name": "Royal Hospital - Chennai", "source": "OpenGovernmentData"}}, {"type": "node", "id": 6936264375, "lat": 13.0309126, "lon": 80.1715896, "tags": {"addr:district": "Kanchipuram", "addr:full": "36, Poothapedu Main Road, Vengadeswar Nagar, Perur", "addr:postcode": "600116", "addr:state": "Tamil Nadu", "amenity": "hospital", "name": "Viganesh Hospital", "source": "OpenGovernmentData"}}, {"type": "node", "id": 6936339711, "lat": 13.0483992, "lon": 80.2040416, "tags": {"addr:district": "Chennai", "addr:full": "37, Arunachalam Road", "addr:postcode": "600093", "addr:state": "Tamil Nadu", "amenity": "hospital", "healthcare": "hospital", "name": "R.R. Eye Instutute and Laser Foundation", "source": "OpenGovernmentData"}}, {"type": "node", "id": 6936386662, "lat": 13.0381353, "lon": 80.1619336, "tags": {"addr:district": "Kanchipuram", "addr:full": "No 49, Aruot Road Porur Porur Chennai", "addr:postcode": "600116", "addr:state": "Tamil Nadu", "amenity": "hospital", "name": "Dr Agarwals Eye Hospital Ltd, Chennai", "source": "OpenGovernmentData"}}, {"type": "node", "id": 6936434314, "lat": 13.0353484, "lon": 80.1822808, "tags": {"addr:district": "Kanchipuram", "addr:full": "No.1, Padmavathy Street, Thirumalai, Ramapuram", "addr:postcode": "600089", "addr:state": "Tamil Nadu", "amenity": "hospital", "name": "Srushti Hospital, Kanchipuram", "source": "OpenGovernmentData"}}, {"type": "node", "id": 6936663153, "lat": 12.9763914, "lon": 80.2114016, "tags": {"addr:district": "Chennai", "addr:full": "No.14, 10Th Cross Street , A.G.S.Colony, Velachery", "addr:postcode": "600042", "addr:state": "Tamil Nadu", "amenity": "hospital", "healthcare": "hospital", "name": "Velachery K S Hospital", "source": "OpenGovernmentData"}}, {"type": "node", "id": 6936684328, "lat": 12.9925116, "lon": 80.2061465, "tags": {"addr:district": "Kanchipuram", "addr:full": "#1, Kakkan Nagar 1st Main Road, Adambakkam", "addr:postcode": "600088", "addr:state": "Tamil Nadu", "amenity": "hospital", "name": "Ponmalligai Hospital Pvt Ltd", "source": "OpenGovernmentData"}}, {"type": "node", "id": 6936695177, "lat": 12.9833895, "lon": 80.2181782, "tags": {"addr:district": "Chennai", "addr:full": "7/14, 7Th Cross Street, Rajalakshmi Nagar, Velachery", "addr:postcode": "600042", "addr:state": "Tamil Nadu", "amenity": "hospital", "healthcare": "hospital", "name": "Xcellent Care Superspeciality Hospital", "source": "OpenGovernmentData"}}, {"type": "node", "id": 6936695215, "lat": 12.9740991, "lon": 80.1387607, "tags": {"addr:block": "Tambaram Mpty", "addr:district": "Kancheepuram", "addr:full": "Krishna Nagar, Pammal, Pilliyar Koil Street", "addr:postcode": "600075", "addr:state": "Tamil Nadu", "addr:subdistrict": "Tambaram", "amenity": "hospital", "healthcare": "hospital", "name": "Subhiksha Hospital", "source": "OpenGovernmentData"}}, {"type": "node", "id": 6936708989, "lat": 13.0481888, "lon": 80.2035199, "tags": {"addr:block": "Chennai Zone X", "addr:district": "Chennai", "addr:full": "No.1, Near By Avm Studio, Saligramam, Arunachalam St", "addr:postcode": "600093", "addr:state": "Tamil Nadu", "amenity": "hospital", "healthcare": "hospital", "name": "Sooriya Hospital", "source": "OpenGovernmentData", "wikidata": "Q52843713"}}, {"type": "node", "id": 6936874933, "lat": 13.0475826, "lon": 80.2069719, "tags": {"addr:district": "Chennai", "addr:full": "175, N.S.K. Salai, Vadapalani", "addr:postcode": "600026", "addr:state": "Tamil Nadu", "amenity": "hospital", "healthcare": "hospital", "name": "Paterson Cancer Center / Vijaya Health Centre Premises", "source": "OpenGovernmentData"}}, {"type": "node", "id": 6936976871, "lat": 13.047269, "lon": 80.2187347, "tags": {"addr:district": "Chennai", "addr:full": "No.36, Dr. Ambedkar Road, Kodambakkam", "addr:postcode": "600024", "addr:state": "Tamil Nadu", "amenity": "hospital", "healthcare": "hospital", "name": "Spot Hospital", "source": "OpenGovernmentData"}}, {"type": "node", "id": 6937055902, "lat": 12.9758647, "lon": 80.2205016, "tags": {"addr:district": "Chennai", "addr:full": "Plot No. 191, 100 Feet By-Pass Road, Velacherry", "addr:postcode": "600042", "addr:state": "Tamil Nadu", "amenity": "hospital", "healthcare": "hospital", "name": "Appasamy Krishna Hospital and Medical Research Centre", "source": "OpenGovernmentData"}}, {"type": "node", "id": 6937398987, "lat": 13.0345893, "lon": 80.1836944, "tags": {"addr:district": "Kanchipuram", "addr:full": "No: 3/49, Valluvar Salai, Ramapuram", "addr:postcode": "600089", "addr:state": "Tamil Nadu", "amenity": "hospital", "name": "Roy's Heart Foundation", "source": "OpenGovernmentData"}}, {"type": "node", "id": 6937497904, "lat": 13.0463676, "lon": 80.1865241, "tags": {"addr:district": "Tiruvallur", "addr:full": "No.36, Ist Main Road, Alwarthirunagar Annexe, Alwarthirunagar, Chennai", "addr:postcode": "600087", "addr:state": "Tamil Nadu", "amenity": "hospital", "healthcare": "hospital", "healthcare:speciality": "multi speciality", "name": "Aaditya Kamaraja Eye Hospital", "source": "OpenGovernmentData"}}, {"type": "node", "id": 7181748147, "lat": 13.0380111, "lon": 80.2013205, "tags": {"addr:district": "Chennai", "addr:full": "No 22, Arcot Road, Saligramam", "addr:postcode": "600093", "addr:state": "Tamil Nadu", "amenity": "hospital", "healthcare": "hospital", "name": "Bharani Hospital", "source": "OpenGovernmentData"}}, {"type": "node", "id": 7210884259, "lat": 13.0475131, "lon": 80.2042733, "tags": {"addr:district": "Chennai", "addr:full": "Ottagapalayam, Kannika Puram, Vadapalani, Chennai", "addr:postcode": "600026", "addr:state": "Tamil Nadu", "amenity": "hospital", "healthcare": "hospital", "name": "Fortis Vadapalani Hospital", "source": "OpenGovernmentData"}}, {"type": "node", "id": 7252333341, "lat": 13.0469783, "lon": 80.1895003, "tags": {"addr:block": "Chennai Zone X", "addr:district": "Chennai", "addr:full": "No. 46, (Opp) Vembulliammal Koil, Virugambakkam, Avm Avenue", "addr:postcode": "600092", "addr:state": "Tamil Nadu", "amenity": "hospital", "healthcare": "hospital", "name": "Subam Specialities Hospitals", "source": "OpenGovernmentData"}}, {"type": "node", "id": 7252333352, "lat": 13.0508643, "lon": 80.1922458, "tags": {"addr:block": "Chennai Zone X", "addr:district": "Chennai", "addr:full": "No.1, (Opp) To Akr Mahal, Virugambakkam, Soranmbigai Nagar", "addr:postcode": "600092", "addr:state": "Tamil Nadu", "amenity": "hospital", "healthcare": "hospital", "name": "Hera Hospital", "source": "OpenGovernmentData"}}, {"type": "node", "id": 7252333388, "lat": 13.0524675, "lon": 80.1898468, "tags": {"addr:block": "Chennai Zone X", "addr:district": "Chennai", "addr:full": "No.55, Virugambakkam, Elango Nagar Main Road", "addr:postcode": "600092", "addr:state": "Tamil Nadu", "amenity": "hospital", "healthcare": "hospital", "name": "Standard Hospital", "source": "OpenGovernmentData"}}, {"type": "node", "id": 7252333390, "lat": 13.0410091, "lon": 80.1964532, "tags": {"addr:block": "Chennai Zone X", "addr:district": "Chennai", "addr:full": "Sector 11, K. K. Nagar, Chennai", "addr:postcode": "600083", "addr:state": "Tamil Nadu", "amenity": "hospital", "healthcare": "hospital", "name": "Guru Raghavendra Hospital", "source": "OpenGovernmentData"}}, {"type": "node", "id": 7252333402, "lat": 13.0538856, "lon": 80.1927125, "tags": {"addr:block": "Chennai Zone X", "addr:district": "Chennai", "addr:full": "121/60, Kaliamman Koil Street, Ganapathy Raj Nagar, Virugambakkam", "addr:postcode": "600092", "addr:state": "Tamil Nadu", "amenity": "hospital", "healthcare": "hospital", "name": "Annai multispeciality hospital", "source": "OpenGovernmentData"}}, {"type": "node", "id": 7252333406, "lat": 13.0535089, "lon": 80.2195494, "tags": {"addr:block": "Chennai Zone Ix", "addr:district": "Chennai", "addr:full": "Near Power House, Kodambakkam, Vellala Street", "addr:postcode": "600024", "addr:state": "Tamil Nadu", "amenity": "hospital", "healthcare": "hospital", "name": "The Best Hospital Private Ltd", "source": "OpenGovernmentData"}}, {"type": "node", "id": 7257421540, "lat": 13.0319129, "lon": 80.2099892, "tags": {"addr:block": "Chennai Zone X", "addr:district": "Chennai", "addr:full": "Next To Ashok Nagar Bus Statnd, Ashok Nagar, 2Nd Avenue", "addr:postcode": "600083", "addr:state": "Tamil Nadu", "amenity": "hospital", "healthcare": "hospital", "name": "Sunrays Laproscopic Centre", "source": "OpenGovernmentData"}}, {"type": "node", "id": 7257421544, "lat": 13.0374439, "lon": 80.1444537, "tags": {"addr:block": "Chennai Zone Xi", "addr:district": "Chennai", "addr:full": "Near Porur Lake, Porur, Ramachandra Nagar", "addr:postcode": "600116", "addr:state": "Tamil Nadu", "amenity": "hospital", "name": "Sriramachandra Hospital", "source": "OpenGovernmentData"}}, {"type": "node", "id": 7257421549, "lat": 13.0369528, "lon": 80.169935, "tags": {"addr:district": "Thiruvallur", "addr:full": "Hospital Rd, Sairam Avenue, Valasaravakkam, Chennai", "addr:postcode": "600089", "addr:state": "Tamil Nadu", "addr:subdistrict": "Ambattur", "amenity": "hospital", "name": "Chinna Porur Government Hospital", "source": "OpenGovernmentData"}}, {"type": "node", "id": 7257421583, "lat": 13.03968, "lon": 80.21204, "tags": {"addr:block": "Chennai Zone X", "addr:district": "Chennai", "addr:full": "No: 46, 1St Avenue, Opp To Canara Bank & Andhra Bank, Ashok Nagar, Chennai", "addr:postcode": "600083", "addr:state": "Tamil Nadu", "amenity": "hospital", "healthcare": "hospital", "name": "Kumaran Specialities Hospital", "source": "OpenGovernmentData"}}, {"type": "node", "id": 7257421586, "lat": 13.0374234, "lon": 80.190944, "tags": {"addr:block": "Chennai Zone X", "addr:district": "Chennai", "addr:full": "32, Pillayar Koil St, Kk Nagar West, Nesapakkam", "addr:postcode": "600078", "addr:state": "Tamil Nadu", "amenity": "hospital", "healthcare": "hospital", "name": "Arokiya hospital", "source": "OpenGovernmentData"}}, {"type": "node", "id": 7257421589, "lat": 13.036525, "lon": 80.1567342, "tags": {"addr:block": "Chennai Zone Xi", "addr:district": "Chennai", "addr:full": "Back Side Of Hotel Grand Residence, Karapakkam", "addr:postcode": "600116", "addr:state": "Tamil Nadu", "amenity": "hospital", "name": "Parvathy Hospital", "source": "OpenGovernmentData"}}, {"type": "node", "id": 7257421602, "lat": 13.0298989, "lon": 80.2261208, "tags": {"addr:block": "Chennai Zone Xiii", "addr:district": "Chennai", "addr:full": "Kannammapet, Cit Nagar, Chennai", "addr:postcode": "600017", "addr:state": "Tamil Nadu", "amenity": "hospital", "healthcare": "hospital", "name": "Kanamapet Government Hospital", "source": "OpenGovernmentData"}}, {"type": "node", "id": 7257421603, "lat": 13.037967, "lon": 80.2162727, "tags": {"addr:block": "Chennai Zone X", "addr:district": "Chennai", "addr:full": "No.39, Ashok Nagar, 7Th Avenue", "addr:postcode": "600083", "addr:state": "Tamil Nadu", "amenity": "hospital", "healthcare": "hospital", "name": "Sri Sai Krs Hospital", "source": "OpenGovernmentData"}}, {"type": "node", "id": 7257421613, "lat": 13.0048164, "lon": 80.2025432, "tags": {"addr:block": "Chennai Zone Xii", "addr:district": "Chennai", "addr:full": "Near Rto Office, Alandhur, Sowri Street", "addr:postcode": "600016", "addr:state": "Tamil Nadu", "amenity": "hospital", "healthcare": "hospital", "name": "Government Hospital Alandur", "source": "OpenGovernmentData"}}, {"type": "node", "id": 7257421615, "lat": 13.0313233, "lon": 80.1909256, "tags": {"addr:block": "Chennai Zone X", "addr:district": "Chennai", "addr:full": "No.7, Mgr Statue, Amman Street, Ramapuram Main Road, Nehru Nagar, Nesapakkam", "addr:postcode": "600078", "addr:state": "Tamil Nadu", "amenity": "hospital", "healthcare": "hospital", "name": "Janani Hospital", "source": "OpenGovernmentData"}}, {"type": "node", "id": 7819840745, "lat": 13.0471845, "lon": 80.184358, "tags": {"addr:district": "Tiruvallur", "addr:full": "Alwartirunagar, Valasaravakkam, Chennai", "addr:postcode": "600087", "addr:state": "Tamil Nadu", "amenity": "hospital", "healthcare": "hospital", "name": "Kannimaram Hospital", "source": "Local Knowledge"}}, {"type": "node", "id": 7819840748, "lat": 13.0401817, "lon": 80.1803453, "tags": {"addr:district": "Tiruvallur", "addr:full": "Valasaravakkam", "addr:postcode": "600087", "addr:state": "Tamil Nadu", "amenity": "hospital", "name": "Vasanthi Dental Hospital", "source": "Local Knowledge"}}, {"type": "node", "id": 7819840797, "lat": 13.0472622, "lon": 80.1815603, "tags": {"addr:district": "Tiruvallur", "addr:full": "Madurai", "addr:postcode": "625020", "addr:state": "Tamil Nadu", "amenity": "hospital", "name": "Meenakshi Mission Hospital", "source": "Local Knowledge"}}, {"type": "node", "id": 7819840806, "lat": 13.0470409, "lon": 80.1841129, "tags": {"addr:district": "Tiruvallur", "addr:full": "Alwarthirunagar, Chennai", "addr:postcode": "600087", "addr:state": "Tamil Nadu", "amenity": "hospital", "healthcare": "hospital", "name": "Shanthi Hospital", "source": "Local Knowledge"}}, {"type": "node", "id": 7823212562, "lat": 12.9719872, "lon": 80.1407516, "tags": {"addr:district": "Chengalpattu", "addr:full": "Muthamizh Nagar, Pallavaram", "addr:postcode": "600074", "addr:state": "Tamil Nadu", "amenity": "hospital", "healthcare": "hospital", "name": "JIP Hospital", "source": "Local Knowledge"}}, {"type": "node", "id": 7823212567, "lat": 12.9668133, "lon": 80.144778, "tags": {"addr:district": "Chengalpattu", "addr:full": "Abdul Kalam Nagar, Periyar Nagar, Pallavaram", "addr:postcode": "600043", "addr:state": "Tamil Nadu", "amenity": "hospital", "healthcare": "hospital", "name": "Dr. Habeb Child Care Hospital", "source": "Local Knowledge"}}, {"type": "node", "id": 7823212573, "lat": 13.0087475, "lon": 80.1937172, "tags": {"addr:district": "Chengalpattu", "addr:postcode": "600016", "addr:state": "Tamil Nadu", "amenity": "hospital", "healthcare": "hospital", "name": "Rathna Hospital", "source": "Local Knowledge"}}, {"type": "node", "id": 7823212576, "lat": 13.0036449, "lon": 80.2030844, "tags": {"addr:district": "Chengalpattu", "addr:full": "Alandur", "addr:postcode": "600016", "addr:state": "Tamil Nadu", "amenity": "hospital", "healthcare": "hospital", "name": "S.S. Hospital", "source": "Local Knowledge"}}, {"type": "node", "id": 7823212579, "lat": 13.0017797, "lon": 80.2033269, "tags": {"addr:district": "Chengalpattu", "addr:full": "Alandu", "addr:postcode": "600016", "addr:state": "Tamil Nadu", "amenity": "hospital", "healthcare": "hospital", "name": "Dhanraj Hospital", "source": "Local Knowledge"}}, {"type": "node", "id": 7823212581, "lat": 13.0164671, "lon": 80.1772853, "tags": {"addr:district": "Chengalpattu", "addr:full": "Ambedkar Nagar, Manapakkam", "addr:postcode": "600116", "addr:state": "Tamil Nadu", "amenity": "hospital", "name": "Nalam Hospital", "source": "Local Knowledge"}}, {"type": "node", "id": 7823212616, "lat": 12.9718921, "lon": 80.1445381, "tags": {"addr:district": "Chengalpattu", "addr:full": "Pallavaram", "addr:postcode": "600043", "addr:state": "Tamil Nadu", "amenity": "hospital", "healthcare": "hospital", "name": "Shadithya Hospital", "source": "Local Knowledge"}}, {"type": "node", "id": 7823212623, "lat": 13.0027883, "lon": 80.207025, "tags": {"addr:district": "Chengalpattu", "addr:full": "Alandur", "addr:postcode": "600016", "addr:state": "Tamil Nadu", "amenity": "hospital", "name": "Jaya Sri Hospital", "source": "Local Knowledge"}}, {"type": "node", "id": 7823212624, "lat": 13.0441663, "lon": 80.1364773, "tags": {"addr:district": "Chengalpattu", "addr:full": "Subbiah Nagar, Iyyappanthangal", "addr:postcode": "600056", "addr:state": "Tamil Nadu", "amenity": "hospital", "name": "Kedar Hospital", "source": "Local Knowledge"}}, {"type": "node", "id": 7823212631, "lat": 13.003406, "lon": 80.2063632, "tags": {"addr:district": "Chengalpattu", "addr:full": "Alandur", "addr:postcode": "600016", "addr:state": "Tamil Nadu", "amenity": "hospital", "name": "Kaanthi Makapperu Hospital", "source": "Local Knowledge"}}, {"type": "node", "id": 7823212633, "lat": 12.9700475, "lon": 80.1499015, "tags": {"addr:district": "Chengalpattu", "addr:full": "Pallavaram", "addr:postcode": "600043", "addr:state": "Tamil Nadu", "amenity": "hospital", "healthcare": "hospital", "name": "Medforte Health Care", "source": "Local Knowledge"}}, {"type": "node", "id": 7823212640, "lat": 12.97059, "lon": 80.148318, "tags": {"addr:district": "Chengalpattu", "addr:full": "Pallavaram", "addr:postcode": "600044", "addr:state": "Tamil Nadu", "amenity": "hospital", "healthcare": "hospital", "name": "Contonment Board General Hospital", "source": "Local Knowledge"}}, {"type": "node", "id": 7823776196, "lat": 13.0549375, "lon": 80.2068588, "tags": {"addr:district": "Chennai", "addr:full": "Vadapalani, Chennai", "addr:postcode": "600026", "addr:state": "Tamil Nadu", "amenity": "hospital", "healthcare": "hospital", "name": "R.S. Hospital", "source": "Local Knowledge"}}, {"type": "node", "id": 7823776197, "lat": 13.038873, "lon": 80.192755, "tags": {"addr:district": "Chennai", "addr:full": "KK Nagar West, K. K. Nagar", "addr:postcode": "600078", "addr:state": "Tamil Nadu", "amenity": "hospital", "healthcare": "hospital", "name": "Arun Vijaya Hospitals", "source": "Local Knowledge"}}, {"type": "node", "id": 7823776213, "lat": 13.051996, "lon": 80.204702, "tags": {"addr:district": "Chennai", "addr:full": "Vadapalani, Chennai", "addr:postcode": "600094", "addr:state": "Tamil Nadu", "amenity": "hospital", "healthcare": "hospital", "name": "Shali Day & Night Hospital", "source": "Local Knowledge"}}, {"type": "node", "id": 7823776217, "lat": 13.0520108, "lon": 80.2076585, "tags": {"addr:district": "Chennai", "addr:full": "Vadapalani, Chennai", "addr:postcode": "600026", "addr:state": "Tamil Nadu", "amenity": "hospital", "healthcare": "hospital", "name": "Diawin Multi Speciality Siddha Hospital", "source": "Local Knowledge"}}, {"type": "node", "id": 7823776227, "lat": 13.0516365, "lon": 80.1939117, "tags": {"addr:district": "Chennai", "addr:full": "Swarnambigai Nagar, Virugambakkam, Chennai", "addr:postcode": "600093", "addr:state": "Tamil Nadu", "amenity": "hospital", "healthcare": "hospital", "name": "Lily Shantha Hospital", "source": "Local Knowledge"}}, {"type": "node", "id": 7823776233, "lat": 13.0539266, "lon": 80.1991968, "tags": {"addr:district": "Chennai", "addr:full": "Annamalai Colony, Chennai", "addr:postcode": "600093", "addr:state": "Tamil Nadu", "amenity": "hospital", "healthcare": "hospital", "name": "Swastik Hospital", "source": "Local Knowledge"}}, {"type": "node", "id": 7823776246, "lat": 13.0526943, "lon": 80.1899425, "tags": {"addr:district": "Chennai", "addr:full": "Virugambakkam, Chennai", "addr:postcode": "600092", "addr:state": "Tamil Nadu", "amenity": "hospital", "healthcare": "hospital", "name": "Standard Hospital", "source": "Local Knowledge"}}, {"type": "node", "id": 7823776250, "lat": 13.0527721, "lon": 80.191781, "tags": {"addr:district": "Chennai", "addr:full": "Virugambakkam, Chennai", "addr:postcode": "600092", "addr:state": "Tamil Nadu", "amenity": "hospital", "healthcare": "hospital", "name": "MM Hospital", "source": "Local Knowledge"}}, {"type": "node", "id": 7823776253, "lat": 13.0514652, "lon": 80.2031882, "tags": {"addr:district": "Chennai", "addr:full": "Bharathi Nagar, Taramani, Chennai", "addr:postcode": "600113", "addr:state": "Tamil Nadu", "amenity": "hospital", "healthcare": "hospital", "name": "Arun Hospital", "source": "Local Knowledge"}}, {"type": "node", "id": 7823776254, "lat": 13.0538214, "lon": 80.1989274, "tags": {"addr:district": "Chennai", "addr:full": "Virugambakkam, Chennai", "addr:postcode": "600093", "addr:state": "Tamil Nadu", "amenity": "hospital", "healthcare": "hospital", "name": "Krishna Geetham Vaidyasala", "source": "Local Knowledge"}}, {"type": "node", "id": 8099947735, "lat": 13.0371216, "lon": 80.2013389, "tags": {"addr:street": "1/459, 31st St, Sector 6, K. K. Nagar, Chennai, Tamil Nadu 600078", "amenity": "hospital", "healthcare": "hospital", "name": "K.M. Nursing Home", "opening_hours": "24/7", "phone": "044 4353 0015"}}, {"type": "node", "id": 8105683179, "lat": 13.0117736, "lon": 80.1941708, "tags": {"addr:street": "Mount Poonamalle High Rd, Seven Wells, St.Thomas Mount, Tamil Nadu 600016", "amenity": "hospital", "healthcare": "hospital", "name": "Military Hospital", "opening_hours": "24/7"}}, {"type": "node", "id": 8108467017, "lat": 13.0487242, "lon": 80.2036274, "tags": {"addr:street": "Arunachalam St", "amenity": "hospital", "healthcare": "hospital", "name": "\u0b89\u0bb4\u0bc8\u0baa\u0bcd\u0baa\u0bbe\u0bb3\u0bbf \u0bae\u0bb0\u0bc1\u0ba4\u0bcd\u0ba4\u0bc1\u0bb5\u0bae\u0ba9\u0bc8", "name:en": "Uzhaippali hospital", "opening_hours": "Mo-Sa 09:00-21:00"}}, {"type": "node", "id": 8108591031, "lat": 13.026029, "lon": 80.212368, "tags": {"addr:street": "B 50, Gangai Amman Koil St, Jawahar Nagar, West Jafferkhanpet, Chennai, Tamil Nadu 600083", "amenity": "hospital", "healthcare": "hospital", "name": "KS Bone and Joint Clinic - Ortho", "opening_hours": "Mo-Sa 10:00-13:00, 17:00-21:00; Su 10:00-13:00", "phone": "98842 83582", "website": "https://www.ksboneandjointortho.in/"}}, {"type": "node", "id": 8111861614, "lat": 13.0318828, "lon": 80.2103124, "tags": {"addr:street": "40, 11th Ave, Mettuppalayam, Ashok Nagar, Chennai, Tamil Nadu 600083", "amenity": "hospital", "healthcare": "hospital", "name": "Shens Multi-Speciality Hospital", "opening_hours": "24/7", "phone": "044 2471 5000", "website": "https://shens.in/"}}, {"type": "node", "id": 8639896900, "lat": 12.9784544, "lon": 80.2214698, "tags": {"addr:city": "Chennai", "addr:housenumber": "36", "addr:postcode": "600042", "addr:street": "Velachery Main Road", "amenity": "hospital", "email": "info@prashanthhospitals.org", "healthcare": "hospital", "name": "Prashanth Hospitals", "phone": "+91 44 2243 9494;+91 44 4680 5544;+91 82962 63415", "website": "https://prashanthhospitals.org"}}, {"type": "node", "id": 8714264559, "lat": 12.969558, "lon": 80.1850882}, {"type": "node", "id": 8714264560, "lat": 12.9694349, "lon": 80.185025}, {"type": "node", "id": 8714264561, "lat": 12.9693465, "lon": 80.1849803}, {"type": "node", "id": 8714264562, "lat": 12.9693174, "lon": 80.1851514}, {"type": "node", "id": 8714264563, "lat": 12.9693084, "lon": 80.1851938}, {"type": "node", "id": 8714264564, "lat": 12.9694998, "lon": 80.1852306}, {"type": "node", "id": 8869350452, "lat": 13.0381458, "lon": 80.1619363, "tags": {"amenity": "hospital", "healthcare": "hospital"}}, {"type": "node", "id": 9876450779, "lat": 13.0400446, "lon": 80.1452891}, {"type": "node", "id": 9876450783, "lat": 13.0440917, "lon": 80.1405164}, {"type": "node", "id": 9876450784, "lat": 13.044419, "lon": 80.1406068}, {"type": "node", "id": 9876450785, "lat": 13.045171, "lon": 80.1406863}, {"type": "node", "id": 9876450786, "lat": 13.0455787, "lon": 80.1420884}, {"type": "node", "id": 9876450787, "lat": 13.0456715, "lon": 80.1407318}, {"type": "node", "id": 9876450788, "lat": 13.0456009, "lon": 80.1430699}, {"type": "node", "id": 9876450789, "lat": 13.0454427, "lon": 80.1439924}, {"type": "node", "id": 9876450790, "lat": 13.0454965, "lon": 80.1449574}, {"type": "node", "id": 9876450791, "lat": 13.0453384, "lon": 80.1456831}, {"type": "node", "id": 9876450792, "lat": 13.0452475, "lon": 80.1458523}, {"type": "node", "id": 9876450793, "lat": 13.043719, "lon": 80.1459804}, {"type": "node", "id": 9876450794, "lat": 13.0383768, "lon": 80.1453958}, {"type": "node", "id": 10294576078, "lat": 13.040756, "lon": 80.2146876, "tags": {"addr:city": "Chennai", "addr:housenumber": "No. 33", "addr:postcode": "600083", "addr:street": "35th Street, Opp JFA Showroom, Ashok Nagar", "amenity": "hospital", "healthcare": "hospital", "name": "Vasantha Memorial Cancer Centre", "phone": "+91 9791048379"}}, {"type": "node", "id": 11038567667, "lat": 13.0455982, "lon": 80.142949}, {"type": "node", "id": 11038567669, "lat": 13.0455348, "lon": 80.1434553}, {"type": "node", "id": 12378706312, "lat": 12.9831959, "lon": 80.2013573, "tags": {"addr:city": "chennai", "addr:district": "chennai", "addr:housenumber": "14", "addr:postcode": "600088", "addr:street": "Vanalar Street", "amenity": "hospital", "healthcare": "hospital", "healthcare:speciality": "dermatovenereology", "name": "Dr Bala's Skin clinic", "operator": "Dr Balakumatan", "operator:type": "private"}}, {"type": "node", "id": 12560767886, "lat": 12.9809491, "lon": 80.1871116, "tags": {"amenity": "hospital", "healthcare": "hospital"}}, {"type": "node", "id": 13039257141, "lat": 13.0384169, "lon": 80.1451365}, {"type": "node", "id": 13039375863, "lat": 13.0372262, "lon": 80.1462358}, {"type": "node", "id": 13039375868, "lat": 13.0401557, "lon": 80.1452957}, {"type": "way", "id": 28493363, "nodes": [313027845, 313027846, 313027847, 9876450783, 9876450784, 9876450785, 9876450787, 9876450786, 11038567667, 9876450788, 11038567669, 9876450789, 9876450790, 9876450791, 9876450792, 9876450793, 6755994529, 6755994530, 6755994531, 313027848, 13039375868, 9876450779, 13039257141, 9876450794, 313027850, 13039375863, 313027851, 313027852, 313027845], "tags": {"amenity": "hospital", "healthcare": "hospital", "name": "Sri Ramachandra Institute of Higher Education and Research"}}, {"type": "way", "id": 32896904, "nodes": [370495279, 370495280, 370495281, 370495282, 370495283, 370495284, 370495279], "tags": {"amenity": "hospital", "healthcare": "hospital", "name": "Cantonment General Hospital"}}, {"type": "way", "id": 125180726, "nodes": [1391028842, 1391028839, 2250346308, 1391028857, 1391028854, 1391028858, 2250346454, 2250346457, 370222369, 1391574198, 366738197, 372180644, 1391028842], "tags": {"addr:block": "Chennai Zone Xi", "addr:district": "Chennai", "addr:full": "Anna Main Rd, Bharathidasan Colony, West Jafferkhanpet, Chennai", "addr:postcode": "600083", "addr:state": "Tamil Nadu", "amenity": "hospital", "healthcare": "hospital", "name": "Govt Peripheral Hospital KK Nagar", "source": "OpenGovernmentData"}}, {"type": "way", "id": 214188197, "nodes": [2237512723, 2237806363, 2237806365, 2237512725, 2237512723], "tags": {"addr:district": "Kancheepuram", "addr:full": "Saidapet Sdh, Saidapet", "addr:postcode": "600015", "addr:state": "Tamil Nadu", "addr:street": "Jeenis Road", "amenity": "hospital", "emergency": "yes", "healthcare": "hospital", "name": "\u0b9a\u0bc8\u0ba4\u0bbe\u0baa\u0bcd\u0baa\u0bc7\u0b9f\u0bcd\u0b9f\u0bc8 \u0b85\u0bb0\u0b9a\u0bc1 \u0bae\u0bb0\u0bc1\u0ba4\u0bcd\u0ba4\u0bc1\u0bb5\u0bae\u0ba9\u0bc8", "name:en": "Government Hospital, Saidapet", "source": "OpenGovernmentData"}}, {"type": "way", "id": 220821765, "nodes": [2299085691, 2299085690, 2299085689, 2299085692, 2299085691], "tags": {"addr:city": "Chennai", "addr:street": "100ft Road", "amenity": "hospital", "healthcare": "hospital", "name": "Gowri Nursing Home"}}, {"type": "way", "id": 262012749, "nodes": [2676674712, 2676674713, 2676674714, 2676674715, 2676674712], "tags": {"addr:city": "Chennai", "addr:postcode": "600015", "addr:street": "Jeenis Road", "amenity": "hospital", "building": "yes", "emergency": "yes", "healthcare": "hospital", "name": "Chennai Corporation 24 Hours Maternity Hospital"}}, {"type": "way", "id": 332525434, "nodes": [3396718585, 3396718586, 3396718587, 3396718588, 3396718589, 3396718590, 3396718591, 3396718592, 3396718585], "tags": {"addr:city": "West Mambalam", "addr:housenumber": "174/114", "addr:postcode": "600033", "addr:street": "Lake View Road", "amenity": "hospital", "email": "md@phc-mc.org", "emergency": "yes", "fax": "044 2489 7007", "healthcare": "hospital", "name": "Public Health Centre (In Patient Block)", "operator": "Public Health Welfare Society", "phone": "044 2489 3172/7008/3101", "website": "https://www.phc-mc.org/"}}, {"type": "way", "id": 332525519, "nodes": [3396721106, 3396721107, 3396721108, 3396721109, 3396721110, 3396721111, 3396721112, 3396721113, 3396721106], "tags": {"addr:city": "West Mambalam", "addr:postcode": "600033", "addr:street": "Ramakrishnapuram 1st Street", "amenity": "hospital", "healthcare": "hospital", "name": "Public Health Centre (Out Patient Block)"}}, {"type": "way", "id": 337923794, "nodes": [3450011995, 3450009492, 3450009491, 3450009490, 3450009489, 3450009487, 3450009488, 3450011994, 3450011993, 3450011996, 3450011995], "tags": {"addr:block": "Chennai Zone X", "addr:district": "Chennai", "addr:full": "No.35, (Opp) To Saidapet Railway Station, Saidapet", "addr:housenumber": "35", "addr:postcode": "600015", "addr:state": "Tamil Nadu", "addr:street": "Karaneeswar Koil Street", "amenity": "hospital", "healthcare": "hospital", "name": "Chitra Maternity andSurgival Centre", "source": "OpenGovernmentData"}}, {"type": "way", "id": 337929079, "nodes": [3450050682, 3450050683, 3450050684, 3450050685, 3450050682], "tags": {"addr:city": "Saidapet", "addr:postcode": "600015", "addr:street": "Subramania Mudali Street", "amenity": "hospital", "building": "yes", "healthcare": "hospital", "name": "Bora Hospital"}}, {"type": "way", "id": 343141649, "nodes": [3500408327, 3500408332, 3500408331, 3500408328, 3500408333, 3500408329, 3500408330, 3500408327], "tags": {"addr:city": "Saidapet", "addr:postcode": "600015", "addr:street": "Anna Salai (Mount Road)", "amenity": "hospital", "healthcare": "hospital", "name": "Vasan"}}, {"type": "way", "id": 350538223, "nodes": [3562907944, 3562907945, 3562907946, 3562907947, 3562907948, 3562907949, 3562907950, 3562907951, 3562907944], "tags": {"addr:city": "West Mambalam", "addr:housenumber": "68", "addr:postcode": "600033", "addr:street": "Thambiah Road, Duraiswamy Subway, West Mambalam, Chennai, Tamil Nadu 600033", "amenity": "hospital", "emergency": "yes", "healthcare": "hospital", "name": "SRM Hospital", "opening_hours": "24/7", "phone": "044 2474 4727", "website": "https://srmhospitals.org/"}}, {"type": "way", "id": 354540004, "nodes": [3602354643, 4644225942, 4644225943, 4644225944, 4644225948, 4644225947, 4644225946, 4644225945, 3602354648, 3602354636, 3602354635, 3602354643], "tags": {"addr:district": "Chennai", "addr:full": "No. 1, Lawyer Jaganathan Street, Guindy", "addr:postcode": "600032", "addr:state": "Tamil Nadu", "addr:street": "Anna Salai (Mount Road)", "amenity": "hospital", "building": "yes", "name": "Balaji Hospital (P) Ltd", "source": "OpenGovernmentData", "website": "https://sribalajihospital.com/"}}, {"type": "way", "id": 354572408, "nodes": [3602533621, 3602533619, 3602533540, 3602533541, 3602533621], "tags": {"amenity": "hospital", "building": "yes", "healthcare": "hospital", "name": "Chennai Medical Centre"}}, {"type": "way", "id": 355052484, "nodes": [3606759539, 3606759519, 3606759079, 3606759497, 3606759539], "tags": {"addr:district": "Kanchipuram", "addr:full": "36, Poothapedu Main Road, Vengadeswar Nagar, Perur", "addr:postcode": "600116", "addr:state": "Tamil Nadu", "amenity": "hospital", "building": "yes", "name": "Viganesh Hospital", "source": "OpenGovernmentData"}}, {"type": "way", "id": 355074781, "nodes": [3606874531, 3606874533, 3606874348, 3606874346, 3606874518, 3606874517, 3606874531], "tags": {"addr:street": "7th Cross Street, Rajalaksmi nagar", "amenity": "hospital", "building": "yes", "emergency": "yes", "name": "Xcellent Care Hospital", "operator": "Xcellent Care Super Speciality Hospital ( P ) Ltd.", "website": "http://xcellentcarehospital.com"}}, {"type": "way", "id": 364356223, "nodes": [3683910123, 3683910122, 3683910120, 3683910119, 3683910121, 3683910123], "tags": {"addr:city": "Chennai", "addr:district": "Chennai", "addr:housenumber": "No 6", "addr:postcode": "600061", "addr:street": "Nanganallur 6th Main Road", "amenity": "hospital", "description": "Diha Clinic is the best multispeciality hospital in Nanganallur, Chennai, offering expert care across specialties at an affordable price and with low waiting times.", "emergency": "yes", "healthcare": "hospital", "healthcare:speciality": "general;paediatrics;emergency;dermatology;otolaryngology;blood_check;orthopaedics;diabetology;gynaecology", "mobile": "+91 80565 80565", "name": "Diha Clinic", "operator": "Diha Trust", "operator:type": "private", "phone": "044 46878787", "website": "https://dihaclinic.org/"}}, {"type": "way", "id": 364721502, "nodes": [3687685030, 3687685031, 3687685032, 3687685033, 3687685034, 3687685030], "tags": {"amenity": "hospital", "healthcare": "hospital", "name": "Athipathy Hospitals"}}, {"type": "way", "id": 451681464, "nodes": [4485029944, 4485029945, 4485029942, 4485029941, 4485029944], "tags": {"addr:district": "Chennai", "addr:full": "#51-52, Thiruvalluvar Salai,Nesapakkam", "addr:postcode": "600078", "addr:state": "Tamil Nadu", "amenity": "hospital", "building": "yes", "healthcare": "hospital", "name": "CMC Hospital", "source": "OpenGovernmentData"}}, {"type": "way", "id": 940932459, "nodes": [8714264559, 8714264560, 8714264561, 8714264562, 8714264563, 8714264564, 8714264559], "tags": {"amenity": "hospital", "healthcare": "hospital"}}]}