{"version": 0.6, "generator": "Overpass API 0.7.62.8 e802775f", "osm3s": {"timestamp_osm_base": "2026-01-13T02:51:11Z", "copyright": "The data included in this document is from www.openstreetmap.org. The data is made available under ODbL."}, "elements": [{"type": "node", "id": 1930607012, "lat": 17.3937118, "lon": 78.4269709}, {"type": "node", "id": 1930607014, "lat": 17.3935093, "lon": 78.4269808}, {"type": "node", "id": 1930607015, "lat": 17.3935375, "lon": 78.4276131}, {"type": "node", "id": 1930607016, "lat": 17.3937399, "lon": 78.4276032}, {"type": "node", "id": 2354679489, "lat": 17.4068493, "lon": 78.3922011, "tags": {"amenity": "hospital", "emergency": "no", "name": "Matpathy Clinic"}}, {"type": "node", "id": 2570465562, "lat": 17.4156793, "lon": 78.4123796}, {"type": "node", "id": 2570465566, "lat": 17.4156102, "lon": 78.4125285}, {"type": "node", "id": 3617362236, "lat": 17.4133834, "lon": 78.4241087}, {"type": "node", "id": 3617362252, "lat": 17.4134153, "lon": 78.4238723}, {"type": "node", "id": 3619560208, "lat": 17.3516292, "lon": 78.373323}, {"type": "node", "id": 3619560211, "lat": 17.3517071, "lon": 78.3739591}, {"type": "node", "id": 3619560214, "lat": 17.3517538, "lon": 78.3739744}, {"type": "node", "id": 3619560215, "lat": 17.3517558, "lon": 78.3739532}, {"type": "node", "id": 3619560216, "lat": 17.3517562, "lon": 78.3739525}, {"type": "node", "id": 3619560217, "lat": 17.3517597, "lon": 78.3739947}, {"type": "node", "id": 3619560218, "lat": 17.3517726, "lon": 78.3740111}, {"type": "node", "id": 3619560219, "lat": 17.3517905, "lon": 78.3740211}, {"type": "node", "id": 3619560220, "lat": 17.3518107, "lon": 78.3740232}, {"type": "node", "id": 3619560223, "lat": 17.3518301, "lon": 78.374017}, {"type": "node", "id": 3619560224, "lat": 17.3518457, "lon": 78.3740035}, {"type": "node", "id": 3619560225, "lat": 17.351847, "lon": 78.3735084}, {"type": "node", "id": 3619560226, "lat": 17.3518488, "lon": 78.37394}, {"type": "node", "id": 3619560227, "lat": 17.3518514, "lon": 78.3739433}, {"type": "node", "id": 3619560228, "lat": 17.3518553, "lon": 78.3739848}, {"type": "node", "id": 3619560229, "lat": 17.3518573, "lon": 78.3739636}, {"type": "node", "id": 3619560231, "lat": 17.3518749, "lon": 78.3737366}, {"type": "node", "id": 3619560237, "lat": 17.3520298, "lon": 78.3736631}, {"type": "node", "id": 3619560238, "lat": 17.3520362, "lon": 78.373715}, {"type": "node", "id": 3619560243, "lat": 17.3521223, "lon": 78.3734714}, {"type": "node", "id": 3619560244, "lat": 17.3521266, "lon": 78.3739027}, {"type": "node", "id": 3619560245, "lat": 17.3521345, "lon": 78.3739668}, {"type": "node", "id": 3619560246, "lat": 17.3521439, "lon": 78.3736478}, {"type": "node", "id": 3619560251, "lat": 17.3521869, "lon": 78.373454}, {"type": "node", "id": 3619560252, "lat": 17.3522068, "lon": 78.3736162}, {"type": "node", "id": 3619560255, "lat": 17.352262, "lon": 78.3736088}, {"type": "node", "id": 3619560256, "lat": 17.3522713, "lon": 78.373685}, {"type": "node", "id": 3619560257, "lat": 17.3522812, "lon": 78.3738819}, {"type": "node", "id": 3619560258, "lat": 17.3522891, "lon": 78.3739461}, {"type": "node", "id": 3619560263, "lat": 17.3525107, "lon": 78.3732045}, {"type": "node", "id": 3619560264, "lat": 17.3525355, "lon": 78.3734071}, {"type": "node", "id": 3619560265, "lat": 17.3525647, "lon": 78.3736456}, {"type": "node", "id": 3619560266, "lat": 17.3525886, "lon": 78.3738406}, {"type": "node", "id": 4413453793, "lat": 17.3983822, "lon": 78.4161649, "tags": {"addr:city": "TOLICHOWKI", "addr:postcode": "500008", "addr:street": "BADDAM BALREDDY NAGAR", "amenity": "hospital", "description": "RELIEF HOSPITAL", "emergency": "no", "healthcare": "hospital", "name": "RELIEF HOSPITAL"}}, {"type": "node", "id": 5513214876, "lat": 17.4160447, "lon": 78.4151613, "tags": {"access": "private", "barrier": "gate", "bicycle": "yes", "foot": "yes", "horse": "no", "motor_vehicle": "yes"}}, {"type": "node", "id": 5513214877, "lat": 17.4160557, "lon": 78.4150789, "tags": {"access": "private", "barrier": "gate", "bicycle": "yes", "foot": "yes", "horse": "no", "motor_vehicle": "yes"}}, {"type": "node", "id": 6479961202, "lat": 17.3913878, "lon": 78.4369875, "tags": {"addr:district": "Hyderabad", "addr:full": "#12-2-823/A/46, Near Santosh Nagar Park, Lane Opposite Pillar 19, Santosh Nagar Colony, Mehdipatnam", "addr:postcode": "500028", "addr:state": "Telangana", "amenity": "hospital", "contact:email": "arjun.e@apoorvahospital.com", "health_facility:type": "Lounge; Reception; PICU; State of Art Equipments; 24 hours Pediatric Emergencies; Surgical Facilities", "medical_system": "Allopathic", "name": "Apoorva Hospital", "operator:type": "private", "phone": "040 65503232; 040 23521139", "source": "OpenGovernmentData", "website": "http://www.apoorvahospital.com"}}, {"type": "node", "id": 6480048646, "lat": 17.4033637, "lon": 78.4172847, "tags": {"addr:district": "Hyderabad", "addr:full": "Beside Limra Cafe, Hakeempet X Road, Toli Chowki", "addr:postcode": "500028", "addr:state": "Telangana", "amenity": "hospital", "name": "Al-Noor Hospital", "source": "OpenGovernmentData"}}, {"type": "node", "id": 6485264332, "lat": 17.3755381, "lon": 78.4190255, "tags": {"addr:district": "Hyderabad", "addr:full": "9-1-43/24, Langar House", "addr:postcode": "500008", "addr:state": "Telangana", "amenity": "hospital", "name": "Kosaraju Hospitals Private Ltd.", "source": "OpenGovernmentData"}}, {"type": "node", "id": 6485824573, "lat": 17.3915772, "lon": 78.4268716, "tags": {"addr:district": "Hyderabad", "addr:full": "12-2-718, Khader Bagh Road, Toli Chowki, Padmanabha Nagar, Mehdipatnam", "addr:postcode": "500028", "addr:state": "Telangana", "amenity": "hospital", "check_date": "2025-03-25", "contact:mobile": "+91 7702001163", "contact:phone": "040-2351 5100", "name": "Premier Hospital", "source": "OpenGovernmentData", "website": "https://www.premierhospital.in"}}, {"type": "node", "id": 6485852123, "lat": 17.3979236, "lon": 78.4175335, "tags": {"addr:district": "Hyderabad", "addr:full": "9-4-87/5/2, Lane Beside Andhra Bank, Tolichowki", "addr:postcode": "500008", "addr:state": "Telangana", "amenity": "hospital", "healthcare": "hospital", "name": "Shamshad Children's Hospital", "source": "OpenGovernmentData"}}, {"type": "node", "id": 6485889000, "lat": 17.376004, "lon": 78.4190007, "tags": {"addr:district": "Hyderabad", "addr:full": "9-1-43/8, Near Alankar Cinemas, Langar Houz", "addr:postcode": "500008", "addr:state": "Telangana", "amenity": "hospital", "name": "Vasu Hospital", "source": "OpenGovernmentData"}}, {"type": "node", "id": 6486047722, "lat": 17.3652026, "lon": 78.3969207, "tags": {"addr:district": "Hyderabad", "addr:full": "Hydershakote,Himagiri Nagar Colony,Near Shadan Medical College", "addr:postcode": "500008", "addr:state": "Telangana", "amenity": "hospital", "fax": "24190501", "name": "Sun City Nursing Home", "source": "OpenGovernmentData"}}, {"type": "node", "id": 6487200705, "lat": 17.3913379, "lon": 78.4348029, "tags": {"addr:district": "Hyderabad", "addr:full": "12-2-790/74, Ayodhya Nagar Colony Mehdipatnam", "addr:postcode": "500028", "addr:state": "Telangana", "amenity": "hospital", "name": "Ayodhya Nursing Home", "source": "OpenGovernmentData"}}, {"type": "node", "id": 6496870134, "lat": 17.4137962, "lon": 78.4239289}, {"type": "node", "id": 6496870135, "lat": 17.4137642, "lon": 78.4241653}, {"type": "node", "id": 6496875044, "lat": 17.379978, "lon": 78.421019, "tags": {"addr:district": "Hyderabad", "addr:full": "Bapu Nagar, Langar Houz", "addr:postcode": "500008", "addr:state": "Telangana", "amenity": "hospital", "contact:email": "majestic.hospital@yahoo.com", "healthcare:speciality": "General Surgery; Pediatric; Orthopedics; Obstetrics and Gynaecology; ENT; Anesthesiology; Opthamology; Dermatology", "medical_system": "Allopathic", "name": "Majestic Hospital", "operator:type": "private", "phone": "040 23521051", "source": "OpenGovernmentData", "website": "https://majestichospital.com/"}}, {"type": "node", "id": 6497614668, "lat": 17.3910723, "lon": 78.4267851, "tags": {"addr:district": "Hyderabad", "addr:full": "13-6-437/1L/1, Opp Nalanda Public School, Nanal Nagar 'X' Road, Khaderbagh, Mehdipatnam", "addr:postcode": "500008", "addr:state": "Telangana", "amenity": "hospital", "fax": "040 23511855", "name": "Dr. Sreedhar's Kidney & Infertility Hospital", "source": "OpenGovernmentData"}}, {"type": "node", "id": 6502946680, "lat": 17.3836628, "lon": 78.4292413, "tags": {"addr:district": "Hyderabad", "addr:full": "H.No.13-6-434C/148, Opp. Pillar No. 81, PVNR Exp Highway, Inner Ring Road, Maruthi Nagar, Mehdipatnam", "addr:postcode": "500008", "addr:state": "Telangana", "amenity": "hospital", "contact:email": "info@mythrihospital.net", "contact:phone": "+91 7997996030 ; 040-23516326/27", "name": "Mythri Hospital", "source": "OpenGovernmentData", "website": "https://www.mythrihospital.net/"}}, {"type": "node", "id": 6503431340, "lat": 17.3763547, "lon": 78.4203096, "tags": {"addr:district": "Hyderabad", "addr:full": "9-1-29/23, Opposite To Alankar Cinema, Langar Houz", "addr:postcode": "500008", "addr:state": "Telangana", "amenity": "hospital", "name": "Ambaa Hospitals", "source": "OpenGovernmentData"}}, {"type": "node", "id": 6503655627, "lat": 17.4116829, "lon": 78.4324009, "tags": {"addr:district": "Hyderabad", "addr:full": "H.No. 8-2-686/B/1/A, Road No.12, Near Jaganedha Temple, Banjara Hills", "addr:postcode": "500034", "addr:state": "Telangana", "amenity": "hospital", "name": "Avis Ankura Hospital for Women & Children", "source": "OpenGovernmentData"}}, {"type": "node", "id": 6505516403, "lat": 17.3837869, "lon": 78.4367287, "tags": {"addr:district": "Hyderabad", "addr:full": "12-2-417/46/8/G1, Hari Hara Teja Apartments, Shiv Bagh, Near Gudimalkapur 'X' Roads", "addr:postcode": "500028", "addr:state": "Telangana", "amenity": "hospital", "name": "Dharani Hospital", "source": "OpenGovernmentData"}}, {"type": "node", "id": 6513396181, "lat": 17.4016591, "lon": 78.3848655, "tags": {"addr:district": "Hyderabad", "addr:full": "Near Bus Stop Manikonda,Puppalaguda Manikonda Main Road", "addr:postcode": "500089", "addr:state": "Telangana", "amenity": "hospital", "name": "Sri Balaji Hospital", "source": "OpenGovernmentData"}}, {"type": "node", "id": 6536842812, "lat": 17.36424, "lon": 78.4275663, "tags": {"addr:district": "Hyderabad", "addr:full": "3-4-181/1, Hyderguda, Attapur", "addr:postcode": "500048", "addr:state": "Telangana", "amenity": "hospital", "name": "Usha Mohan Hospital", "source": "OpenGovernmentData"}}, {"type": "node", "id": 6546851783, "lat": 17.3852587, "lon": 78.4026083, "tags": {"addr:district": "Hyderabad", "addr:full": "9-11-178, Fort Road Golconda, Near Golconda Fort", "addr:postcode": "500008", "addr:state": "Telangana", "addr:street": "Golconda", "addr:subdistrict": "Golconda", "amenity": "hospital", "contact:phone": "4023513776", "name": "Area Hospital, Golconda", "source": "OpenGovernmentData"}}, {"type": "node", "id": 6548828778, "lat": 17.3802341, "lon": 78.4297081, "tags": {"addr:city": "Hyderabad", "addr:full": "13-6-431/D/77/A&B, PILLAR NO.92, MOGHAL KA NALA, ATTAPUR, Opp:HOTEL SWAGATH GRAND", "addr:postcode": "500028", "addr:state": "Telangana", "amenity": "hospital", "contact:phone": "0407032555; 666; 7032664444; 23525565", "name": "RISE CHILDRENS HOSPITAL (A UNIT OF RISE HOSPITALS PVT. LTD.)", "operator:type": "private", "source": "OpenGovernmentData"}}, {"type": "node", "id": 6548894505, "lat": 17.3612589, "lon": 78.4280745, "tags": {"addr:city": "Hyderabad", "addr:full": "H.No: 4-8-137/5/A, Opp Pillar No: 151, ATTAPUR", "addr:postcode": "500048", "addr:state": "Telangana", "amenity": "hospital", "contact:phone": "24001117", "name": "SAI SURYA HOSPITAL", "operator:type": "private", "source": "OpenGovernmentData"}}, {"type": "node", "id": 6548903087, "lat": 17.3985564, "lon": 78.4143068, "tags": {"addr:city": "Hyderabad", "addr:district": "Rangareddy", "addr:full": "Tolichowki \u2018X\u2019 Road, Seven Tombs Road, Tolichowki", "addr:postcode": "500008", "addr:state": "Telangana", "amenity": "hospital", "contact:phone": "040-23564200 ; 040- 23564300", "email": "info@applehospitals.org", "healthcare": "hospital", "name": "Apple Multi Speciality Hospital", "operator:type": "private", "source": "OpenGovernmentData"}}, {"type": "node", "id": 6549152212, "lat": 17.3632928, "lon": 78.4284984, "tags": {"addr:city": "Hyderabad", "addr:full": "H.No: 4-8-149/4/2/1, Opp Pillar No:145, ATTAPUR", "addr:postcode": "500048", "addr:state": "Telangana", "amenity": "hospital", "contact:phone": "47201201", "name": "ZOI HOSPITALS", "operator:type": "private", "source": "OpenGovernmentData"}}, {"type": "node", "id": 6549176002, "lat": 17.3696216, "lon": 78.4273417, "tags": {"addr:city": "Hyderabad", "addr:full": "LANE ADJACENT TO SPENCERS, PILLAR NO 125, AMBIENCE FORT ROAD, ATTAPUR", "addr:postcode": "500048", "addr:state": "Telangana", "amenity": "hospital", "name": "IRIS EYE HOSPITAL", "operator:type": "private", "source": "OpenGovernmentData"}}, {"type": "node", "id": 6549197557, "lat": 17.3529175, "lon": 78.4180733, "tags": {"addr:city": "Hyderabad", "addr:full": "Opp. PILLAR NO. 190, FORT VIEW COLONY, PVNR EXPRESS FLYOVER, UPPARPALLY, RAJENDERA NAGAR", "addr:postcode": "500048", "addr:state": "Telangana", "amenity": "hospital", "contact:phone": "65645555", "healthcare": "hospital", "name": "Human Touch Hospital", "operator:type": "private", "source": "OpenGovernmentData"}}, {"type": "node", "id": 6549203906, "lat": 17.3619565, "lon": 78.4281778, "tags": {"addr:district": "Hyderabad", "addr:full": "48-138/1/B, Main Road, Opp To Pillar No 150, Attapur", "addr:postcode": "500048", "addr:state": "Telangana", "amenity": "hospital", "contact:phone": "4065645555", "name": "GERMANTEN HOSPITALS", "operator:type": "private", "source": "OpenGovernmentData"}}, {"type": "node", "id": 6549290634, "lat": 17.3942641, "lon": 78.4307253, "tags": {"addr:city": "Hyderabad", "addr:full": "12-2-727/1/A, INNER RING ROAD, Opp: PILLAR NO. 46, RETHI BOWLI, MEHDIPATNAM", "addr:postcode": "500028", "addr:state": "Telangana", "amenity": "hospital", "contact:phone": "040-23512970; 040-23521946 ; 08106891947", "name": "ORIENT EYE HOSPITAL", "operator:type": "private", "source": "OpenGovernmentData"}}, {"type": "node", "id": 6549296470, "lat": 17.3753068, "lon": 78.4295377, "tags": {"addr:city": "Hyderabad", "addr:full": "13-6-826/5, Attapur, Pillar No.108, Moghul Nagar", "addr:postcode": "500006", "addr:state": "Telangana", "amenity": "hospital", "contact:phone": "4023520108", "name": "SAFE KIDS HOSPITALS PRIVATE LIMITED", "operator:type": "private", "source": "OpenGovernmentData"}}, {"type": "node", "id": 6549366073, "lat": 17.4137266, "lon": 78.4244857, "tags": {"addr:city": "Hyderabad", "addr:full": "H.No: 8-2-293/82/1/4A, 5A & 6A, MLA COLONY, ROAD NO 12, BANJARA HILLS", "addr:postcode": "500034", "addr:state": "Telangana", "amenity": "hospital", "contact:phone": "040 46289999", "name": "CITI NEURO CENTER", "operator:type": "private", "source": "OpenGovernmentData", "website": "https://www.citineurocentre.com/"}}, {"type": "node", "id": 6811749025, "lat": 17.360911, "lon": 78.389319, "tags": {"addr:district": "Ranga Reddy", "addr:full": "Near Telephone Exchange, Chevella Road, Bandlaguda, Himagiri Nagar, Hyderabad", "addr:postcode": "500031", "addr:state": "Telangana", "amenity": "hospital", "name": "Cocoon Hospital", "source": "OpenGovernmentData"}}, {"type": "node", "id": 6811749040, "lat": 17.4003659, "lon": 78.3894309, "tags": {"addr:district": "Hyderabad", "addr:full": "Near Lalamama Gardens, Puppalguda, Manikonda", "addr:postcode": "500089", "addr:state": "Telangana", "amenity": "hospital", "healthcare": "hospital", "name": "Prolife Hospital", "source": "OpenGovernmentData"}}, {"type": "node", "id": 6811749045, "lat": 17.4012253, "lon": 78.4124091, "tags": {"addr:district": "Hyderabad", "addr:full": "Opp. Majestic Garden, Daulat Gulshan Colony, Toli Chowki", "addr:postcode": "500008", "addr:state": "Telangana", "amenity": "hospital", "name": "Hayatt Hospital", "opening_hours": "24/7", "source": "OpenGovernmentData"}}, {"type": "node", "id": 6811749093, "lat": 17.4092386, "lon": 78.4007023, "tags": {"addr:district": "Hyderabad", "addr:full": "8-1-299/A/104, Lane Beside Ice Cream Parlour, Madura Hills Colony, Near Bharat Gas, Shaikpet", "addr:postcode": "500008", "addr:state": "Telangana", "amenity": "hospital", "contact:mobile": "9666611110", "name": "JBI Hospital", "source": "OpenGovernmentData"}}, {"type": "node", "id": 6811749134, "lat": 17.3921804, "lon": 78.4264492, "tags": {"addr:district": "Hyderabad", "addr:full": "13-6-148, Near Quba Masjid, Rock Hill Colony, Toli Chowki, Mehdipatnam", "addr:postcode": "500028", "addr:state": "Telangana", "amenity": "hospital", "name": "Salamah Hospital", "source": "OpenGovernmentData"}}, {"type": "node", "id": 6811749143, "lat": 17.3957352, "lon": 78.4175241, "tags": {"addr:district": "Hyderabad", "addr:full": "9-4-87/8/10, MD Lines, Moti Darwaza Road, Minar Colony, Tolichowki", "addr:postcode": "500008", "addr:state": "Telangana", "amenity": "hospital", "contact:mobile": "8106000511", "healthcare": "hospital", "name": "IBM Hospital", "source": "OpenGovernmentData"}}, {"type": "node", "id": 6811749150, "lat": 17.4003589, "lon": 78.382573, "tags": {"addr:district": "Hyderabad", "addr:full": "Opp. Indian Bank, Puppalaguda, Manikonda", "addr:postcode": "500089", "addr:state": "Telangana", "amenity": "hospital", "name": "Shobha Hospital", "source": "OpenGovernmentData"}}, {"type": "node", "id": 7088862151, "lat": 17.3290827, "lon": 78.4276336, "tags": {"amenity": "hospital", "healthcare": "hospital"}}, {"type": "node", "id": 7244480650, "lat": 17.394532, "lon": 78.4352772, "tags": {"amenity": "hospital", "healthcare": "hospital", "name": "Dr. Moinuddin clinic"}}, {"type": "node", "id": 7357915007, "lat": 17.397386, "lon": 78.4294337, "tags": {"amenity": "hospital", "healthcare": "hospital", "name": "Govt Hospital"}}, {"type": "node", "id": 8018447766, "lat": 17.4136331, "lon": 78.4158316}, {"type": "node", "id": 8018447767, "lat": 17.4136984, "lon": 78.4159175}, {"type": "node", "id": 8018447768, "lat": 17.4161207, "lon": 78.4158209}, {"type": "node", "id": 8018447769, "lat": 17.4160772, "lon": 78.4156144}, {"type": "node", "id": 8018447775, "lat": 17.4158187, "lon": 78.4122147}, {"type": "node", "id": 8018447776, "lat": 17.4162538, "lon": 78.4119987}, {"type": "node", "id": 8018447777, "lat": 17.416671, "lon": 78.4118673}, {"type": "node", "id": 8018447778, "lat": 17.4155871, "lon": 78.4126653}, {"type": "node", "id": 8018447779, "lat": 17.4155974, "lon": 78.4128571, "tags": {"access": "private"}}, {"type": "node", "id": 8018447780, "lat": 17.4157676, "lon": 78.4128879}, {"type": "node", "id": 8018447781, "lat": 17.4159058, "lon": 78.412955}, {"type": "node", "id": 8018447782, "lat": 17.4159736, "lon": 78.4130341}, {"type": "node", "id": 8018447783, "lat": 17.4162058, "lon": 78.4132386}, {"type": "node", "id": 8018447784, "lat": 17.4164336, "lon": 78.4134284}, {"type": "node", "id": 8018472585, "lat": 17.4165078, "lon": 78.4135786}, {"type": "node", "id": 8018472586, "lat": 17.4165097, "lon": 78.4137496}, {"type": "node", "id": 8018472587, "lat": 17.4164957, "lon": 78.4140553}, {"type": "node", "id": 8018472588, "lat": 17.4164074, "lon": 78.414349}, {"type": "node", "id": 8018472589, "lat": 17.41625, "lon": 78.4146213}, {"type": "node", "id": 8018472590, "lat": 17.4160779, "lon": 78.4150136}, {"type": "node", "id": 8018472591, "lat": 17.4160465, "lon": 78.4160891}, {"type": "node", "id": 8018472592, "lat": 17.4155065, "lon": 78.416014}, {"type": "node", "id": 8018472593, "lat": 17.41544, "lon": 78.4156412}, {"type": "node", "id": 8018472594, "lat": 17.4150893, "lon": 78.4150189}, {"type": "node", "id": 8018472595, "lat": 17.4142678, "lon": 78.4156787}, {"type": "node", "id": 8018472596, "lat": 17.4137176, "lon": 78.4145817}, {"type": "node", "id": 8018472597, "lat": 17.4136638, "lon": 78.4153984}, {"type": "node", "id": 8018472598, "lat": 17.4138686, "lon": 78.4137475}, {"type": "node", "id": 8018472599, "lat": 17.4135922, "lon": 78.4128544}, {"type": "node", "id": 8018472600, "lat": 17.4134796, "lon": 78.4124038}, {"type": "node", "id": 8018472601, "lat": 17.413367, "lon": 78.4122321}, {"type": "node", "id": 8018472602, "lat": 17.4138942, "lon": 78.4157941}, {"type": "node", "id": 8018472603, "lat": 17.4137867, "lon": 78.4134203}, {"type": "node", "id": 8018472604, "lat": 17.4133081, "lon": 78.4117681}, {"type": "node", "id": 8018472605, "lat": 17.4144726, "lon": 78.411524}, {"type": "node", "id": 8018472606, "lat": 17.4143574, "lon": 78.4116608}, {"type": "node", "id": 8018472607, "lat": 17.4140938, "lon": 78.4117895}, {"type": "node", "id": 8018472608, "lat": 17.4141731, "lon": 78.4117708}, {"type": "node", "id": 8018472609, "lat": 17.4147822, "lon": 78.4112129}, {"type": "node", "id": 8018472610, "lat": 17.4145826, "lon": 78.4113657}, {"type": "node", "id": 8018472619, "lat": 17.4159441, "lon": 78.4113738}, {"type": "node", "id": 8018472620, "lat": 17.4157266, "lon": 78.4112155}, {"type": "node", "id": 8018472623, "lat": 17.4153383, "lon": 78.4112191}, {"type": "node", "id": 8020057909, "lat": 17.4153933, "lon": 78.4159939}, {"type": "node", "id": 8739430485, "lat": 17.3988443, "lon": 78.3652937, "tags": {"addr:city": "Hyderabad", "addr:housenumber": "Hallmark Empyrean Commercial Complex", "addr:postcode": "500089", "addr:street": "Puppalaguda - Narsingi Road", "amenity": "hospital", "description": "Gynecologist, Fertility specialist, Laparoscopy surgeon, Cosmetic Gynecologist", "healthcare": "hospital", "healthcare:speciality": "gynaecology;maternity;cosmetic;fertility;surgery", "name": "AMVI Hospital", "phone": "+91 9100009669", "website": "https://www.amvihospitals.com/"}}, {"type": "node", "id": 8739449727, "lat": 17.3987165, "lon": 78.3653, "tags": {"addr:city": "Hyderabad", "addr:housenumber": "AMVI Hospital", "addr:postcode": "500089", "addr:street": "Puppalaguda - Narsingi Road", "amenity": "hospital", "description": "Gynecologist, Fertility Specialist, Laparoscopy surgeon, Cosmetic Gynecologist", "email": "amvihospitals@gmail.com", "healthcare": "hospital", "healthcare:speciality": "gynaecology;fertility;surgery;cosmetic", "name": "Dr Shaivalini - Gynecologist", "operator": "Dr Shaivalini", "operator:type": "private", "phone": "9100009669", "website": "https://www.amvihospitals.com/", "wheelchair": "yes"}}, {"type": "node", "id": 8748452003, "lat": 17.3641376, "lon": 78.3947106, "tags": {"addr:city": "Hyderabad", "addr:country": "IN", "addr:district": "Rangareddy", "addr:full": "Hydershakote", "addr:housenumber": "4", "addr:postcode": "500091", "addr:state": "Telangana", "addr:street": "Near MS Function Hall, Hydershahkote", "amenity": "hospital", "email": "info@divaclinics.co.in", "emergency": "no", "healthcare": "hospital", "healthcare:speciality": "general;surgery;oncology;endocrinology;dermatology;gynaecology;gastroenterology", "name": "DIVA Multispeciality Clinics", "operator": "Dr G Uday Kiran", "operator:type": "private", "source": "Local Knowledge;streetlevel imagery", "website": "https://divaclinics.co.in/"}}, {"type": "node", "id": 8751713608, "lat": 17.4121129, "lon": 78.4229918, "tags": {"addr:district": "Rangareddy", "addr:full": "8-2-293/82/L, 350-A, Road Number 12, Banjara Hills", "addr:postcode": "500034", "addr:state": "Telangana", "amenity": "hospital", "name": "Uchvaas Hospital", "source": "Local Knowledge"}}, {"type": "node", "id": 8759239032, "lat": 17.4109164, "lon": 78.432519, "tags": {"addr:district": "Hyderabad", "addr:full": "H. No 8-2-686/7/10 ,Banjara Hills", "addr:postcode": "500034", "addr:state": "Telangana", "amenity": "hospital", "name": "Brinnova rehabilation centre", "source": "Local Knowledge"}}, {"type": "node", "id": 9852600026, "lat": 17.3646406, "lon": 78.4286144, "tags": {"addr:city": "Hyderguda", "addr:housenumber": "139 pillar , Above IDBI Bank, 3rd Floor", "addr:postcode": "500048", "addr:street": "Hyderabad Elevated Expressway \"P.V. Narasimha Rao\"", "amenity": "hospital", "description": "Exclusive pain clinic treating Knee Pain, SHoulder, Lower back pain, migranes and all chronic pains, Non-Surgically", "email": "help@painfreelife.in", "healthcare": "hospital", "healthcare:speciality": "pain_control", "name": "PRAANAA PAIN CLINIC", "operator": "Dr. Sahitya", "operator:type": "private", "phone": "+91 9182626161", "website": "www.painfreelife.in"}}, {"type": "node", "id": 10112896286, "lat": 17.3836203, "lon": 78.4292848, "tags": {"amenity": "hospital", "name": "Mythri Hospital"}}, {"type": "node", "id": 10139228459, "lat": 17.3932979, "lon": 78.4261156, "tags": {"addr:city": "Hyderabad", "addr:housenumber": "House No 9-4-84/16", "addr:postcode": "500028", "addr:street": "1st Floor, Janaa Heights Nanal Nagar Cross Roads , Toli Chowki, Mehdipatnam,", "amenity": "hospital", "email": "vinayakanethralayaeyehospital@gmail.com", "healthcare": "hospital", "healthcare:speciality": "ophthalmology", "name": "Vinayaka Nethralaya Eye Hospital", "phone": "+919677920539", "website": "https://vinayakanethralayaeyehospital.com/"}}, {"type": "node", "id": 11936638169, "lat": 17.3975018, "lon": 78.4293977, "tags": {"addr:district": "Hyderabad", "addr:place": "Fort Road Golconda", "addr:state": "Telangana", "addr:street": "Golconda", "addr:subdistrict": "Golconda", "amenity": "hospital", "healthcare": "hospital", "name": "Area Hospital, Golconda", "operational_status": "operational", "operator:type": "government", "source": "OpenDataTelangana"}}, {"type": "node", "id": 12047779405, "lat": 17.4018633, "lon": 78.349914}, {"type": "node", "id": 12047779406, "lat": 17.4019457, "lon": 78.3495358}, {"type": "node", "id": 12047779407, "lat": 17.4015068, "lon": 78.3495054}, {"type": "node", "id": 12047779408, "lat": 17.4015113, "lon": 78.3492836}, {"type": "node", "id": 12047779409, "lat": 17.4013664, "lon": 78.3492929}, {"type": "node", "id": 12047779413, "lat": 17.4011316, "lon": 78.3506388}, {"type": "node", "id": 12047779414, "lat": 17.401321, "lon": 78.3506645}, {"type": "node", "id": 12047779415, "lat": 17.4014748, "lon": 78.3504684}, {"type": "node", "id": 12047779416, "lat": 17.401795, "lon": 78.3502865}, {"type": "node", "id": 12945249862, "lat": 17.4012321, "lon": 78.3501071}, {"type": "node", "id": 12945249863, "lat": 17.4013291, "lon": 78.3495778}, {"type": "node", "id": 13227662859, "lat": 17.3733681, "lon": 78.414395, "tags": {"amenity": "hospital", "check_date": "2025-10-12", "healthcare": "hospital", "name": "Renova Hospitals"}}, {"type": "node", "id": 13334012866, "lat": 17.4090636, "lon": 78.3999909, "tags": {"addr:city": "Hyderabad", "addr:district": "Hyderabad", "addr:housenumber": "A/1, Survey No:335, Toli Chowki 8-1, 296,", "addr:postcode": "500008", "addr:street": "Old Bombay Highway", "amenity": "hospital", "contact:facebook": "https://www.facebook.com/profile.php?id=61573383270142", "healthcare": "hospital", "healthcare:speciality": "dentist;dermatology;physiotherapy;paediatrics;gynaecology", "mobile": "+919100162144", "name": "Oneders Clinics", "operator": "Healedge", "operator:type": "private", "website": "https://www.onedersclinics.com/"}}, {"type": "way", "id": 182703660, "nodes": [1930607012, 1930607014, 1930607015, 1930607016, 1930607012], "tags": {"addr:district": "Hyderabad", "addr:full": "12-2-718/3,4,5, Nanalnagar 'X' Road, Mehdipatnam", "addr:state": "Telangana", "amenity": "hospital", "check_date": "2025-03-25", "emergency": "yes", "health_facility:type": "Onsite Pharmacy;Dietitian Designed Catering;Modern Delivery Room and Birthing Suites;Physiotherapy;Blood Transfusion Services;Patient Escort Services", "healthcare:speciality": "multi specialty", "medical_system": "Allopathic", "name": "Olive Hospital", "operator:type": "private", "phone": "040 30499500", "source": "OpenGovernmentData", "website": "http://www.olivehospital.com"}}, {"type": "way", "id": 356271386, "nodes": [6496870134, 6496870135, 3617362236, 3617362252, 6496870134], "tags": {"addr:district": "Hyderabad", "addr:full": "Plot No: 8-2-293/82/L/276A, MLA Colony Main Raod, Road No 12, Banjara Hills", "addr:postcode": "500034", "addr:state": "Telangana", "amenity": "hospital", "building": "yes", "contact:mobile": "+91 9160900045; 040-23551034", "email": "info@omegahospitals.com", "fax": "040 23550327", "healthcare:speciality": "Cancer Subspecialities;General Health Institute;Womens Wellcare Institute;ENT Institute;Orthopaedic Outreach Institute;Omega Cosmetic Surgery Center", "medical_system": "Allopathic", "name": "Omega Hospital", "operator:type": "private", "source": "OpenGovernmentData", "website": "https://www.omegahospitals.com/"}}, {"type": "way", "id": 356550425, "nodes": [3619560216, 3619560211, 3619560208, 3619560263, 3619560264, 3619560251, 3619560252, 3619560255, 3619560256, 3619560265, 3619560266, 3619560257, 3619560258, 3619560245, 3619560244, 3619560226, 3619560227, 3619560229, 3619560228, 3619560224, 3619560223, 3619560220, 3619560219, 3619560218, 3619560217, 3619560214, 3619560215, 3619560216]}, {"type": "way", "id": 356550429, "nodes": [3619560243, 3619560246, 3619560237, 3619560238, 3619560231, 3619560225, 3619560243]}, {"type": "way", "id": 860344899, "nodes": [2570465566, 2570465562, 8018447775, 8018447776, 8018447777, 8018472619, 8018472620, 8018472623, 8018472609, 8018472610, 8018472605, 8018472606, 8018472608, 8018472607, 8018472604, 8018472601, 8018472600, 8018472599, 8018472603, 8018472598, 8018472596, 8018472597, 8018447766, 8018447767, 8018472602, 8018472595, 8018472594, 8018472593, 8020057909, 8018472592, 8018472591, 8018447768, 8018447769, 5513214876, 5513214877, 8018472590, 8018472589, 8018472588, 8018472587, 8018472586, 8018472585, 8018447784, 8018447783, 8018447782, 8018447781, 8018447780, 8018447779, 8018447778, 2570465566], "tags": {"addr:district": "Hyderabad", "addr:full": "Apollo Hospitals, Jubilee Hills", "addr:postcode": "500033", "addr:state": "Telangana", "amenity": "hospital", "barrier": "wall", "contact:email": "apollohealthcityhyd@apollohospitals.com", "contact:tollfree": "18605001066", "email": "apollohealthcity@apollohospitals.com", "emergency": "yes", "fax": "040 23608050", "health_facility:type": "Inpatient;Accommodation;Food and Beverage Services;International Patient Services;24 hours pharmacy services;Blood Bank;Ambulance Service;Cafeteria", "healthcare": "hospital", "healthcare:speciality": "multi speciality", "landuse": "hospital", "medical_system": "Allopathic", "name": "Apollo Hospitals", "operator": "Apollo Hospitals", "operator:type": "private", "operator:wikidata": "Q4780321", "phone": "040 23607777;040 23605555;040 23602000", "source": "OpenGovernmentData", "website": "https://www.apollohospitals.com", "wheelchair": "yes"}}, {"type": "way", "id": 1300732264, "nodes": [12047779409, 12945249863, 12945249862, 12047779413, 12047779414, 12047779415, 12047779416, 12047779405, 12047779406, 12047779407, 12047779408, 12047779409], "tags": {"amenity": "hospital", "healthcare": "hospital", "name": "Sankaraya Eye Hospital"}}, {"type": "relation", "id": 5321005, "members": [{"type": "way", "ref": 356550429, "role": "inner"}, {"type": "way", "ref": 356550425, "role": "outer"}], "tags": {"amenity": "hospital", "building": "yes", "name": "Shadan Hospital", "type": "multipolygon"}}]}