{"version": 0.6, "generator": "Overpass API 0.7.62.8 e802775f", "osm3s": {"timestamp_osm_base": "2026-01-14T20:40:15Z", "copyright": "The data included in this document is from www.openstreetmap.org. The data is made available under ODbL."}, "elements": [{"type": "node", "id": 417957, "lat": 53.749395, "lon": -1.5650802}, {"type": "node", "id": 417959, "lat": 53.7530156, "lon": -1.5671351}, {"type": "node", "id": 417960, "lat": 53.7566719, "lon": -1.5676334}, {"type": "node", "id": 643657, "lat": 53.7623314, "lon": -1.5084924, "tags": {"bench": "yes", "bin": "yes", "bus": "yes", "highway": "bus_stop", "lit": "yes", "local_ref": "45011647", "name": "Wakefield Road", "naptan:AtcoCode": "450011647", "naptan:Bearing": "NW", "naptan:CommonName": "Wakefield Road", "naptan:Indicator": "Stop 45011647", "naptan:Landmark": "Leeds Valley Park", "naptan:PlusbusZoneRef": "LEEDS", "naptan:ShortCommonName": "Wakefield Rd Rothwl", "naptan:Street": "Wakefield Road", "naptan:verified": "yes", "public_transport": "platform", "shelter": "yes", "source": "naptan_import", "tactile_paving": "no", "timetable": "yes"}}, {"type": "node", "id": 30860810, "lat": 53.7648193, "lon": -1.5613504, "tags": {"bus": "yes", "highway": "bus_stop", "local_ref": "45010052", "name": "Dewsbury Road Oakhurst Avenue", "naptan:AtcoCode": "450010052", "naptan:Bearing": "NE", "naptan:CommonName": "Dewsbury Road Oakhurst Avenue", "naptan:Crossing": "Oakhurst Avenue", "naptan:Indicator": "Stop 45010052", "naptan:PlusbusZoneRef": "LEEDS", "naptan:ShortCommonName": "Oakhurst Avenue", "naptan:Street": "Dewsbury Road", "naptan:verified": "yes", "public_transport": "platform", "shelter": "yes", "source": "naptan_import", "timetable": "yes"}}, {"type": "node", "id": 30860844, "lat": 53.7743168, "lon": -1.5461484, "tags": {"bench": "no", "bin": "no", "bus": "yes", "highway": "bus_stop", "local_ref": "45010057", "name": "Dewsbury Road Trentham Street", "naptan:AtcoCode": "450010057", "naptan:Bearing": "NE", "naptan:CommonName": "Dewsbury Road Trentham Street", "naptan:Crossing": "Trentham Street", "naptan:Indicator": "Stop 45010057", "naptan:PlusbusZoneRef": "LEEDS", "naptan:ShortCommonName": "Trentham Street", "naptan:Street": "Dewsbury Road", "naptan:verified": "yes", "public_transport": "platform", "ref": "45010057", "shelter": "yes", "source": "naptan_import"}}, {"type": "node", "id": 249311306, "lat": 53.7882243, "lon": -1.5213932}, {"type": "node", "id": 265979302, "lat": 53.7610806, "lon": -1.5359065}, {"type": "node", "id": 265979303, "lat": 53.76184, "lon": -1.5369106}, {"type": "node", "id": 265979304, "lat": 53.7623968, "lon": -1.537765}, {"type": "node", "id": 265979305, "lat": 53.7644341, "lon": -1.5388683}, {"type": "node", "id": 265979306, "lat": 53.7690848, "lon": -1.5400184}, {"type": "node", "id": 265979307, "lat": 53.770824, "lon": -1.53968, "tags": {"railway": "switch"}}, {"type": "node", "id": 265979308, "lat": 53.7728287, "lon": -1.5392576, "tags": {"barrier": "gate"}}, {"type": "node", "id": 265979309, "lat": 53.7730192, "lon": -1.5392247, "tags": {"railway": "switch"}}, {"type": "node", "id": 265979310, "lat": 53.774976, "lon": -1.5371689, "tags": {"created_by": "JOSM"}}, {"type": "node", "id": 265979311, "lat": 53.7750856, "lon": -1.5347952, "tags": {"crossing:barrier": "no", "railway": "level_crossing"}}, {"type": "node", "id": 288347971, "lat": 53.7772105, "lon": -1.5447891, "tags": {"bus": "yes", "highway": "bus_stop", "local_ref": "45011476", "name": "Dewsbury Road Linden Grove", "naptan:AtcoCode": "450011476", "naptan:Bearing": "S", "naptan:CommonName": "Dewsbury Road Linden Grove", "naptan:Crossing": "Linden Grove", "naptan:Indicator": "Stop 45011476", "naptan:Notes": "3p case still to fit", "naptan:PlusbusZoneRef": "LEEDS", "naptan:ShortCommonName": "Linden Grove", "naptan:Street": "Dewsbury Road", "naptan:verified": "yes", "public_transport": "platform", "shelter": "yes", "source": "naptan_import"}}, {"type": "node", "id": 288347980, "lat": 53.7708898, "lon": -1.5500124, "tags": {"bus": "yes", "highway": "bus_stop", "local_ref": "45010055", "name": "Dewsbury Road / Tempest Road", "naptan:AtcoCode": "450010055", "naptan:Bearing": "NE", "naptan:CommonName": "Dewsbury Road Tempest Road", "naptan:Crossing": "Tempest Road", "naptan:Indicator": "Stop 45010055", "naptan:PlusbusZoneRef": "LEEDS", "naptan:ShortCommonName": "Harlech Road", "naptan:Street": "Dewsbury Road", "naptan:verified": "yes", "public_transport": "platform", "ref": "45010055", "source": "naptan_import"}}, {"type": "node", "id": 298127964, "lat": 53.7789516, "lon": -1.5448514, "tags": {"bench": "yes", "bus": "yes", "highway": "bus_stop", "local_ref": "45010058", "name": "Dewsbury Road / Burton Avenue", "naptan:AtcoCode": "450010058", "naptan:Bearing": "N", "naptan:CommonName": "Dewsbury Road Burton Avenue", "naptan:Crossing": "Burton Avenue", "naptan:Indicator": "Stop 45010058", "naptan:PlusbusZoneRef": "LEEDS", "naptan:ShortCommonName": "Burton Avenue", "naptan:Street": "Dewsbury Road", "naptan:verified": "yes", "operator": "First Leeds / Arriva", "public_transport": "platform", "ref": "45010058", "shelter": "yes", "source": "naptan_import;local knowledge"}}, {"type": "node", "id": 299989325, "lat": 53.772883, "lon": -1.5107975, "tags": {"bench": "no", "bin": "no", "bus": "yes", "check_date:shelter": "2024-10-15", "highway": "bus_stop", "lit": "no", "local_ref": "45023399", "name": "Pontefract Road Plevna Street", "naptan:AtcoCode": "450023399", "naptan:Bearing": "NW", "naptan:CommonName": "Pontefract Road Plevna Street", "naptan:Crossing": "Plevna Street", "naptan:Indicator": "Stop 45023399", "naptan:Landmark": "Industrial Estate", "naptan:PlusbusZoneRef": "LEEDS", "naptan:ShortCommonName": "Plevna Street", "naptan:Street": "Pontefract Road", "naptan:verified": "yes", "public_transport": "platform", "ref": "45023399", "shelter": "no", "source": "naptan_import;survey", "tactile_paving": "no"}}, {"type": "node", "id": 299989326, "lat": 53.7732726, "lon": -1.5109504, "tags": {"bench": "no", "bin": "yes", "bus": "yes", "check_date:shelter": "2024-10-15", "highway": "bus_stop", "lit": "no", "local_ref": "45023398", "name": "Pontefract Road Plevna Street", "naptan:AtcoCode": "450023398", "naptan:Bearing": "SE", "naptan:CommonName": "Pontefract Road Plevna Street", "naptan:Crossing": "Plevna Street", "naptan:Indicator": "Stop 45023398", "naptan:Landmark": "Industrial estate", "naptan:PlusbusZoneRef": "LEEDS", "naptan:ShortCommonName": "Plevna Street", "naptan:Street": "Pontefract Road", "naptan:verified": "yes", "public_transport": "platform", "ref": "45023398", "shelter": "no", "source": "naptan_import;survey", "tactile_paving": "no"}}, {"type": "node", "id": 301287770, "lat": 53.7601622, "lon": -1.5685794}, {"type": "node", "id": 302465787, "lat": 53.7723593, "lon": -1.5393605}, {"type": "node", "id": 302465788, "lat": 53.7717529, "lon": -1.539486}, {"type": "node", "id": 317104323, "lat": 53.7746697, "lon": -1.5381009, "tags": {"crossing:barrier": "no", "note": "only active a few times a year for special events. manned level crossing with 2 people in orange hi-vis and red flags to stop traffic", "railway": "level_crossing"}}, {"type": "node", "id": 317104324, "lat": 53.774606, "lon": -1.5382121, "tags": {"barrier": "gate"}}, {"type": "node", "id": 322936707, "lat": 53.7805225, "lon": -1.525872, "tags": {"bench": "yes", "bin": "yes", "bus": "yes", "highway": "bus_stop", "lit": "yes", "local_ref": "45010645", "name": "Low Road Church Street", "naptan:AtcoCode": "450010645", "naptan:Bearing": "NW", "naptan:CommonName": "Low Road Church Street", "naptan:Crossing": "Church Street", "naptan:Indicator": "Stop 45010645", "naptan:Landmark": "The Wellington PH", "naptan:PlusbusZoneRef": "LEEDS", "naptan:ShortCommonName": "Church Street", "naptan:Street": "Low Road", "naptan:verified": "yes", "public_transport": "platform", "ref": "45010645", "shelter": "yes", "source": "naptan_import", "tactile_paving": "yes", "timetable": "yes"}}, {"type": "node", "id": 322936708, "lat": 53.7795374, "lon": -1.5237655, "tags": {"bench": "yes", "bin": "yes", "bus": "yes", "check_date:shelter": "2023-12-12", "highway": "bus_stop", "lit": "yes", "local_ref": "45010625", "name": "Low Road Old Mill Lane", "naptan:AtcoCode": "450010625", "naptan:Bearing": "SE", "naptan:CommonName": "Low Road Old Mill Lane", "naptan:Crossing": "Old Mill Lane", "naptan:Indicator": "Stop 45010625", "naptan:Landmark": "Kwik Fit", "naptan:Notes": "New TF shelter and 3P case fitted Adrian requested YEDL to investigate faults 21/03/08As Panels fitted awaiting photos 09/05/08", "naptan:PlusbusZoneRef": "LEEDS", "naptan:ShortCommonName": "Old Mill Lane", "naptan:Street": "Low Road", "naptan:verified": "yes", "public_transport": "platform", "ref": "45010625", "shelter": "yes", "source": "naptan_import", "tactile_paving": "no"}}, {"type": "node", "id": 382384719, "lat": 53.776695, "lon": -1.5364751, "tags": {"bus": "yes", "local_ref": "45010118", "name": "Beza Street Tulip Street", "public_transport": "stop_position"}}, {"type": "node", "id": 388059598, "lat": 53.7762339, "lon": -1.5438726, "tags": {"bus": "yes", "highway": "bus_stop", "local_ref": "45011952", "name": "Holbeck Police Station;Leeds Tunstall Road", "naptan:AtcoCode": "450011952", "naptan:Bearing": "E", "naptan:CommonName": "Leeds Tunstall Road", "naptan:Crossing": "Burton Terrace", "naptan:Indicator": "Stop 45011952", "naptan:Landmark": "Police Station", "naptan:PlusbusZoneRef": "LEEDS", "naptan:ShortCommonName": "Holbeck Police Stn", "naptan:Street": "Tunstall Road", "naptan:verified": "yes", "public_transport": "platform", "ref": "45011952", "source": "naptan_import"}}, {"type": "node", "id": 388059601, "lat": 53.7760564, "lon": -1.5435722, "tags": {"bus": "yes", "highway": "bus_stop", "local_ref": "45010762", "name": "Holbeck Police Station;Tunstall Road Garnet Road", "naptan:AtcoCode": "450010762", "naptan:Bearing": "W", "naptan:CommonName": "Tunstall Road Garnet Road", "naptan:Crossing": "Garnet Road", "naptan:Indicator": "Stop 45010762", "naptan:PlusbusZoneRef": "LEEDS", "naptan:ShortCommonName": "Holbeck Police Stn", "naptan:Street": "Tunstall Road", "naptan:verified": "yes", "public_transport": "platform", "source": "naptan_import"}}, {"type": "node", "id": 388059674, "lat": 53.7742011, "lon": -1.5459417, "tags": {"bus": "yes", "highway": "bus_stop", "local_ref": "45010066", "name": "Garnet Road", "naptan:AtcoCode": "450010066", "naptan:Bearing": "SW", "naptan:CommonName": "Garnet Road", "naptan:Crossing": "Oakley Terrace", "naptan:Indicator": "Stop 45010066", "naptan:Landmark": "Church", "naptan:PlusbusZoneRef": "LEEDS", "naptan:ShortCommonName": "Oakley Terrace", "naptan:Street": "Dewsbury Road", "naptan:verified": "yes", "public_transport": "platform", "shelter": "yes", "source": "naptan_import;local knowledge"}}, {"type": "node", "id": 388094230, "lat": 53.7712038, "lon": -1.5397028}, {"type": "node", "id": 388094233, "lat": 53.7713454, "lon": -1.5397577}, {"type": "node", "id": 388094234, "lat": 53.7722022, "lon": -1.5401204, "tags": {"barrier": "gate", "material": "metal"}}, {"type": "node", "id": 388094236, "lat": 53.76854, "lon": -1.5400626}, {"type": "node", "id": 388094238, "lat": 53.7680002, "lon": -1.5399769}, {"type": "node", "id": 388094240, "lat": 53.7657762, "lon": -1.5392648}, {"type": "node", "id": 388094242, "lat": 53.7625952, "lon": -1.5380018}, {"type": "node", "id": 388094244, "lat": 53.7635395, "lon": -1.5386558}, {"type": "node", "id": 388094246, "lat": 53.7630048, "lon": -1.5383801}, {"type": "node", "id": 388094248, "lat": 53.7616725, "lon": -1.5366248}, {"type": "node", "id": 388094250, "lat": 53.7613769, "lon": -1.5362256}, {"type": "node", "id": 388094251, "lat": 53.7611834, "lon": -1.5360322}, {"type": "node", "id": 388094253, "lat": 53.7712725, "lon": -1.5395902}, {"type": "node", "id": 388094272, "lat": 53.7614562, "lon": -1.5363956, "tags": {"name": "Park Halt", "network": "Middleton Railway", "operator": "The Middleton Railway Trust", "public_transport": "station", "railway": "station", "source:name": "official_website", "train": "yes", "usage": "tourism", "wikidata": "Q7137761", "wikipedia": "en:Park Halt railway station"}}, {"type": "node", "id": 388183019, "lat": 53.7748993, "lon": -1.5374958}, {"type": "node", "id": 388183067, "lat": 53.7731232, "lon": -1.5371695, "tags": {"bus": "yes", "public_transport": "stop_position"}}, {"type": "node", "id": 388183068, "lat": 53.7733246, "lon": -1.5372417, "tags": {"bus": "yes", "highway": "bus_stop", "name": "Moor Road Carr Moor Street", "naptan:AtcoCode": "450028592", "naptan:Bearing": "SE", "naptan:CommonName": "Moor Road Carr Moor Street", "naptan:Crossing": "Carr Moor Street", "naptan:Landmark": "Bowling Green", "naptan:PlusbusZoneRef": "LEEDS", "naptan:ShortCommonName": "Carr Moor Street", "naptan:Street": "Moor Road", "naptan:verified": "no", "public_transport": "platform", "source": "naptan_import"}}, {"type": "node", "id": 388505777, "lat": 53.7746337, "lon": -1.5381662}, {"type": "node", "id": 388505778, "lat": 53.774764, "lon": -1.5378721}, {"type": "node", "id": 388505779, "lat": 53.7750146, "lon": -1.5364955}, {"type": "node", "id": 388505780, "lat": 53.7755728, "lon": -1.5320821, "tags": {"crossing:barrier": "no", "railway": "level_crossing"}}, {"type": "node", "id": 388505800, "lat": 53.7750255, "lon": -1.5351422}, {"type": "node", "id": 388505801, "lat": 53.7749777, "lon": -1.5355988}, {"type": "node", "id": 388505802, "lat": 53.774985, "lon": -1.5359834}, {"type": "node", "id": 388505910, "lat": 53.7749455, "lon": -1.5373558}, {"type": "node", "id": 388505911, "lat": 53.7750128, "lon": -1.5366852}, {"type": "node", "id": 389527568, "lat": 53.7803446, "lon": -1.5445114, "tags": {"bus": "yes", "highway": "bus_stop", "local_ref": "45010065", "name": "Dewsbury Road Hunslet Hall Road", "naptan:AtcoCode": "450010065", "naptan:Bearing": "S", "naptan:CommonName": "Dewsbury Road Hunslet Hall Road", "naptan:Crossing": "Hunslet Hall Road", "naptan:Indicator": "Stop 45010065", "naptan:Landmark": "Public Library", "naptan:PlusbusZoneRef": "LEEDS", "naptan:ShortCommonName": "Hunslet Hall Road", "naptan:Street": "Dewsbury Road", "naptan:verified": "yes", "public_transport": "platform", "ref": "45010065", "shelter": "yes", "source": "guess"}}, {"type": "node", "id": 390942226, "lat": 53.7724838, "lon": -1.5507916, "tags": {"bus": "yes", "highway": "bus_stop", "local_ref": "45012170", "name": "Tempest Road / Woodview Road;Tempest Road Woodview Road", "naptan:AtcoCode": "450012170", "naptan:Bearing": "NW", "naptan:CommonName": "Tempest Road Woodview Road", "naptan:Crossing": "Woodview Road", "naptan:Indicator": "Stop 45012170", "naptan:PlusbusZoneRef": "LEEDS", "naptan:ShortCommonName": "Woodview Road", "naptan:Street": "Tempest Road", "naptan:verified": "yes", "public_transport": "platform", "ref": "45012170", "source": "naptan_import"}}, {"type": "node", "id": 390942227, "lat": 53.7727677, "lon": -1.550868, "tags": {"bus": "yes", "highway": "bus_stop", "local_ref": "45012169", "name": "Tempest Road / Woodview Road;Tempest Road Woodview Road", "naptan:AtcoCode": "450012169", "naptan:Bearing": "SE", "naptan:CommonName": "Tempest Road Woodview Road", "naptan:Crossing": "Woodview Road", "naptan:Indicator": "Stop 45012169", "naptan:PlusbusZoneRef": "LEEDS", "naptan:ShortCommonName": "Woodview Road", "naptan:Street": "Tempest Road", "naptan:verified": "yes", "public_transport": "platform", "ref": "45012169", "source": "naptan_import"}}, {"type": "node", "id": 390942230, "lat": 53.7745792, "lon": -1.5527401, "tags": {"bus": "yes", "highway": "bus_stop", "local_ref": "45012171", "name": "Tempest Road / Maud Avenue", "naptan:AtcoCode": "450012171", "naptan:Bearing": "NW", "naptan:CommonName": "Tempest Road Maud Avenue", "naptan:Crossing": "Maud Avenue", "naptan:Indicator": "Stop 45012171", "naptan:Landmark": "Church", "naptan:PlusbusZoneRef": "LEEDS", "naptan:ShortCommonName": "Maud Avenue", "naptan:Street": "Tempest Road", "naptan:verified": "yes", "public_transport": "platform", "ref": "45012171", "source": "naptan_import"}}, {"type": "node", "id": 390942233, "lat": 53.7741938, "lon": -1.5522073, "tags": {"bus": "yes", "highway": "bus_stop", "local_ref": "45012120", "name": "Tempest Road / Trentham Street", "naptan:AtcoCode": "450012120", "naptan:Bearing": "SE", "naptan:CommonName": "Tempest Road Trentham Street", "naptan:Crossing": "Trentham Street", "naptan:Indicator": "Stop 45012120", "naptan:Landmark": "Church", "naptan:PlusbusZoneRef": "LEEDS", "naptan:ShortCommonName": "Trentham Street", "naptan:Street": "Tempest Road", "naptan:verified": "yes", "public_transport": "platform", "source": "naptan_import"}}, {"type": "node", "id": 391301762, "lat": 53.7805158, "lon": -1.5512611, "tags": {"bus": "yes", "highway": "bus_stop", "local_ref": "45013205", "name": "Lady Pit Lane / Brett Gardens;Lady Pit Lane Brett Gardens", "naptan:AtcoCode": "450013205", "naptan:Bearing": "S", "naptan:CommonName": "Lady Pit Lane Brett Gardens", "naptan:Crossing": "Brett Gardens", "naptan:Indicator": "Stop 45013205", "naptan:PlusbusZoneRef": "LEEDS", "naptan:ShortCommonName": "Brett Gardens", "naptan:Street": "Lady Pit Lane", "naptan:verified": "yes", "public_transport": "platform", "ref": "45013205", "source": "naptan_import"}}, {"type": "node", "id": 392007376, "lat": 53.7725407, "lon": -1.5479778, "tags": {"bus": "yes", "highway": "bus_stop", "local_ref": "45010056", "name": "Dewsbury Road / Woodview Grove;Dewsbury Road Woodview Grove", "naptan:AtcoCode": "450010056", "naptan:Bearing": "NE", "naptan:CommonName": "Dewsbury Road Woodview Grove", "naptan:Crossing": "Woodview Grove", "naptan:Indicator": "Stop 45010056", "naptan:Landmark": "Fire Station", "naptan:PlusbusZoneRef": "LEEDS", "naptan:ShortCommonName": "Woodview Grove", "naptan:Street": "Dewsbury Road", "naptan:verified": "yes", "public_transport": "platform", "ref": "45010056", "shelter": "yes", "source": "naptan_import"}}, {"type": "node", "id": 395305654, "lat": 53.7720976, "lon": -1.5400745, "tags": {"railway": "level_crossing"}}, {"type": "node", "id": 398982802, "lat": 53.7727585, "lon": -1.5392737, "tags": {"railway": "level_crossing"}}, {"type": "node", "id": 405211387, "lat": 53.7774379, "lon": -1.5564725, "tags": {"bus": "yes", "highway": "bus_stop", "local_ref": "45010084", "name": "Beeston Hill", "naptan:AtcoCode": "450010084", "naptan:Bearing": "W", "naptan:CommonName": "Beeston Hill", "naptan:Crossing": "Tempest Road", "naptan:Indicator": "Stop 45010084", "naptan:PlusbusZoneRef": "LEEDS", "naptan:ShortCommonName": "Beeston Hill", "naptan:Street": "Beeston Road", "naptan:verified": "yes", "public_transport": "platform", "ref": "45010084", "source": "naptan_import"}}, {"type": "node", "id": 405211388, "lat": 53.7776193, "lon": -1.5564394, "tags": {"bus": "yes", "highway": "bus_stop", "local_ref": "45012121", "name": "Beeston Hill", "naptan:AtcoCode": "450012121", "naptan:Bearing": "E", "naptan:CommonName": "Beeston Hill", "naptan:Crossing": "Cemetery Road", "naptan:Indicator": "Stop 45012121", "naptan:PlusbusZoneRef": "LEEDS", "naptan:ShortCommonName": "Beeston Hill", "naptan:Street": "Beeston Road", "naptan:verified": "yes", "public_transport": "platform", "ref": "45012121", "source": "naptan_import"}}, {"type": "node", "id": 405435306, "lat": 53.7782625, "lon": -1.5562803, "tags": {"bus": "yes", "highway": "bus_stop", "local_ref": "45012119", "name": "Cemetery Road Back Middleton View", "naptan:AtcoCode": "450012119", "naptan:Bearing": "SE", "naptan:CommonName": "Cemetery Road Back Middleton View", "naptan:Crossing": "Back Middleton View", "naptan:Indicator": "Stop 45012119", "naptan:PlusbusZoneRef": "LEEDS", "naptan:ShortCommonName": "Back Middleton View", "naptan:Street": "Cemetery Road", "naptan:verified": "yes", "public_transport": "platform", "ref": "45012119", "source": "naptan_import"}}, {"type": "node", "id": 405435309, "lat": 53.7782269, "lon": -1.5563385, "tags": {"bus": "yes", "highway": "bus_stop", "local_ref": "45010092", "name": "Cemetery Road Temple Crescent", "naptan:AtcoCode": "450010092", "naptan:Bearing": "NW", "naptan:CommonName": "Cemetery Road Temple Crescent", "naptan:Crossing": "Temple Crescent", "naptan:Indicator": "Stop 45010092", "naptan:PlusbusZoneRef": "LEEDS", "naptan:ShortCommonName": "Temple Crescent", "naptan:Street": "Cemetery Road", "naptan:verified": "yes", "public_transport": "platform", "ref": "45010092", "source": "naptan_import"}}, {"type": "node", "id": 410102244, "lat": 53.7692437, "lon": -1.5301998, "tags": {"bus": "yes", "highway": "bus_stop", "local_ref": "45011955", "name": "Belle Isle Road South View Road", "naptan:AtcoCode": "450011955", "naptan:Bearing": "S", "naptan:CommonName": "Belle Isle Road South View Road", "naptan:Crossing": "South View Road", "naptan:Indicator": "Stop 45011955", "naptan:Notes": "On L/C-A21", "naptan:PlusbusZoneRef": "LEEDS", "naptan:ShortCommonName": "South View Road", "naptan:Street": "Belle Isle Road", "naptan:verified": "no", "public_transport": "platform", "source": "naptan_import"}}, {"type": "node", "id": 410102310, "lat": 53.7699939, "lon": -1.5237553, "tags": {"bus": "yes", "highway": "bus_stop", "local_ref": "45010026", "name": "Middleton Road Parnaby Road", "naptan:AtcoCode": "450010026", "naptan:Bearing": "N", "naptan:CommonName": "Middleton Road Parnaby Road", "naptan:Crossing": "Parnaby Road", "naptan:Indicator": "Stop 45010026", "naptan:Notes": "Shelter installed awaiting photos & details as at 6/5/09", "naptan:PlusbusZoneRef": "LEEDS", "naptan:ShortCommonName": "Parnaby Road", "naptan:Street": "Middleton Road", "naptan:verified": "yes", "public_transport": "platform", "ref": "45010026", "source": "naptan_import"}}, {"type": "node", "id": 410102316, "lat": 53.7704929, "lon": -1.5234842, "tags": {"bus": "yes", "highway": "bus_stop", "local_ref": "45011939", "name": "Middleton Road Woodhouse Hill Road", "naptan:AtcoCode": "450011939", "naptan:Bearing": "S", "naptan:CommonName": "Middleton Road Woodhouse Hill Road", "naptan:Crossing": "Woodhouse Hill Road", "naptan:Indicator": "Stop 45011939", "naptan:PlusbusZoneRef": "LEEDS", "naptan:ShortCommonName": "Woodhouse Hill Road", "naptan:Street": "Middleton Road", "naptan:verified": "yes", "public_transport": "platform", "ref": "45011939", "source": "naptan_import"}}, {"type": "node", "id": 410102427, "lat": 53.7663663, "lon": -1.5238784, "tags": {"bus": "yes", "highway": "bus_stop", "local_ref": "45011937", "name": "Middleton Road Enterprise Way", "naptan:AtcoCode": "450011937", "naptan:Bearing": "N", "naptan:CommonName": "Middleton Road Enterprise Way", "naptan:Crossing": "Enterprise Way", "naptan:Indicator": "Stop 45011937", "naptan:PlusbusZoneRef": "LEEDS", "naptan:ShortCommonName": "Enterprise Way", "naptan:Street": "Middleton Road", "naptan:verified": "yes", "public_transport": "platform", "source": "naptan_import"}}, {"type": "node", "id": 410350689, "lat": 53.7468646, "lon": -1.5622255}, {"type": "node", "id": 410350710, "lat": 53.7545487, "lon": -1.5675513}, {"type": "node", "id": 410350923, "lat": 53.7549451, "lon": -1.5280849, "tags": {"bus": "yes", "highway": "bus_stop", "local_ref": "45011908", "name": "Town Street Lanshaw Walk", "naptan:AtcoCode": "450011908", "naptan:Bearing": "SW", "naptan:CommonName": "Town Street Lanshaw Walk", "naptan:Crossing": "Lanshaw walk", "naptan:Indicator": "Stop 45011908", "naptan:Landmark": "Social Club", "naptan:PlusbusZoneRef": "LEEDS", "naptan:ShortCommonName": "Lanshaw Walk", "naptan:Street": "Town Street", "naptan:verified": "no", "public_transport": "platform", "source": "naptan_import"}}, {"type": "node", "id": 410350961, "lat": 53.7503694, "lon": -1.5313259, "tags": {"bus": "yes", "highway": "bus_stop", "local_ref": "45011881", "name": "Sharp Lane Middleton Ring Road", "naptan:AtcoCode": "450011881", "naptan:Bearing": "S", "naptan:CommonName": "Sharp Lane Middleton Ring Road", "naptan:Crossing": "Middleton Ring Road", "naptan:Indicator": "Stop 45011881", "naptan:Landmark": "Supermarket", "naptan:PlusbusZoneRef": "LEEDS", "naptan:ShortCommonName": "Middleton Ring Road", "naptan:Street": "Sharp Lane", "naptan:verified": "yes", "public_transport": "platform", "source": "naptan_import", "timetable": "yes"}}, {"type": "node", "id": 410350988, "lat": 53.7511628, "lon": -1.5313961, "tags": {"bus": "yes", "highway": "bus_stop", "local_ref": "45010036", "name": "Town Street Dunlin Drive", "naptan:AtcoCode": "450010036", "naptan:Bearing": "N", "naptan:CommonName": "Town Street Dunlin Drive", "naptan:Crossing": "Dunlin Drive", "naptan:Indicator": "Stop 45010036", "naptan:Landmark": "Dental Surgery", "naptan:PlusbusZoneRef": "LEEDS", "naptan:ShortCommonName": "Dunlin Drive", "naptan:Street": "Town Street", "naptan:verified": "yes", "public_transport": "platform", "shelter": "yes", "source": "naptan_import", "timetable": "yes"}}, {"type": "node", "id": 410494850, "lat": 53.7484001, "lon": -1.546479, "tags": {"bus": "yes", "highway": "bus_stop", "local_ref": "45010047", "name": "Middleton Arms", "naptan:AtcoCode": "450010047", "naptan:Bearing": "E", "naptan:CommonName": "Middleton Arms", "naptan:Crossing": "Thorpe Road", "naptan:Indicator": "Stop 45010047", "naptan:Landmark": "Middleton Arms PH", "naptan:Notes": "Ad Panels fitted 100308 awaiting photos 09/05/08", "naptan:PlusbusZoneRef": "LEEDS", "naptan:ShortCommonName": "Middleton Arms", "naptan:Street": "Middleton Park Road", "naptan:verified": "yes", "public_transport": "platform", "shelter": "yes", "source": "naptan_import", "timetable": "yes"}}, {"type": "node", "id": 410495119, "lat": 53.7572459, "lon": -1.5676493}, {"type": "node", "id": 412303134, "lat": 53.7643895, "lon": -1.561694, "tags": {"bus": "yes", "highway": "bus_stop", "local_ref": "45011479", "name": "Dewsbury Road / Allenby Road", "naptan:AtcoCode": "450011479", "naptan:Bearing": "SW", "naptan:CommonName": "Dewsbury Road Allenby Road", "naptan:Crossing": "Allenby Road", "naptan:Indicator": "Stop 45011479", "naptan:PlusbusZoneRef": "LEEDS", "naptan:ShortCommonName": "Allenby Road", "naptan:Street": "Dewsbury Road", "public_transport": "platform", "shelter": "no", "source": "naptan_import", "towards": "White Rose Centre"}}, {"type": "node", "id": 412303135, "lat": 53.7634915, "lon": -1.5617215, "tags": {"bus": "yes", "highway": "bus_stop", "local_ref": "45010069", "name": "Ring Road Beeston Park Dewsbury Road", "naptan:AtcoCode": "450010069", "naptan:Bearing": "SE", "naptan:CommonName": "Ring Road Beeston Park Dewsbury Road", "naptan:Crossing": "Dewsbury Road", "naptan:Indicator": "Stop 45010069", "naptan:PlusbusZoneRef": "LEEDS", "naptan:ShortCommonName": "Dewsbury Road", "naptan:Street": "Ring Road Beeston Park", "naptan:verified": "yes", "public_transport": "platform", "shelter": "yes", "source": "naptan_import", "timetable": "yes"}}, {"type": "node", "id": 412746432, "lat": 53.7633189, "lon": -1.5542204}, {"type": "node", "id": 412746440, "lat": 53.7632128, "lon": -1.5527804}, {"type": "node", "id": 414998739, "lat": 53.7735199, "lon": -1.5304767, "tags": {"bench": "yes", "bin": "yes", "bus": "yes", "check_date:shelter": "2025-04-05", "highway": "bus_stop", "local_ref": "45010028", "name": "Balm Road Playfair Road", "naptan:AtcoCode": "450010028", "naptan:Bearing": "N", "naptan:CommonName": "Balm Road Playfair Road", "naptan:Crossing": "Playfair Road", "naptan:Indicator": "Stop 45010028", "naptan:Notes": "Commutaport shelter removed and replaced with new TF shelter on 9/11/07. Awaiting survey.", "naptan:PlusbusZoneRef": "LEEDS", "naptan:ShortCommonName": "Playfair Road", "naptan:Street": "Balm Road", "naptan:verified": "yes", "public_transport": "platform", "shelter": "yes", "source": "naptan_import", "timetable": "yes"}}, {"type": "node", "id": 414998786, "lat": 53.7716941, "lon": -1.5221112, "tags": {"bus": "yes", "highway": "bus_stop", "local_ref": "45011940", "name": "Pepper Road", "naptan:AtcoCode": "450011940", "naptan:Bearing": "S", "naptan:CommonName": "Pepper Road", "naptan:Crossing": "Leasowe Road", "naptan:Indicator": "Stop 45011940", "naptan:PlusbusZoneRef": "LEEDS", "naptan:ShortCommonName": "Leasowe Road", "naptan:Street": "Pepper Road", "naptan:verified": "yes", "public_transport": "platform", "ref": "45011940", "source": "naptan_import"}}, {"type": "node", "id": 414998862, "lat": 53.772104, "lon": -1.5222923, "tags": {"bus": "yes", "highway": "bus_stop", "local_ref": "45010027", "name": "Pepper Road Leasowe Road", "naptan:AtcoCode": "450010027", "naptan:Bearing": "N", "naptan:CommonName": "Pepper Road Leasowe Road", "naptan:Crossing": "Leasowe Road", "naptan:Indicator": "Stop 45010027", "naptan:PlusbusZoneRef": "LEEDS", "naptan:ShortCommonName": "Leasowe Road", "naptan:Street": "Pepper Road", "naptan:verified": "yes", "public_transport": "platform", "ref": "45010027", "source": "naptan_import"}}, {"type": "node", "id": 429276911, "lat": 53.7396477, "lon": -1.5587736}, {"type": "node", "id": 429276912, "lat": 53.7409858, "lon": -1.5583849}, {"type": "node", "id": 429276913, "lat": 53.7426009, "lon": -1.5586586}, {"type": "node", "id": 429276914, "lat": 53.7448639, "lon": -1.5603547}, {"type": "node", "id": 429276915, "lat": 53.7486197, "lon": -1.5640034}, {"type": "node", "id": 435187152, "lat": 53.7794635, "lon": -1.552078, "tags": {"bus": "yes", "highway": "bus_stop", "local_ref": "45013255", "name": "Malvern Road Lady Pit Lane", "naptan:AtcoCode": "450013255", "naptan:Bearing": "W", "naptan:CommonName": "Malvern Road Lady Pit Lane", "naptan:Crossing": "Lady Pit Lane", "naptan:Indicator": "Stop 45013255", "naptan:Landmark": "Evanglical Church", "naptan:PlusbusZoneRef": "LEEDS", "naptan:ShortCommonName": "Lady Pit Lane", "naptan:Street": "Malvern Road", "naptan:verified": "yes", "public_transport": "platform", "source": "naptan_import"}}, {"type": "node", "id": 435187153, "lat": 53.7795736, "lon": -1.5522348, "tags": {"bus": "yes", "highway": "bus_stop", "local_ref": "45010085", "name": "Malvern Road Beeston Road", "naptan:AtcoCode": "450010085", "naptan:Bearing": "E", "naptan:CommonName": "Malvern Road Beeston Road", "naptan:Crossing": "Beeston Road", "naptan:Indicator": "Stop 45010085", "naptan:Landmark": "Church", "naptan:Notes": "Possible site for delap 17/03/09", "naptan:PlusbusZoneRef": "LEEDS", "naptan:ShortCommonName": "Beeston Road", "naptan:Street": "Malvern Road", "naptan:verified": "yes", "public_transport": "platform", "shelter": "yes", "source": "naptan_import", "timetable": "yes"}}, {"type": "node", "id": 452140105, "lat": 53.7809858, "lon": -1.5599398, "tags": {"bus": "yes", "highway": "bus_stop", "local_ref": "45010107", "name": "Elland Road Cemetery Road", "naptan:AtcoCode": "450010107", "naptan:Bearing": "W", "naptan:CommonName": "Elland Road Cemetery Road", "naptan:Crossing": "Cemetery Road", "naptan:Indicator": "Stop 45010107", "naptan:Landmark": "City Evangelical Church", "naptan:PlusbusZoneRef": "LEEDS", "naptan:ShortCommonName": "Cemetery Road", "naptan:Street": "Elland Road", "naptan:verified": "yes", "public_transport": "platform", "ref": "45010107", "source": "naptan_import"}}, {"type": "node", "id": 452140223, "lat": 53.7800138, "lon": -1.5631405, "tags": {"bus": "yes", "highway": "bus_stop", "local_ref": "45012160", "name": "Elland Road", "naptan:AtcoCode": "450012160", "naptan:Bearing": "W", "naptan:CommonName": "Elland Road", "naptan:Crossing": "Revie Road", "naptan:Indicator": "Stop 45012160", "naptan:PlusbusZoneRef": "LEEDS", "naptan:ShortCommonName": "Elland Road Rdbt", "naptan:Street": "Elland Road", "naptan:verified": "yes", "public_transport": "platform", "ref": "45012160", "source": "naptan_import"}}, {"type": "node", "id": 452140254, "lat": 53.7736024, "lon": -1.5649053, "tags": {"bus": "yes", "highway": "bus_stop", "local_ref": "45010079", "name": "Beeston Road St Marys Church Yard", "naptan:AtcoCode": "450010079", "naptan:Bearing": "NE", "naptan:CommonName": "Beeston Road St Marys Church Yard", "naptan:Crossing": "Crossflats Terrace", "naptan:Indicator": "Stop 45010079", "naptan:Landmark": "Church Yard", "naptan:PlusbusZoneRef": "LEEDS", "naptan:ShortCommonName": "Crossflats Terrace", "naptan:Street": "Beeston Road", "naptan:verified": "no", "public_transport": "platform", "source": "naptan_import"}}, {"type": "node", "id": 452140380, "lat": 53.7788656, "lon": -1.5574826, "tags": {"bus": "yes", "highway": "bus_stop", "local_ref": "45012118", "name": "Cemetery Road Fairfax Road", "naptan:AtcoCode": "450012118", "naptan:Bearing": "NW", "naptan:CommonName": "Cemetery Road Fairfax Road", "naptan:Crossing": "Fairfax Road", "naptan:Indicator": "Stop 45012118", "naptan:PlusbusZoneRef": "LEEDS", "naptan:ShortCommonName": "Fairfax Road", "naptan:Street": "Cemetery Road", "naptan:verified": "yes", "public_transport": "platform", "ref": "45012118", "source": "naptan_import"}}, {"type": "node", "id": 496714903, "lat": 53.7518968, "lon": -1.561956, "tags": {"bus": "yes", "highway": "bus_stop", "local_ref": "45010001", "name": "Bodmin Road Helston Walk", "naptan:AtcoCode": "450010001", "naptan:Bearing": "N", "naptan:CommonName": "Bodmin Road Helston Walk", "naptan:Crossing": "Helton Walk", "naptan:Indicator": "Stop 45010001", "naptan:PlusbusZoneRef": "LEEDS", "naptan:ShortCommonName": "Helston Walk", "naptan:Street": "Bodmin Road", "naptan:verified": "no", "public_transport": "platform", "source": "naptan_import"}}, {"type": "node", "id": 496714904, "lat": 53.7485907, "lon": -1.5599432, "tags": {"bus": "yes", "highway": "bus_stop", "local_ref": "45010002", "name": "Bodmin Road Padstow Gardens", "naptan:AtcoCode": "450010002", "naptan:Bearing": "NW", "naptan:CommonName": "Bodmin Road Padstow Gardens", "naptan:Crossing": "Padstow Gardens", "naptan:Indicator": "Stop 45010002", "naptan:PlusbusZoneRef": "LEEDS", "naptan:ShortCommonName": "Padstow Gardens", "naptan:Street": "Bodmin Road", "naptan:verified": "no", "public_transport": "platform", "source": "naptan_import"}}, {"type": "node", "id": 496714905, "lat": 53.7464151, "lon": -1.5574032, "tags": {"bus": "yes", "highway": "bus_stop", "local_ref": "45010003", "name": "Bodmin Road Padstow Place", "naptan:AtcoCode": "450010003", "naptan:Bearing": "N", "naptan:CommonName": "Bodmin Road Padstow Place", "naptan:Crossing": "Padstow Place", "naptan:Indicator": "Stop 45010003", "naptan:Landmark": "Unknown", "naptan:PlusbusZoneRef": "LEEDS", "naptan:ShortCommonName": "Padstow Place", "naptan:Street": "Bodmin Road", "naptan:verified": "no", "public_transport": "platform", "source": "naptan_import"}}, {"type": "node", "id": 496714906, "lat": 53.7451118, "lon": -1.5549757, "tags": {"bus": "yes", "highway": "bus_stop", "local_ref": "45010004", "name": "Bodmin Crescent Sissons Terrace", "naptan:AtcoCode": "450010004", "naptan:Bearing": "SW", "naptan:CommonName": "Bodmin Crescent Sissons Terrace", "naptan:Crossing": "Sissons Terrace", "naptan:Indicator": "Stop 45010004", "naptan:Notes": "New TF shelter installed on 8/11/07.", "naptan:PlusbusZoneRef": "LEEDS", "naptan:ShortCommonName": "Sissons Terrace", "naptan:Street": "Bodmin Crescent", "naptan:verified": "no", "public_transport": "platform", "source": "naptan_import"}}, {"type": "node", "id": 496714907, "lat": 53.7521026, "lon": -1.5592544, "tags": {"bus": "yes", "highway": "bus_stop", "local_ref": "45010005", "name": "Ring Road Beeston Helston Croft", "naptan:AtcoCode": "450010005", "naptan:Bearing": "S", "naptan:CommonName": "Ring Road Beeston Helston Croft", "naptan:Crossing": "Helston Croft", "naptan:Indicator": "Stop 45010005", "naptan:PlusbusZoneRef": "LEEDS", "naptan:ShortCommonName": "Helston Croft", "naptan:Street": "Ring Road Beeston Park", "naptan:verified": "yes", "public_transport": "platform", "shelter": "yes", "source": "naptan_import", "timetable": "yes"}}, {"type": "node", "id": 496714911, "lat": 53.7532021, "lon": -1.5600315, "tags": {"bus": "yes", "highway": "bus_stop", "local_ref": "45010006", "name": "Ring Road Beeston Park Bodmin Road", "naptan:AtcoCode": "450010006", "naptan:Bearing": "N", "naptan:CommonName": "Ring Road Beeston Park Bodmin Road", "naptan:Crossing": "Bodmin Road", "naptan:Indicator": "Stop 45010006", "naptan:PlusbusZoneRef": "LEEDS", "naptan:ShortCommonName": "Bodmin Road", "naptan:Street": "Ring Road Beeston Park", "naptan:verified": "yes", "public_transport": "platform", "shelter": "yes", "source": "naptan_import", "timetable": "yes"}}, {"type": "node", "id": 496714912, "lat": 53.7490206, "lon": -1.5330561, "tags": {"bus": "yes", "highway": "bus_stop", "local_ref": "45010009", "name": "St Georges Road Middleton Shopping Centre", "naptan:AtcoCode": "450010009", "naptan:Bearing": "N", "naptan:CommonName": "St Georges Road Middleton Shopping Centre", "naptan:Crossing": "Holme Well Road", "naptan:Indicator": "Stop 45010009", "naptan:Landmark": "Middleton Shopping Centre", "naptan:PlusbusZoneRef": "LEEDS", "naptan:ShortCommonName": "St. Georges Road", "naptan:Street": "St Georges Road", "naptan:verified": "no", "public_transport": "platform", "source": "naptan_import"}}, {"type": "node", "id": 496714913, "lat": 53.7491056, "lon": -1.5339114, "tags": {"bus": "yes", "highway": "bus_stop", "local_ref": "45010010", "name": "Ring Road Middleton", "naptan:AtcoCode": "450010010", "naptan:Bearing": "W", "naptan:CommonName": "Ring Road Middleton", "naptan:Crossing": "Teal Mews", "naptan:Indicator": "Stop 45010010", "naptan:Landmark": "Middleton Shopping Centre", "naptan:PlusbusZoneRef": "LEEDS", "naptan:ShortCommonName": "Middleton Shop Ctr", "naptan:Street": "Ring Road Middleton", "naptan:verified": "yes", "public_transport": "platform", "shelter": "yes", "source": "naptan_import", "timetable": "yes"}}, {"type": "node", "id": 496714914, "lat": 53.7482999, "lon": -1.5422875, "tags": {"bus": "yes", "highway": "bus_stop", "local_ref": "45010011", "name": "Middleton Park Road Lingwell Road", "naptan:AtcoCode": "450010011", "naptan:Bearing": "W", "naptan:CommonName": "Middleton Park Road Lingwell Road", "naptan:Crossing": "Lingwell Road", "naptan:Indicator": "Stop 45010011", "naptan:PlusbusZoneRef": "LEEDS", "naptan:ShortCommonName": "Lingwell Road", "naptan:Street": "Middleton Park Road", "naptan:verified": "yes", "public_transport": "platform", "shelter": "yes", "source": "naptan_import", "timetable": "yes"}}, {"type": "node", "id": 496714915, "lat": 53.7477777, "lon": -1.5474755, "tags": {"bus": "yes", "highway": "bus_stop", "local_ref": "45010012", "name": "Middleton Arms", "naptan:AtcoCode": "450010012", "naptan:Bearing": "SW", "naptan:CommonName": "Middleton Arms", "naptan:Crossing": "Middleton Park Avenue", "naptan:Indicator": "Stop 45010012", "naptan:Landmark": "Yorkshire Bank", "naptan:NaptanCode": "45010012", "naptan:PlusbusZoneRef": "LEEDS", "naptan:ShortCommonName": "Middleton Pk Circus", "naptan:Street": "Middleton Park Circus", "naptan:verified": "yes", "public_transport": "platform", "shelter": "yes", "source": "naptan_import", "timetable": "yes"}}, {"type": "node", "id": 496714919, "lat": 53.7482074, "lon": -1.5491679, "tags": {"bus": "yes", "departures_board": "realtime", "highway": "bus_stop", "local_ref": "45010012", "name": "Middleton Arms", "naptan:AtcoCode": "450010017", "naptan:Bearing": "W", "naptan:CommonName": "Middleton Arms", "naptan:Crossing": "Sissons Road", "naptan:Indicator": "Stop 45010017", "naptan:Landmark": "Middleton Arms", "naptan:NaptanCode": "45010017", "naptan:PlusbusZoneRef": "LEEDS", "naptan:ShortCommonName": "Middleton Arms", "naptan:Street": "Middleton Park Road", "naptan:verified": "yes", "public_transport": "platform", "shelter": "yes", "source": "naptan_import", "timetable": "yes"}}, {"type": "node", "id": 496714922, "lat": 53.7466819, "lon": -1.5214439, "tags": {"bus": "yes", "highway": "bus_stop", "local_ref": "45010018", "name": "Belle Isle Sharp House", "naptan:AtcoCode": "450010018", "naptan:Bearing": "N", "naptan:CommonName": "Belle Isle Sharp House", "naptan:Crossing": "Melton Avenue", "naptan:Indicator": "Stop 45010018", "naptan:Landmark": "Sharp House", "naptan:PlusbusZoneRef": "LEEDS", "naptan:ShortCommonName": "Melton Avenue", "naptan:Street": "Sharp Lane", "naptan:verified": "yes", "public_transport": "platform", "shelter": "no", "source": "naptan_import", "timetable": "yes"}}, {"type": "node", "id": 496714925, "lat": 53.7494317, "lon": -1.5259197, "tags": {"bus": "yes", "highway": "bus_stop", "local_ref": "45010019", "name": "Sharp Lane Throstle Road", "naptan:AtcoCode": "450010019", "naptan:Bearing": "S", "naptan:CommonName": "Sharp Lane Throstle Road", "naptan:Crossing": "Throstle Road", "naptan:Indicator": "Stop 45010019", "naptan:Landmark": "School", "naptan:PlusbusZoneRef": "LEEDS", "naptan:ShortCommonName": "Throstle Road", "naptan:Street": "Sharp Lane", "naptan:verified": "yes", "public_transport": "platform", "shelter": "yes", "source": "naptan_import", "timetable": "yes"}}, {"type": "node", "id": 496714926, "lat": 53.7497466, "lon": -1.5260071, "tags": {"bus": "yes", "highway": "bus_stop", "local_ref": "45010020", "name": "Throstle Road Cranmore Road", "naptan:AtcoCode": "450010020", "naptan:Bearing": "N", "naptan:CommonName": "Throstle Road Cranmore Road", "naptan:Crossing": "Cranmore Road", "naptan:Indicator": "Stop 45010020", "naptan:Landmark": "The Omnibus PH", "naptan:PlusbusZoneRef": "LEEDS", "naptan:ShortCommonName": "Cranmore Road", "naptan:Street": "Throstle Road", "naptan:verified": "yes", "public_transport": "platform", "shelter": "yes", "source": "naptan_import", "timetable": "yes"}}, {"type": "node", "id": 496714927, "lat": 53.7555259, "lon": -1.5191624, "tags": {"bus": "yes", "highway": "bus_stop", "local_ref": "45010021", "name": "Broom Place Middleton Ring Road", "naptan:AtcoCode": "450010021", "naptan:Bearing": "NW", "naptan:CommonName": "Broom Place Middleton Ring Road", "naptan:Crossing": "Middleton Ring Road", "naptan:Indicator": "Stop 45010021", "naptan:PlusbusZoneRef": "LEEDS", "naptan:ShortCommonName": "Middleton Ring Road", "naptan:Street": "Broom Place", "naptan:verified": "yes", "public_transport": "platform", "shelter": "yes", "source": "naptan_import", "timetable": "yes"}}, {"type": "node", "id": 496714928, "lat": 53.7600911, "lon": -1.5189434, "tags": {"bus": "yes", "highway": "bus_stop", "local_ref": "45010022", "name": "Ring Road Middleton Lea Park Drive", "naptan:AtcoCode": "450010022", "naptan:Bearing": "N", "naptan:CommonName": "Ring Road Middleton Lea Park Drive", "naptan:Crossing": "Lea Park Drive", "naptan:Indicator": "Stop 45010022", "naptan:PlusbusZoneRef": "LEEDS", "naptan:ShortCommonName": "Lea Park Drive", "naptan:Street": "Ring Road Middleton", "naptan:verified": "yes", "public_transport": "platform", "shelter": "yes", "source": "naptan_import", "timetable": "yes"}}, {"type": "node", "id": 496714929, "lat": 53.7623963, "lon": -1.517749, "tags": {"bus": "yes", "highway": "bus_stop", "local_ref": "45010023", "name": "Ring Road Middleton Middlecroft Close", "naptan:AtcoCode": "450010023", "naptan:Bearing": "S", "naptan:CommonName": "Ring Road Middleton Middlecroft Close", "naptan:Crossing": "Middlecroft Close", "naptan:Indicator": "Stop 45010023", "naptan:PlusbusZoneRef": "LEEDS", "naptan:ShortCommonName": "Middlecroft Close", "naptan:Street": "Ring Road Middleton", "naptan:verified": "yes", "public_transport": "platform", "shelter": "yes", "source": "naptan_import", "timetable": "yes"}}, {"type": "node", "id": 496714930, "lat": 53.7628828, "lon": -1.5180316, "tags": {"bus": "yes", "highway": "bus_stop", "local_ref": "45010024", "name": "Ring Road Middleton Middlecroft Road", "naptan:AtcoCode": "450010024", "naptan:Bearing": "N", "naptan:CommonName": "Ring Road Middleton Middlecroft Road", "naptan:Crossing": "Middlecroft Road", "naptan:Indicator": "Stop 45010024", "naptan:Notes": "Possible site for delap 17/03/09 - Shelter removed due to collapse of roof  27/03/09", "naptan:PlusbusZoneRef": "LEEDS", "naptan:ShortCommonName": "Middlecroft Road", "naptan:Street": "Ring Road Middleton", "naptan:verified": "yes", "public_transport": "platform", "shelter": "yes", "source": "naptan_import"}}, {"type": "node", "id": 496714931, "lat": 53.7677167, "lon": -1.5243331, "tags": {"bus": "yes", "highway": "bus_stop", "local_ref": "45010025", "name": "Middleton Road East Grange Drive", "naptan:AtcoCode": "450010025", "naptan:Bearing": "N", "naptan:CommonName": "Middleton Road East Grange Drive", "naptan:Crossing": "East Grange Rise", "naptan:Indicator": "Stop 45010025", "naptan:Landmark": "Cemetery", "naptan:Notes": "Possible site for delap 17/03/09", "naptan:PlusbusZoneRef": "LEEDS", "naptan:ShortCommonName": "East Grange Drive", "naptan:Street": "Middleton Road", "naptan:verified": "yes", "public_transport": "platform", "shelter": "yes", "source": "naptan_import", "timetable": "yes"}}, {"type": "node", "id": 496714935, "lat": 53.7716774, "lon": -1.5308697, "tags": {"bus": "yes", "highway": "bus_stop", "local_ref": "45010029", "name": "Balm Road Sandon Place", "naptan:AtcoCode": "450010029", "naptan:Bearing": "S", "naptan:CommonName": "Balm Road Sandon Place", "naptan:Crossing": "Sandon Place", "naptan:Indicator": "Stop 45010029", "naptan:PlusbusZoneRef": "LEEDS", "naptan:ShortCommonName": "Sandon Place", "naptan:Street": "Balm Road", "naptan:verified": "no", "public_transport": "platform", "source": "naptan_import"}}, {"type": "node", "id": 496714936, "lat": 53.771984, "lon": -1.5310908, "tags": {"bus": "yes", "highway": "bus_stop", "local_ref": "45010030", "name": "Balm Road Moor Road", "naptan:AtcoCode": "450010030", "naptan:Bearing": "N", "naptan:CommonName": "Balm Road Moor Road", "naptan:Crossing": "Moor Road", "naptan:Indicator": "Stop 45010030", "naptan:PlusbusZoneRef": "LEEDS", "naptan:ShortCommonName": "Moor Road", "naptan:Street": "Belle Isle Road", "naptan:verified": "no", "public_transport": "platform", "shelter": "yes", "source": "naptan_import"}}, {"type": "node", "id": 496714937, "lat": 53.7654507, "lon": -1.5286368, "tags": {"bus": "yes", "highway": "bus_stop", "local_ref": "45010031", "name": "Belle Isle Road Low Grange Crescent", "naptan:AtcoCode": "450010031", "naptan:Bearing": "S", "naptan:CommonName": "Belle Isle Road Low Grange Crescent", "naptan:Crossing": "Low Grange Crescent", "naptan:Indicator": "Stop 45010031", "naptan:Notes": "New TF Shelter installed on 27.11.07.  Awaiting survey.", "naptan:PlusbusZoneRef": "LEEDS", "naptan:ShortCommonName": "Low Grange Crescent", "naptan:Street": "Belle Isle Road", "naptan:verified": "no", "public_transport": "platform", "source": "naptan_import"}}, {"type": "node", "id": 496714938, "lat": 53.7579102, "lon": -1.5264616, "tags": {"bus": "yes", "highway": "bus_stop", "local_ref": "45010032", "name": "Belle Isle Road Middleton Road", "naptan:AtcoCode": "450010032", "naptan:Bearing": "S", "naptan:CommonName": "Belle Isle Road Middleton Road", "naptan:Crossing": "Middleton Road", "naptan:Indicator": "Stop 45010032", "naptan:Notes": "Abacus shelter removed on 20/11/07.  New TF shelter installed on 6/12/07.", "naptan:PlusbusZoneRef": "LEEDS", "naptan:ShortCommonName": "Middleton Road", "naptan:Street": "Belle Isle Road", "naptan:verified": "no", "public_transport": "platform", "source": "naptan_import"}}, {"type": "node", "id": 496714939, "lat": 53.7527831, "lon": -1.5301233, "tags": {"bus": "yes", "highway": "bus_stop", "local_ref": "45010033", "name": "Town Street Lanshaw View", "naptan:AtcoCode": "450010033", "naptan:Bearing": "SW", "naptan:CommonName": "Town Street Lanshaw View", "naptan:Crossing": "Lanshaw View", "naptan:Indicator": "Stop 45010033", "naptan:PlusbusZoneRef": "LEEDS", "naptan:ShortCommonName": "Lanshaw View", "naptan:Street": "Town Street", "naptan:verified": "no", "public_transport": "platform", "source": "naptan_import"}}, {"type": "node", "id": 496714940, "lat": 53.7528067, "lon": -1.530284, "tags": {"bus": "yes", "highway": "bus_stop", "local_ref": "45010034", "name": "Town Street Lanshaw View", "naptan:AtcoCode": "450010034", "naptan:Bearing": "NE", "naptan:CommonName": "Town Street Lanshaw View", "naptan:Crossing": "Lanshaw View", "naptan:Indicator": "Stop 45010034", "naptan:PlusbusZoneRef": "LEEDS", "naptan:ShortCommonName": "Lanshaw View", "naptan:Street": "Town Street", "naptan:verified": "no", "public_transport": "platform", "source": "naptan_import"}}, {"type": "node", "id": 496714941, "lat": 53.7495484, "lon": -1.5327425, "tags": {"bus": "yes", "highway": "bus_stop", "local_ref": "45010035", "name": "Middleton Centre", "naptan:AtcoCode": "450010035", "naptan:Bearing": "E", "naptan:CommonName": "Middleton Centre", "naptan:Crossing": "Sharp Lane", "naptan:Indicator": "Stop 45010035", "naptan:Landmark": "Middleton Shopping Centre", "naptan:PlusbusZoneRef": "LEEDS", "naptan:ShortCommonName": "Middleton Shop Ctr", "naptan:Street": "Ring Road Middleton", "naptan:verified": "yes", "public_transport": "platform", "shelter": "yes", "source": "naptan_import", "timetable": "yes"}}, {"type": "node", "id": 496714943, "lat": 53.7571982, "lon": -1.5319837, "tags": {"bus": "yes", "highway": "bus_stop", "local_ref": "45010037", "name": "Winrose Drive Newhall Gate", "naptan:AtcoCode": "450010037", "naptan:Bearing": "N", "naptan:CommonName": "Winrose Drive Newhall Gate", "naptan:Crossing": "Newhall Gate", "naptan:Indicator": "Stop 45010037", "naptan:Notes": "New TF shelter and 3P case fitted awaiting survey", "naptan:PlusbusZoneRef": "LEEDS", "naptan:ShortCommonName": "Newhall Gate", "naptan:Street": "Winrose Drive", "naptan:verified": "no", "public_transport": "platform", "source": "naptan_import"}}, {"type": "node", "id": 496714944, "lat": 53.7597844, "lon": -1.5323104, "tags": {"bus": "yes", "highway": "bus_stop", "local_ref": "45010038", "name": "Winrose Drive Lindale Close", "naptan:AtcoCode": "450010038", "naptan:Bearing": "N", "naptan:CommonName": "Winrose Drive Lindale Close", "naptan:Crossing": "Lindale Close", "naptan:Indicator": "Stop 45010038", "naptan:PlusbusZoneRef": "LEEDS", "naptan:ShortCommonName": "Lindale Close", "naptan:Street": "Winrose Drive", "naptan:verified": "no", "public_transport": "platform", "source": "naptan_import"}}, {"type": "node", "id": 496714945, "lat": 53.7658056, "lon": -1.5291523, "tags": {"bus": "yes", "highway": "bus_stop", "local_ref": "45010039", "name": "Belle Isle Road Winrose Crescent", "naptan:AtcoCode": "450010039", "naptan:Bearing": "N", "naptan:CommonName": "Belle Isle Road Winrose Crescent", "naptan:Crossing": "Winrose Crescent", "naptan:Indicator": "Stop 45010039", "naptan:PlusbusZoneRef": "LEEDS", "naptan:ShortCommonName": "Winrose Crescent", "naptan:Street": "Belle Isle Road", "naptan:verified": "no", "public_transport": "platform", "source": "naptan_import"}}, {"type": "node", "id": 496714946, "lat": 53.7692673, "lon": -1.5305986, "tags": {"bus": "yes", "highway": "bus_stop", "local_ref": "45010040", "name": "Belle Isle Road West Grange Drive", "naptan:AtcoCode": "450010040", "naptan:Bearing": "N", "naptan:CommonName": "Belle Isle Road West Grange Drive", "naptan:Crossing": "West Grange Drive", "naptan:Indicator": "Stop 45010040", "naptan:Landmark": "West Grange Church", "naptan:Notes": "Shelter installed 26/8/08 still awaiting photo and snagging sheet as at 5 September 2008", "naptan:PlusbusZoneRef": "LEEDS", "naptan:ShortCommonName": "West Grange Drive", "naptan:Street": "Belle Isle Road", "naptan:verified": "no", "public_transport": "platform", "source": "naptan_import"}}, {"type": "node", "id": 496714947, "lat": 53.7529747, "lon": -1.5263196, "tags": {"bus": "yes", "highway": "bus_stop", "local_ref": "45010041", "name": "Belle Isle Road Nestfield Walk", "naptan:AtcoCode": "450010041", "naptan:Bearing": "N", "naptan:CommonName": "Belle Isle Road Nestfield Walk", "naptan:Crossing": "Nestfield Walk", "naptan:Indicator": "Stop 45010041", "naptan:PlusbusZoneRef": "LEEDS", "naptan:ShortCommonName": "Nestfield Walk", "naptan:Street": "Belle Isle Road", "naptan:verified": "no", "public_transport": "platform", "source": "naptan_import"}}, {"type": "node", "id": 496714948, "lat": 53.757237, "lon": -1.5267873, "tags": {"bus": "yes", "highway": "bus_stop", "local_ref": "45010042", "name": "Belle Isle Road Aberfield Gate", "naptan:AtcoCode": "450010042", "naptan:Bearing": "N", "naptan:CommonName": "Belle Isle Road Aberfield Gate", "naptan:Crossing": "Aberfield Gate", "naptan:Indicator": "Stop 45010042", "naptan:Landmark": "Grey Goose PH", "naptan:PlusbusZoneRef": "LEEDS", "naptan:ShortCommonName": "Aberfield Gate", "naptan:Street": "Belle Isle Road", "naptan:verified": "no", "public_transport": "platform", "source": "naptan_import"}}, {"type": "node", "id": 496714949, "lat": 53.7609691, "lon": -1.5272611, "tags": {"bus": "yes", "highway": "bus_stop", "local_ref": "45010043", "name": "Belle Isle Road Petersfield Avenue", "naptan:AtcoCode": "450010043", "naptan:Bearing": "N", "naptan:CommonName": "Belle Isle Road Petersfield Avenue", "naptan:Crossing": "Petersfield Avenue", "naptan:Indicator": "Stop 45010043", "naptan:Landmark": "High School", "naptan:PlusbusZoneRef": "LEEDS", "naptan:ShortCommonName": "Petersfield Avenue", "naptan:Street": "Belle Isle Road", "naptan:verified": "no", "public_transport": "platform", "source": "naptan_import"}}, {"type": "node", "id": 496714950, "lat": 53.7514284, "lon": -1.5424428, "tags": {"bus": "yes", "highway": "bus_stop", "local_ref": "45010045", "name": "Town Street Lingwell Road North", "naptan:AtcoCode": "450010045", "naptan:Bearing": "E", "naptan:CommonName": "Town Street Lingwell Road North", "naptan:Crossing": "Lingwell Road North", "naptan:Indicator": "Stop 45010045", "naptan:Landmark": "Church", "naptan:PlusbusZoneRef": "LEEDS", "naptan:ShortCommonName": "Lingwell Road North", "naptan:Street": "Town Street", "naptan:verified": "no", "passenger_information_display": "yes", "public_transport": "platform", "shelter": "yes", "source": "naptan_import"}}, {"type": "node", "id": 496714951, "lat": 53.7484841, "lon": -1.548207, "tags": {"bus": "yes", "highway": "bus_stop", "local_ref": "45010012", "name": "Middleton Park Road St Philips Avenue", "naptan:AtcoCode": "450010046", "naptan:Bearing": "W", "naptan:CommonName": "Middleton Park Road St Philips Avenue", "naptan:Crossing": "St Philips Avenue", "naptan:Indicator": "Stop 45010046", "naptan:PlusbusZoneRef": "LEEDS", "naptan:ShortCommonName": "St. Philips Avenue", "naptan:Street": "Middleton Park Road", "naptan:verified": "no", "public_transport": "platform", "source": "naptan_import"}}, {"type": "node", "id": 496714953, "lat": 53.7484678, "lon": -1.5415935, "tags": {"bus": "yes", "highway": "bus_stop", "local_ref": "45010048", "name": "Ring Road Middleton Lingwell Road", "naptan:AtcoCode": "450010048", "naptan:Bearing": "E", "naptan:CommonName": "Ring Road Middleton Lingwell Road", "naptan:Crossing": "Lingwell Road", "naptan:Indicator": "Stop 45010048", "naptan:Notes": "Shelter set on fire temp pole in place 13/10/08", "naptan:PlusbusZoneRef": "LEEDS", "naptan:ShortCommonName": "Lingwell Road", "naptan:Street": "Ring Road Middleton", "naptan:verified": "yes", "public_transport": "platform", "shelter": "yes", "source": "naptan_import", "timetable": "yes"}}, {"type": "node", "id": 496714954, "lat": 53.7486666, "lon": -1.5537249, "tags": {"bus": "yes", "highway": "bus_stop", "local_ref": "45010050", "name": "Middleton Park Road Middleton Park Grove", "naptan:AtcoCode": "450010050", "naptan:Bearing": "W", "naptan:CommonName": "Middleton Park Road Middleton Park Grove", "naptan:Crossing": "Middleton Park Grove", "naptan:Indicator": "Stop 45010050", "naptan:PlusbusZoneRef": "LEEDS", "naptan:ShortCommonName": "Middleton Park Gro", "naptan:Street": "Middleton Park Road", "naptan:verified": "yes", "public_transport": "platform", "shelter": "yes", "source": "naptan_import", "timetable": "yes"}}, {"type": "node", "id": 496714955, "lat": 53.7632011, "lon": -1.5649568, "tags": {"bus": "yes", "highway": "bus_stop", "local_ref": "45010051", "name": "Ring Road Beeston Waincliffe Drive", "naptan:AtcoCode": "450010051", "naptan:Bearing": "NE", "naptan:CommonName": "Ring Road Beeston Waincliffe Drive", "naptan:Crossing": "Waincliffe Drive", "naptan:Indicator": "Stop 45010051", "naptan:Landmark": "Church", "naptan:PlusbusZoneRef": "LEEDS", "naptan:ShortCommonName": "Waincliffe Drive", "naptan:Street": "Ring Road Beeston", "naptan:verified": "yes", "public_transport": "platform", "shelter": "yes", "source": "naptan_import", "timetable": "yes"}}, {"type": "node", "id": 496714957, "lat": 53.7669397, "lon": -1.5560799, "tags": {"bus": "yes", "highway": "bus_stop", "local_ref": "45010053", "name": "Dewsbury Road Back Mafeking Avenue", "naptan:AtcoCode": "450010053", "naptan:Bearing": "NE", "naptan:CommonName": "Dewsbury Road Back Mafeking Avenue", "naptan:Crossing": "Back Mafeking Avenue", "naptan:Indicator": "Stop 45010053", "naptan:PlusbusZoneRef": "LEEDS", "naptan:ShortCommonName": "Back Mafeking Av", "naptan:Street": "Dewsbury Road", "naptan:verified": "yes", "public_transport": "platform", "shelter": "yes", "source": "naptan_import", "timetable": "yes"}}, {"type": "node", "id": 496714958, "lat": 53.7683559, "lon": -1.5533216, "tags": {"bus": "yes", "highway": "bus_stop", "kerb": "raised", "local_ref": "45010054", "name": "Cross Flatts Park", "naptan:AtcoCode": "450010054", "naptan:Bearing": "NE", "naptan:CommonName": "Cross Flatts Park", "naptan:Crossing": "Cross Flatts Grove", "naptan:Indicator": "Stop 45010054", "naptan:PlusbusZoneRef": "LEEDS", "naptan:ShortCommonName": "Cross Flatts Grove", "naptan:Street": "Dewsbury Road", "naptan:verified": "yes", "public_transport": "platform", "shelter": "yes", "source": "naptan_import", "timetable": "yes"}}, {"type": "node", "id": 496714967, "lat": 53.769976, "lon": -1.5507983, "tags": {"bus": "yes", "highway": "bus_stop", "local_ref": "45010067", "name": "Dewsbury Road Dewsbury Road Social Club", "naptan:AtcoCode": "450010067", "naptan:Bearing": "SW", "naptan:CommonName": "Dewsbury Road Dewsbury Road Social Club", "naptan:Crossing": "Middleton Grove", "naptan:Indicator": "Stop 45010067", "naptan:Landmark": "Social Club", "naptan:PlusbusZoneRef": "LEEDS", "naptan:ShortCommonName": "Middleton Grove", "naptan:Street": "Dewsbury Road", "naptan:verified": "yes", "public_transport": "platform", "shelter": "yes", "source": "naptan_import"}}, {"type": "node", "id": 496714968, "lat": 53.767448, "lon": -1.5545191, "tags": {"bus": "yes", "highway": "bus_stop", "local_ref": "45010068", "name": "Cross Flatts Park", "naptan:AtcoCode": "450010068", "naptan:Bearing": "NE", "naptan:CommonName": "Cross Flatts Park", "naptan:Crossing": "Mafeking Mount", "naptan:Indicator": "Stop 45010068", "naptan:PlusbusZoneRef": "LEEDS", "naptan:ShortCommonName": "Mafeking Mount", "naptan:Street": "Dewsbury Road", "naptan:verified": "yes", "public_transport": "platform", "shelter": "yes", "source": "naptan_import", "timetable": "yes"}}, {"type": "node", "id": 496714970, "lat": 53.7634805, "lon": -1.5638075, "tags": {"bus": "yes", "highway": "bus_stop", "local_ref": "45010070", "name": "Dewsbury Road Waincliffe Drive", "naptan:AtcoCode": "450010070", "naptan:Bearing": "SW", "naptan:CommonName": "Dewsbury Road Waincliffe Drive", "naptan:Crossing": "Waincliffe Drive", "naptan:Indicator": "Stop 45010070", "naptan:PlusbusZoneRef": "LEEDS", "naptan:ShortCommonName": "Waincliffe Drive", "naptan:Street": "Dewsbury Road", "naptan:verified": "yes", "public_transport": "platform", "shelter": "yes", "source": "naptan_import", "timetable": "yes"}}, {"type": "node", "id": 496714971, "lat": 53.7646097, "lon": -1.5628856, "tags": {"bus": "yes", "highway": "bus_stop", "local_ref": "45010072", "name": "Old Lane Chatswood Avenue", "naptan:AtcoCode": "450010072", "naptan:Bearing": "NW", "naptan:CommonName": "Old Lane Chatswood Avenue", "naptan:Crossing": "Chatswood Avenue", "naptan:Indicator": "Stop 45010072", "naptan:PlusbusZoneRef": "LEEDS", "naptan:ShortCommonName": "Chatswood Avenue", "naptan:Street": "Old Lane", "naptan:verified": "yes", "public_transport": "platform", "shelter": "yes", "source": "naptan_import", "timetable": "yes"}}, {"type": "node", "id": 496714972, "lat": 53.7658912, "lon": -1.5667864, "tags": {"bus": "yes", "highway": "bus_stop", "local_ref": "45010073", "name": "Cardinal Road Waincliffe Place", "naptan:AtcoCode": "450010073", "naptan:Bearing": "N", "naptan:CommonName": "Cardinal Road Waincliffe Place", "naptan:Crossing": "Cardinal walk", "naptan:Indicator": "Stop 45010073", "naptan:PlusbusZoneRef": "LEEDS", "naptan:ShortCommonName": "Cardinal Walk", "naptan:Street": "Cardinal Road", "naptan:verified": "no", "public_transport": "platform", "source": "naptan_import"}}, {"type": "node", "id": 496714973, "lat": 53.7676164, "lon": -1.5641288, "tags": {"bus": "yes", "highway": "bus_stop", "local_ref": "45010074", "name": "Old Lane Grovehall Road", "naptan:AtcoCode": "450010074", "naptan:Bearing": "N", "naptan:CommonName": "Old Lane Grovehall Road", "naptan:Crossing": "Grovehall Road", "naptan:Indicator": "Stop 45010074", "naptan:PlusbusZoneRef": "LEEDS", "naptan:ShortCommonName": "Grovehall Road", "naptan:Street": "Old Lane", "naptan:verified": "no", "public_transport": "platform", "source": "naptan_import"}}, {"type": "node", "id": 496714974, "lat": 53.7693256, "lon": -1.5645359, "tags": {"bus": "yes", "highway": "bus_stop", "local_ref": "45010075", "name": "Old Lane Moorhouse Avenue", "naptan:AtcoCode": "450010075", "naptan:Bearing": "N", "naptan:CommonName": "Old Lane Moorhouse Avenue", "naptan:Crossing": "Moorhouse Avenue", "naptan:Indicator": "Stop 45010075", "naptan:PlusbusZoneRef": "LEEDS", "naptan:ShortCommonName": "Moorhouse Avenue", "naptan:Street": "Old Lane", "naptan:verified": "no", "public_transport": "platform", "source": "naptan_import"}}, {"type": "node", "id": 496714975, "lat": 53.7727978, "lon": -1.5652738, "tags": {"bus": "yes", "highway": "bus_stop", "local_ref": "45010076", "name": "Beeston Co-op", "naptan:AtcoCode": "450010076", "naptan:Bearing": "N", "naptan:CommonName": "Beeston Co-op", "naptan:Crossing": "Town Street", "naptan:Indicator": "Stop 45010076", "naptan:Landmark": "Co-op", "naptan:Notes": "New TF shelter and 3P tt case installed", "naptan:PlusbusZoneRef": "LEEDS", "naptan:ShortCommonName": "Beeston Co-op", "naptan:Street": "Old Lane", "naptan:verified": "no", "public_transport": "platform", "source": "naptan_import"}}, {"type": "node", "id": 496714976, "lat": 53.772779, "lon": -1.5650464, "tags": {"bus": "yes", "highway": "bus_stop", "local_ref": "45010077", "name": "Beeston Co-op", "naptan:AtcoCode": "450010077", "naptan:Bearing": "S", "naptan:CommonName": "Beeston Co-op", "naptan:Crossing": "Beeston Road", "naptan:Indicator": "Stop 45010077", "naptan:Landmark": "Church Hall", "naptan:PlusbusZoneRef": "LEEDS", "naptan:ShortCommonName": "St. Anthonys Church", "naptan:Street": "Old Lane", "naptan:verified": "no", "public_transport": "platform", "source": "naptan_import"}}, {"type": "node", "id": 496714979, "lat": 53.7758523, "lon": -1.5619454, "tags": {"bus": "yes", "highway": "bus_stop", "local_ref": "45010080", "name": "Beeston Road Woodlea Street", "naptan:AtcoCode": "450010080", "naptan:Bearing": "NE", "naptan:CommonName": "Beeston Road Woodlea Street", "naptan:Crossing": "Woodlea Street", "naptan:Indicator": "Stop 45010080", "naptan:PlusbusZoneRef": "LEEDS", "naptan:ShortCommonName": "Woodlea Street", "naptan:Street": "Beeston Road", "naptan:verified": "no", "public_transport": "platform", "source": "naptan_import"}}, {"type": "node", "id": 496714980, "lat": 53.7765821, "lon": -1.560394, "tags": {"bus": "yes", "highway": "bus_stop", "local_ref": "45010081", "name": "Beeston Road Parkfield View", "naptan:AtcoCode": "450010081", "naptan:Bearing": "SW", "naptan:CommonName": "Beeston Road Parkfield View", "naptan:Crossing": "Parkfield View", "naptan:Indicator": "Stop 45010081", "naptan:PlusbusZoneRef": "LEEDS", "naptan:ShortCommonName": "Parkfield View", "naptan:Street": "Beeston Road", "naptan:verified": "no", "public_transport": "platform", "source": "naptan_import"}}, {"type": "node", "id": 496714981, "lat": 53.7768678, "lon": -1.5598902, "tags": {"bus": "yes", "highway": "bus_stop", "local_ref": "45010082", "name": "Beeston Road Grave Yard", "naptan:AtcoCode": "450010082", "naptan:Bearing": "NE", "naptan:CommonName": "Beeston Road Grave Yard", "naptan:Crossing": "Noster Terrace", "naptan:Indicator": "Stop 45010082", "naptan:Landmark": "Grave Yard", "naptan:PlusbusZoneRef": "LEEDS", "naptan:ShortCommonName": "Noster Terrace", "naptan:Street": "Beeston Road", "naptan:verified": "no", "public_transport": "platform", "source": "naptan_import"}}, {"type": "node", "id": 496714988, "lat": 53.7746935, "lon": -1.5675455, "tags": {"bus": "yes", "highway": "bus_stop", "local_ref": "45010091", "name": "Wesley Street Sunnyview Gardens", "naptan:AtcoCode": "450010091", "naptan:Bearing": "N", "naptan:CommonName": "Wesley Street Sunnyview Gardens", "naptan:Crossing": "Sunnyview Gardens", "naptan:Indicator": "Stop 45010091", "naptan:PlusbusZoneRef": "LEEDS", "naptan:ShortCommonName": "Sunnyview Gardens", "naptan:Street": "Wesley Street", "naptan:verified": "no", "public_transport": "platform", "source": "naptan_import"}}, {"type": "node", "id": 496715008, "lat": 53.7751315, "lon": -1.5379667, "tags": {"bus": "yes", "highway": "bus_stop", "local_ref": "45010116", "name": "Moor Road Tunstall Road", "naptan:AtcoCode": "450010116", "naptan:Bearing": "NE", "naptan:CommonName": "Moor Road Tunstall Road", "naptan:Crossing": "Tunstall Road", "naptan:Indicator": "Stop 45010116", "naptan:Landmark": "Middleton Light Railway", "naptan:PlusbusZoneRef": "LEEDS", "naptan:ShortCommonName": "Tunstall Road", "naptan:Street": "Moor Road", "naptan:verified": "no", "public_transport": "platform", "source": "naptan_import"}}, {"type": "node", "id": 496715010, "lat": 53.7777047, "lon": -1.5316711, "tags": {"bus": "yes", "highway": "bus_stop", "local_ref": "45010120", "name": "Church Street Balm Road", "naptan:AtcoCode": "450010120", "naptan:Bearing": "W", "naptan:CommonName": "Church Street Balm Road", "naptan:Crossing": "Balm Road", "naptan:Indicator": "Stop 45010120", "naptan:PlusbusZoneRef": "LEEDS", "naptan:ShortCommonName": "Balm Road", "naptan:Street": "Church Street", "naptan:verified": "no", "public_transport": "platform", "shelter": "yes", "source": "naptan_import"}}, {"type": "node", "id": 496715540, "lat": 53.7692239, "lon": -1.5350426, "tags": {"bus": "yes", "highway": "bus_stop", "local_ref": "45010764", "name": "Old Run Road Blakeney Road", "naptan:AtcoCode": "450010764", "naptan:Bearing": "N", "naptan:CommonName": "Old Run Road Blakeney Road", "naptan:Crossing": "Blakeney Road", "naptan:Indicator": "Stop 45010764", "naptan:PlusbusZoneRef": "LEEDS", "naptan:ShortCommonName": "Blakeney Road", "naptan:Street": "Old Run Road", "naptan:verified": "yes", "public_transport": "platform", "shelter": "yes", "source": "naptan_import", "timetable": "yes"}}, {"type": "node", "id": 496715541, "lat": 53.7788999, "lon": -1.5279925, "tags": {"bus": "yes", "highway": "bus_stop", "local_ref": "45010766", "name": "Church Street Grove Road", "naptan:AtcoCode": "450010766", "naptan:Bearing": "NE", "naptan:CommonName": "Church Street Grove Road", "naptan:Crossing": "Grove Road", "naptan:Indicator": "Stop 45010766", "naptan:Landmark": "Hunslet Shopping Centre", "naptan:PlusbusZoneRef": "LEEDS", "naptan:ShortCommonName": "Hunslet Shop Ctr", "naptan:Street": "Church Street", "naptan:verified": "yes", "public_transport": "platform", "ref": "45010766", "shelter": "yes", "source": "naptan_import", "timetable": "yes"}}, {"type": "node", "id": 496715542, "lat": 53.779698, "lon": -1.525721, "tags": {"bench": "yes", "bin": "yes", "bus": "yes", "highway": "bus_stop", "lit": "yes", "live_display": "yes", "local_ref": "45010767", "name": "Church Street Belinda Street", "naptan:AtcoCode": "450010767", "naptan:Bearing": "SW", "naptan:CommonName": "Church Street Belinda Street", "naptan:Crossing": "Belinda Street", "naptan:Indicator": "Stop 45010767", "naptan:Landmark": "Health Centre", "naptan:PlusbusZoneRef": "LEEDS", "naptan:ShortCommonName": "Belinda Street", "naptan:Street": "Church Street", "naptan:verified": "yes", "public_transport": "platform", "ref": "45010767", "shelter": "yes", "source": "naptan_import", "tactile_paving": "no", "timetable": "yes"}}, {"type": "node", "id": 496715543, "lat": 53.7783274, "lon": -1.5284559, "tags": {"bus": "yes", "highway": "bus_stop", "live_display": "yes", "local_ref": "45010768", "name": "Hunslet District Centre", "naptan:AtcoCode": "450010768", "naptan:Bearing": "SW", "naptan:CommonName": "Hunslet District Centre", "naptan:Crossing": "Grove Road", "naptan:Indicator": "Stop 45010768", "naptan:Landmark": "Penny Hill PH", "naptan:PlusbusZoneRef": "LEEDS", "naptan:ShortCommonName": "Hunslet Centre", "naptan:Street": "Church Street", "naptan:verified": "yes", "public_transport": "platform", "shelter": "yes", "source": "naptan_import", "timetable": "yes"}}, {"type": "node", "id": 496716188, "lat": 53.7464904, "lon": -1.5681839, "tags": {"bus": "yes", "highway": "bus_stop", "kerb": "raised", "layby": "yes", "local_ref": "45011329", "name": "Dewsbury Road Wide Lane", "naptan:AtcoCode": "450011329", "naptan:Bearing": "N", "naptan:CommonName": "Dewsbury Road Wide Lane", "naptan:Crossing": "Wide Lane", "naptan:Indicator": "Stop 45011329", "naptan:Landmark": "White Rose PH", "naptan:PlusbusZoneRef": "LEEDS", "naptan:ShortCommonName": "Wide Lane", "naptan:Street": "Dewsbury Road", "naptan:verified": "yes", "public_transport": "platform", "source": "naptan_import", "timetable": "yes"}}, {"type": "node", "id": 496716195, "lat": 53.7461138, "lon": -1.5677427, "tags": {"bus": "yes", "highway": "bus_stop", "kerb": "raised", "layby": "yes", "local_ref": "45011334", "name": "Dewsbury Road Wide Lane", "naptan:AtcoCode": "450011334", "naptan:Bearing": "W", "naptan:CommonName": "Dewsbury Road Wide Lane", "naptan:Crossing": "Wide Lane", "naptan:Indicator": "Stop 45011334", "naptan:Landmark": "White Rose PH", "naptan:Notes": "L/C-A266", "naptan:PlusbusZoneRef": "LEEDS", "naptan:ShortCommonName": "Wide Lane", "naptan:Street": "Dewsbury Road", "naptan:verified": "yes", "public_transport": "platform", "shelter": "no", "source": "naptan_import", "timetable": "yes"}}, {"type": "node", "id": 496716866, "lat": 53.7723377, "lon": -1.5477992, "tags": {"bus": "yes", "highway": "bus_stop", "local_ref": "45011477", "name": "Dewsbury Road Woodview Place", "naptan:AtcoCode": "450011477", "naptan:Bearing": "SW", "naptan:CommonName": "Dewsbury Road Woodview Place", "naptan:Crossing": "Woodview Place", "naptan:Indicator": "Stop 45011477", "naptan:PlusbusZoneRef": "LEEDS", "naptan:ShortCommonName": "Woodview Place", "naptan:Street": "Dewsbury Road", "naptan:verified": "yes", "public_transport": "platform", "shelter": "yes", "source": "naptan_import", "timetable": "yes"}}, {"type": "node", "id": 496716867, "lat": 53.7664627, "lon": -1.5568555, "tags": {"bus": "yes", "departures_board": "realtime", "highway": "bus_stop", "local_ref": "45011478", "name": "Dewsbury Road Barkly Road", "naptan:AtcoCode": "450011478", "naptan:Bearing": "SW", "naptan:CommonName": "Dewsbury Road Barkly Road", "naptan:Crossing": "Barkly Road", "naptan:Indicator": "Stop 45011478", "naptan:PlusbusZoneRef": "LEEDS", "naptan:ShortCommonName": "Barkly Road", "naptan:Street": "Dewsbury Road", "naptan:verified": "yes", "public_transport": "platform", "shelter": "no", "source": "naptan_import", "timetable": "yes"}}, {"type": "node", "id": 496716869, "lat": 53.761656, "lon": -1.5618183, "tags": {"bus": "yes", "highway": "bus_stop", "local_ref": "45011480", "name": "Ring Road Beeston Park", "naptan:AtcoCode": "450011480", "naptan:Bearing": "N", "naptan:CommonName": "Ring Road Beeston Park", "naptan:Crossing": "Parkwood", "naptan:Indicator": "Stop 45011480", "naptan:PlusbusZoneRef": "LEEDS", "naptan:ShortCommonName": "Parkwood Road", "naptan:Street": "Ring Road Beeston Park", "naptan:verified": "yes", "public_transport": "platform", "shelter": "no", "source": "naptan_import", "timetable": "yes"}}, {"type": "node", "id": 496717001, "lat": 53.7474577, "lon": -1.5078311, "tags": {"bench": "no", "bin": "yes", "bus": "yes", "check_date:shelter": "2023-12-16", "highway": "bus_stop", "lit": "yes", "local_ref": "45011626", "name": "Wakefield Road Angel Row", "naptan:AtcoCode": "450011626", "naptan:Bearing": "N", "naptan:CommonName": "Wakefield Road Angel Row", "naptan:Crossing": "Castlefields", "naptan:Indicator": "Stop 45011626", "naptan:PlusbusZoneRef": "LEEDS", "naptan:ShortCommonName": "Castlefields", "naptan:Street": "Wakefield Road", "naptan:verified": "yes", "public_transport": "platform", "shelter": "yes", "source": "naptan_import", "tactile_paving": "no", "timetable": "yes"}}, {"type": "node", "id": 496717002, "lat": 53.7451175, "lon": -1.5080006, "tags": {"bench": "no", "bin": "yes", "bus": "yes", "check_date:shelter": "2023-12-16", "highway": "bus_stop", "lit": "no", "local_ref": "45011627", "name": "Wakefield Road Sharp Lane", "naptan:AtcoCode": "450011627", "naptan:Bearing": "S", "naptan:CommonName": "Wakefield Road Sharp Lane", "naptan:Crossing": "Sharp Lane", "naptan:Indicator": "Stop 45011627", "naptan:PlusbusZoneRef": "LEEDS", "naptan:ShortCommonName": "Sharp Lane", "naptan:Street": "Wakefield Road", "naptan:verified": "yes", "note": "Stop repositioned approx 150yds north of previous position", "public_transport": "platform", "shelter": "no", "source": "naptan_import", "tactile_paving": "no", "timetable": "yes"}}, {"type": "node", "id": 496717617, "lat": 53.7580766, "lon": -1.5657444, "tags": {"bus": "yes", "highway": "bus_stop", "local_ref": "45013251", "name": "Parkwood Road Parkwood Crescent", "naptan:AtcoCode": "450013251", "naptan:Bearing": "S", "naptan:CommonName": "Parkwood Road Parkwood Crescent", "naptan:Crossing": "Park Wood Crescent", "naptan:Indicator": "Stop 45013251", "naptan:PlusbusZoneRef": "LEEDS", "naptan:ShortCommonName": "Parkwood Crescent", "naptan:Street": "Park Wood Road", "naptan:verified": "no", "public_transport": "platform", "source": "naptan_import"}}, {"type": "node", "id": 496717618, "lat": 53.7607595, "lon": -1.5669454, "tags": {"bus": "yes", "highway": "bus_stop", "local_ref": "45013252", "name": "Parkwood Road", "naptan:AtcoCode": "450013252", "naptan:Bearing": "N", "naptan:CommonName": "Parkwood Road", "naptan:Crossing": "Twixt Park Wood Crescent & Park Wood Avenue", "naptan:Indicator": "Stop 45013252", "naptan:Landmark": "Community Centre", "naptan:PlusbusZoneRef": "LEEDS", "naptan:ShortCommonName": "Parkwood Road", "naptan:Street": "Park Wood Road", "naptan:verified": "no", "public_transport": "platform", "source": "naptan_import"}}, {"type": "node", "id": 496717619, "lat": 53.7597074, "lon": -1.5668197, "tags": {"bus": "yes", "highway": "bus_stop", "local_ref": "45013253", "name": "Parkwood Road Parkwood Crescent", "naptan:AtcoCode": "450013253", "naptan:Bearing": "NW", "naptan:CommonName": "Parkwood Road Parkwood Crescent", "naptan:Crossing": "Park Wood Crescent", "naptan:Indicator": "Stop 45013253", "naptan:PlusbusZoneRef": "LEEDS", "naptan:ShortCommonName": "Parkwood Crescent", "naptan:Street": "Park Wood Road", "naptan:verified": "no", "public_transport": "platform", "source": "naptan_import"}}, {"type": "node", "id": 496717620, "lat": 53.7590786, "lon": -1.5669323, "tags": {"bus": "yes", "highway": "bus_stop", "local_ref": "45013254", "name": "Parkwood Crescent", "naptan:AtcoCode": "450013254", "naptan:Bearing": "N", "naptan:CommonName": "Parkwood Crescent", "naptan:Crossing": "Park Wood Road", "naptan:Indicator": "Stop 45013254", "naptan:PlusbusZoneRef": "LEEDS", "naptan:ShortCommonName": "Parkwood Crescent", "naptan:Street": "Park Wood Crescent", "naptan:verified": "no", "public_transport": "platform", "source": "naptan_import"}}, {"type": "node", "id": 496717905, "lat": 53.7721516, "lon": -1.5162412, "tags": {"bench": "yes", "bin": "yes", "bus": "yes", "check_date:shelter": "2023-12-12", "highway": "bus_stop", "lit": "yes", "local_ref": "45010642", "name": "Wakefield Road Queen Street", "naptan:AtcoCode": "450010642", "naptan:Bearing": "S", "naptan:CommonName": "Wakefield Road Queen Street", "naptan:Crossing": "Queen Street", "naptan:Indicator": "Stop 45010642", "naptan:Landmark": "Garage", "naptan:Notes": "Adverts panels added to shelter - awaiting new photos", "naptan:PlusbusZoneRef": "LEEDS", "naptan:ShortCommonName": "Queen Street", "naptan:Street": "Wakefield Road", "naptan:verified": "yes", "public_transport": "platform", "shelter": "yes", "source": "naptan_import", "tactile_paving": "no"}}, {"type": "node", "id": 496717906, "lat": 53.7780408, "lon": -1.5199935, "tags": {"bench": "yes", "bin": "yes", "bus": "yes", "highway": "bus_stop", "lit": "yes", "local_ref": "45010643", "name": "Low Road Severn Road", "naptan:AtcoCode": "450010643", "naptan:Bearing": "NW", "naptan:CommonName": "Low Road Severn Road", "naptan:Crossing": "Severn Road", "naptan:Indicator": "Stop 45010643", "naptan:Landmark": "Industrial Estate", "naptan:PlusbusZoneRef": "LEEDS", "naptan:ShortCommonName": "Severn Road", "naptan:Street": "Low Road", "naptan:verified": "yes", "public_transport": "platform", "ref": "450010643", "shelter": "yes", "source": "naptan_import", "tactile_paving": "no", "timetable": "yes"}}, {"type": "node", "id": 496717907, "lat": 53.7784413, "lon": -1.5224363, "tags": {"bench": "yes", "bin": "yes", "bus": "yes", "highway": "bus_stop", "lit": "yes", "local_ref": "45010644", "name": "Low Road Balmoral Chase", "naptan:AtcoCode": "450010644", "naptan:Bearing": "W", "naptan:CommonName": "Low Road Balmoral Chase", "naptan:Crossing": "Balmoral Chase", "naptan:Indicator": "Stop 45010644", "naptan:PlusbusZoneRef": "LEEDS", "naptan:ShortCommonName": "Balmoral Chase", "naptan:Street": "Low Road", "naptan:verified": "yes", "public_transport": "platform", "shelter": "yes", "source": "naptan_import", "tactile_paving": "yes", "timetable": "yes"}}, {"type": "node", "id": 496718303, "lat": 53.7624029, "lon": -1.5640766, "tags": {"bus": "yes", "highway": "bus_stop", "local_ref": "45013201", "name": "Parkwood Road Parkwood Avenue", "naptan:AtcoCode": "450013201", "naptan:Bearing": "E", "naptan:CommonName": "Parkwood Road Parkwood Avenue", "naptan:Crossing": "Park Wood Avenue", "naptan:Indicator": "Stop 45013201", "naptan:PlusbusZoneRef": "LEEDS", "naptan:ShortCommonName": "Parkwood Avenue", "naptan:Street": "Park Wood Road", "naptan:verified": "no", "public_transport": "platform", "source": "naptan_import"}}, {"type": "node", "id": 496718307, "lat": 53.7609112, "lon": -1.5666556, "tags": {"bus": "yes", "highway": "bus_stop", "local_ref": "45013202", "name": "Parkwood Road", "naptan:AtcoCode": "450013202", "naptan:Bearing": "SW", "naptan:CommonName": "Parkwood Road", "naptan:Crossing": "Twixt Park Wood Avenue & Park Wood Crescent", "naptan:Indicator": "Stop 45013202", "naptan:Landmark": "Community Centre", "naptan:PlusbusZoneRef": "LEEDS", "naptan:ShortCommonName": "Parkwood Road", "naptan:Street": "Park Wood Road", "naptan:verified": "no", "public_transport": "platform", "source": "naptan_import"}}, {"type": "node", "id": 496718311, "lat": 53.7595266, "lon": -1.5665333, "tags": {"bus": "yes", "highway": "bus_stop", "local_ref": "45013203", "name": "Parkwood Road Parkwood Crescent", "naptan:AtcoCode": "450013203", "naptan:Bearing": "SE", "naptan:CommonName": "Parkwood Road Parkwood Crescent", "naptan:Crossing": "Park Wood Crescent", "naptan:Indicator": "Stop 45013203", "naptan:PlusbusZoneRef": "LEEDS", "naptan:ShortCommonName": "Parkwood Crescent", "naptan:Street": "Park Wood Road", "naptan:verified": "no", "public_transport": "platform", "source": "naptan_import"}}, {"type": "node", "id": 496718315, "lat": 53.7578736, "lon": -1.5667779, "tags": {"bus": "yes", "highway": "bus_stop", "local_ref": "45013204", "name": "Parkwood Estate Beeston", "naptan:AtcoCode": "450013204", "naptan:Bearing": "NW", "naptan:CommonName": "Parkwood Estate Beeston", "naptan:Crossing": "Adj Park Wood Road", "naptan:Indicator": "Stop 45013204", "naptan:PlusbusZoneRef": "LEEDS", "naptan:ShortCommonName": "Parkwood Estate", "naptan:Street": "Park Wood Crescent", "naptan:verified": "no", "public_transport": "platform", "source": "naptan_import"}}, {"type": "node", "id": 496720671, "lat": 53.7467068, "lon": -1.5210372, "tags": {"bus": "yes", "highway": "bus_stop", "local_ref": "45011869", "name": "Sharp Lane Belle Isle", "naptan:AtcoCode": "450011869", "naptan:Bearing": "SE", "naptan:CommonName": "Sharp Lane Belle Isle", "naptan:Crossing": "Melton Avenue", "naptan:Indicator": "Stop 45011869", "naptan:PlusbusZoneRef": "LEEDS", "naptan:ShortCommonName": "Sharp House", "naptan:Street": "Sharp Lane", "naptan:verified": "yes", "public_transport": "platform", "shelter": "no", "source": "naptan_import", "timetable": "yes"}}, {"type": "node", "id": 496720680, "lat": 53.7477721, "lon": -1.5244674, "tags": {"bus": "yes", "highway": "bus_stop", "local_ref": "45011870", "name": "Sharp Lane Sharp House Road", "naptan:AtcoCode": "450011870", "naptan:Bearing": "SE", "naptan:CommonName": "Sharp Lane Sharp House Road", "naptan:Crossing": "Sharp House Road", "naptan:Indicator": "Stop 45011870", "naptan:PlusbusZoneRef": "LEEDS", "naptan:ShortCommonName": "Sharp House Road", "naptan:Street": "Sharp Lane", "naptan:verified": "yes", "public_transport": "platform", "shelter": "no", "source": "naptan_import", "timetable": "yes"}}, {"type": "node", "id": 496720684, "lat": 53.748063, "lon": -1.5252982, "tags": {"bus": "yes", "highway": "bus_stop", "local_ref": "45011871", "name": "Sharp Lane Sharp House Road", "naptan:AtcoCode": "450011871", "naptan:Bearing": "NW", "naptan:CommonName": "Sharp Lane Sharp House Road", "naptan:Crossing": "Sharp House Road", "naptan:Indicator": "Stop 45011871", "naptan:PlusbusZoneRef": "LEEDS", "naptan:ShortCommonName": "Sharp House Road", "naptan:Street": "Sharp Lane", "naptan:verified": "yes", "public_transport": "platform", "shelter": "no", "source": "naptan_import", "timetable": "yes"}}, {"type": "node", "id": 496720688, "lat": 53.7506176, "lon": -1.525785, "tags": {"bus": "yes", "highway": "bus_stop", "local_ref": "45011872", "name": "Throstle Road", "naptan:AtcoCode": "450011872", "naptan:Bearing": "S", "naptan:CommonName": "Throstle Road", "naptan:Crossing": "Nr-At Ring Road Middleton", "naptan:Indicator": "Stop 45011872", "naptan:PlusbusZoneRef": "LEEDS", "naptan:ShortCommonName": "Omnibus Throstle Rd", "naptan:Street": "Throstle Road", "naptan:verified": "yes", "public_transport": "platform", "shelter": "no", "source": "naptan_import", "timetable": "yes"}}, {"type": "node", "id": 496720689, "lat": 53.75069, "lon": -1.5259055, "tags": {"bus": "yes", "highway": "bus_stop", "local_ref": "45011873", "name": "Throstle Road", "naptan:AtcoCode": "450011873", "naptan:Bearing": "N", "naptan:CommonName": "Throstle Road", "naptan:Crossing": "Ring Road Middleton", "naptan:Indicator": "Stop 45011873", "naptan:PlusbusZoneRef": "LEEDS", "naptan:ShortCommonName": "Omnibus Throstle Rd", "naptan:Street": "Throstle Road", "naptan:verified": "yes", "public_transport": "platform", "shelter": "no", "source": "naptan_import", "timetable": "yes"}}, {"type": "node", "id": 496720690, "lat": 53.763317, "lon": -1.5277505, "tags": {"bench": "yes", "bus": "yes", "highway": "bus_stop", "local_ref": "45011874", "name": "Belle Isle Road Belle Isle Close", "naptan:AtcoCode": "450011874", "naptan:Bearing": "N", "naptan:CommonName": "Belle Isle Road Belle Isle Close", "naptan:Crossing": "Belle Isle Close", "naptan:Indicator": "Stop 45011874", "naptan:PlusbusZoneRef": "LEEDS", "naptan:ShortCommonName": "Belle Isle Close", "naptan:Street": "Belle Isle Road", "naptan:verified": "no", "public_transport": "platform", "shelter": "yes", "source": "naptan_import"}}, {"type": "node", "id": 496720692, "lat": 53.7630274, "lon": -1.5272683, "tags": {"bus": "yes", "highway": "bus_stop", "local_ref": "45011875", "name": "Belle Isle Road Belle Isle Close", "naptan:AtcoCode": "450011875", "naptan:Bearing": "S", "naptan:CommonName": "Belle Isle Road Belle Isle Close", "naptan:Crossing": "Belle Isle Close", "naptan:Indicator": "Stop 45011875", "naptan:PlusbusZoneRef": "LEEDS", "naptan:ShortCommonName": "Belle Isle Close", "naptan:Street": "Belle Isle Road", "naptan:verified": "no", "public_transport": "platform", "source": "naptan_import"}}, {"type": "node", "id": 496720693, "lat": 53.7607157, "lon": -1.5268392, "tags": {"bus": "yes", "highway": "bus_stop", "local_ref": "45011876", "name": "Belle Isle Road Petersfield Avenue", "naptan:AtcoCode": "450011876", "naptan:Bearing": "S", "naptan:CommonName": "Belle Isle Road Petersfield Avenue", "naptan:Crossing": "Petersfield Avenue", "naptan:Indicator": "Stop 45011876", "naptan:PlusbusZoneRef": "LEEDS", "naptan:ShortCommonName": "Petersfield Avenue", "naptan:Street": "Belle Isle Road", "naptan:verified": "no", "public_transport": "platform", "source": "naptan_import"}}, {"type": "node", "id": 496720694, "lat": 53.7560938, "lon": -1.5263149, "tags": {"bus": "yes", "highway": "bus_stop", "local_ref": "45011877", "name": "Belle Isle Road Town Street", "naptan:AtcoCode": "450011877", "naptan:Bearing": "S", "naptan:CommonName": "Belle Isle Road Town Street", "naptan:Crossing": "Town Street", "naptan:Indicator": "Stop 45011877", "naptan:PlusbusZoneRef": "LEEDS", "naptan:ShortCommonName": "Town Street", "naptan:Street": "Belle Isle Road", "naptan:verified": "no", "public_transport": "platform", "source": "naptan_import"}}, {"type": "node", "id": 496720696, "lat": 53.7525776, "lon": -1.5258994, "tags": {"bus": "yes", "highway": "bus_stop", "local_ref": "45011878", "name": "Belle Isle Road Ring Road Middleton", "naptan:AtcoCode": "450011878", "naptan:Bearing": "S", "naptan:CommonName": "Belle Isle Road Ring Road Middleton", "naptan:Crossing": "Ring Road Middleton", "naptan:Indicator": "Stop 45011878", "naptan:PlusbusZoneRef": "LEEDS", "naptan:ShortCommonName": "Ring Road Middleton", "naptan:Street": "Belle Isle Road", "naptan:verified": "no", "public_transport": "platform", "source": "naptan_import"}}, {"type": "node", "id": 496720697, "lat": 53.7508, "lon": -1.5287098, "tags": {"bus": "yes", "highway": "bus_stop", "local_ref": "45011879", "name": "Ring Road Middleton Lanshaw Crescent", "naptan:AtcoCode": "450011879", "naptan:Bearing": "SW", "naptan:CommonName": "Ring Road Middleton Lanshaw Crescent", "naptan:Crossing": "Lanshaw Crescent", "naptan:Indicator": "Stop 45011879", "naptan:Landmark": "Co-op", "naptan:PlusbusZoneRef": "LEEDS", "naptan:ShortCommonName": "Lanshaw Crescent", "naptan:Street": "Ring Road Middleton", "naptan:verified": "yes", "public_transport": "platform", "shelter": "no", "source": "naptan_import", "timetable": "yes"}}, {"type": "node", "id": 496720699, "lat": 53.7507304, "lon": -1.5293021, "tags": {"bus": "yes", "highway": "bus_stop", "local_ref": "45011880", "name": "Ring Road Middleton Lanshaw Crescent", "naptan:AtcoCode": "450011880", "naptan:Bearing": "NE", "naptan:CommonName": "Ring Road Middleton Lanshaw Crescent", "naptan:Crossing": "Lanshaw Crescent", "naptan:Indicator": "Stop 45011880", "naptan:Notes": "On L/C-A47 (Staithe Ave to be removed from plate to read Lanshaw ave)08/06", "naptan:PlusbusZoneRef": "LEEDS", "naptan:ShortCommonName": "Lanshaw Crescent", "naptan:Street": "Ring Road Middleton", "naptan:verified": "yes", "public_transport": "platform", "shelter": "no", "source": "naptan_import", "timetable": "yes"}}, {"type": "node", "id": 496720702, "lat": 53.7513352, "lon": -1.5322526, "tags": {"bus": "yes", "highway": "bus_stop", "local_ref": "45011882", "name": "Town Street Newhall Bank", "naptan:AtcoCode": "450011882", "naptan:Bearing": "NE", "naptan:CommonName": "Town Street Newhall Bank", "naptan:Crossing": "Newhall Bank", "naptan:Indicator": "Stop 45011882", "naptan:PlusbusZoneRef": "LEEDS", "naptan:ShortCommonName": "Newhall Bank", "naptan:Street": "Town Street", "naptan:verified": "yes", "public_transport": "platform", "source": "naptan_import", "timetable": "yes"}}, {"type": "node", "id": 496720703, "lat": 53.7511207, "lon": -1.5325734, "tags": {"bus": "yes", "highway": "bus_stop", "local_ref": "45011883", "name": "Town Street Newhall Bank", "naptan:AtcoCode": "450011883", "naptan:Bearing": "W", "naptan:CommonName": "Town Street Newhall Bank", "naptan:Crossing": "Newhall Bank", "naptan:Indicator": "Stop 45011883", "naptan:PlusbusZoneRef": "LEEDS", "naptan:ShortCommonName": "Newhall Bank", "naptan:Street": "Town Street", "naptan:verified": "yes", "public_transport": "platform", "source": "naptan_import", "timetable": "yes"}}, {"type": "node", "id": 496720704, "lat": 53.7509783, "lon": -1.5375796, "tags": {"bus": "yes", "highway": "bus_stop", "local_ref": "45011884", "name": "Town Street Newhall Gardens", "naptan:AtcoCode": "450011884", "naptan:Bearing": "W", "naptan:CommonName": "Town Street Newhall Gardens", "naptan:Crossing": "Newhall Gardens", "naptan:Indicator": "Stop 45011884", "naptan:Landmark": "Parade of Shops", "naptan:PlusbusZoneRef": "LEEDS", "naptan:ShortCommonName": "Newhall Gardens", "naptan:Street": "Town Street", "naptan:verified": "no", "public_transport": "platform", "source": "naptan_import"}}, {"type": "node", "id": 496720705, "lat": 53.7511142, "lon": -1.5378511, "tags": {"bus": "yes", "highway": "bus_stop", "local_ref": "45011885", "name": "Town Street Chapel Hill", "naptan:AtcoCode": "450011885", "naptan:Bearing": "E", "naptan:CommonName": "Town Street Chapel Hill", "naptan:Crossing": "Chapel Hill", "naptan:Indicator": "Stop 45011885", "naptan:Notes": "Possible site for delap 17/03/09", "naptan:PlusbusZoneRef": "LEEDS", "naptan:ShortCommonName": "Chapel Hill", "naptan:Street": "Town Street", "naptan:verified": "no", "public_transport": "platform", "source": "naptan_import"}}, {"type": "node", "id": 496720707, "lat": 53.7513061, "lon": -1.5433541, "tags": {"bus": "yes", "highway": "bus_stop", "local_ref": "45011887", "name": "Town Street North Lingwell Road", "naptan:AtcoCode": "450011887", "naptan:Bearing": "W", "naptan:CommonName": "Town Street North Lingwell Road", "naptan:Crossing": "North Lingwell Lane", "naptan:Indicator": "Stop 45011887", "naptan:Landmark": "Church", "naptan:PlusbusZoneRef": "LEEDS", "naptan:ShortCommonName": "North Lingwell Road", "naptan:Street": "Town Street", "naptan:verified": "no", "public_transport": "platform", "shelter": "no", "source": "naptan_import"}}, {"type": "node", "id": 496720708, "lat": 53.7508516, "lon": -1.546756, "tags": {"bus": "yes", "highway": "bus_stop", "local_ref": "45011888", "name": "Town Street St Philips Avenue", "naptan:AtcoCode": "450011888", "naptan:Bearing": "W", "naptan:CommonName": "Town Street St Philips Avenue", "naptan:Crossing": "St Philips Avenue", "naptan:Indicator": "Stop 45011888", "naptan:PlusbusZoneRef": "LEEDS", "naptan:ShortCommonName": "St. Philips Avenue", "naptan:Street": "Town Street", "naptan:verified": "no", "public_transport": "platform", "source": "naptan_import"}}, {"type": "node", "id": 496720710, "lat": 53.7508974, "lon": -1.546983, "tags": {"bus": "yes", "highway": "bus_stop", "local_ref": "45011889", "name": "Town Street St Philips Avenue", "naptan:AtcoCode": "450011889", "naptan:Bearing": "E", "naptan:CommonName": "Town Street St Philips Avenue", "naptan:Crossing": "St Philips Avenue", "naptan:Indicator": "Stop 45011889", "naptan:Landmark": "Park", "naptan:PlusbusZoneRef": "LEEDS", "naptan:ShortCommonName": "St. Philips Avenue", "naptan:Street": "Town Street", "naptan:verified": "no", "public_transport": "platform", "source": "naptan_import"}}, {"type": "node", "id": 496720711, "lat": 53.7488081, "lon": -1.5365419, "tags": {"bus": "yes", "highway": "bus_stop", "local_ref": "45011892", "name": "Ring Road Middleton Staithe Avenue", "naptan:AtcoCode": "450011892", "naptan:Bearing": "E", "naptan:CommonName": "Ring Road Middleton Staithe Avenue", "naptan:Crossing": "Staithe Avenue", "naptan:Indicator": "Stop 45011892", "naptan:Landmark": "Surgery", "naptan:PlusbusZoneRef": "LEEDS", "naptan:ShortCommonName": "Staithe Avenue", "naptan:Street": "Ring Road Middleton", "naptan:verified": "yes", "public_transport": "platform", "shelter": "yes", "source": "naptan_import", "timetable": "yes"}}, {"type": "node", "id": 496720715, "lat": 53.7485942, "lon": -1.5374989, "tags": {"bus": "yes", "highway": "bus_stop", "local_ref": "45011893", "name": "Ring Road Middleton Staithe Avenue", "naptan:AtcoCode": "450011893", "naptan:Bearing": "W", "naptan:CommonName": "Ring Road Middleton Staithe Avenue", "naptan:Crossing": "Staithe Avenue", "naptan:Indicator": "Stop 45011893", "naptan:Landmark": "Club", "naptan:PlusbusZoneRef": "LEEDS", "naptan:ShortCommonName": "Staithe Avenue", "naptan:Street": "Ring Road Middleton", "naptan:verified": "yes", "public_transport": "platform", "shelter": "yes", "source": "naptan_import", "timetable": "yes"}}, {"type": "node", "id": 496720717, "lat": 53.7461998, "lon": -1.5478676, "tags": {"bus": "yes", "highway": "bus_stop", "local_ref": "45011894", "name": "Middleton Park Avenue Middleton Park Grove", "naptan:AtcoCode": "450011894", "naptan:Bearing": "N", "naptan:CommonName": "Middleton Park Avenue Middleton Park Grove", "naptan:Crossing": "Middleton Park Grove", "naptan:Indicator": "Stop 45011894", "naptan:PlusbusZoneRef": "LEEDS", "naptan:ShortCommonName": "Middleton Park Gro", "naptan:Street": "Middleton Park Avenue", "naptan:verified": "no", "public_transport": "platform", "source": "naptan_import"}}, {"type": "node", "id": 496720719, "lat": 53.7455161, "lon": -1.5477081, "tags": {"bus": "yes", "highway": "bus_stop", "local_ref": "45011895", "name": "Middleton Park Avenue Middleton Park Grove", "naptan:AtcoCode": "450011895", "naptan:Bearing": "S", "naptan:CommonName": "Middleton Park Avenue Middleton Park Grove", "naptan:Crossing": "Middleton Park Grove", "naptan:Indicator": "Stop 45011895", "naptan:PlusbusZoneRef": "LEEDS", "naptan:ShortCommonName": "Middleton Park Gro", "naptan:Street": "Middleton Park Avenue", "naptan:verified": "yes", "public_transport": "platform", "source": "naptan_import"}}, {"type": "node", "id": 496720728, "lat": 53.7459972, "lon": -1.5513574, "tags": {"bus": "yes", "highway": "bus_stop", "local_ref": "45011902", "name": "Sissons Road Sissons Green", "naptan:AtcoCode": "450011902", "naptan:Bearing": "SW", "naptan:CommonName": "Sissons Road Sissons Green", "naptan:Crossing": "Sissons Green", "naptan:Indicator": "Stop 45011902", "naptan:PlusbusZoneRef": "LEEDS", "naptan:ShortCommonName": "Sissons Green", "naptan:Street": "Sissons Road", "naptan:verified": "no", "public_transport": "platform", "source": "naptan_import"}}, {"type": "node", "id": 496720733, "lat": 53.7454309, "lon": -1.5431455, "tags": {"bus": "yes", "highway": "bus_stop", "local_ref": "45011907", "name": "Thorpe Road Acre Square", "naptan:AtcoCode": "450011907", "naptan:Bearing": "NW", "naptan:CommonName": "Thorpe Road Acre Square", "naptan:Crossing": "Acre Square", "naptan:Indicator": "Stop 45011907", "naptan:PlusbusZoneRef": "LEEDS", "naptan:ShortCommonName": "Acre Square", "naptan:Street": "Thorpe Road", "naptan:verified": "no", "public_transport": "platform", "source": "naptan_import"}}, {"type": "node", "id": 496720735, "lat": 53.7550953, "lon": -1.528086, "tags": {"bus": "yes", "highway": "bus_stop", "local_ref": "45011909", "name": "Town Street Aberford Crest", "naptan:AtcoCode": "450011909", "naptan:Bearing": "NE", "naptan:CommonName": "Town Street Aberford Crest", "naptan:Crossing": "Aberfield Crest", "naptan:Indicator": "Stop 45011909", "naptan:Landmark": "Social Club", "naptan:PlusbusZoneRef": "LEEDS", "naptan:ShortCommonName": "Belle Isle WMC", "naptan:Street": "Town Street", "naptan:verified": "no", "public_transport": "platform", "source": "naptan_import"}}, {"type": "node", "id": 496720736, "lat": 53.7636792, "lon": -1.5307349, "tags": {"bus": "yes", "highway": "bus_stop", "local_ref": "45011910", "name": "Winrose Drive Winrose Avenue", "naptan:AtcoCode": "450011910", "naptan:Bearing": "SW", "naptan:CommonName": "Winrose Drive Winrose Avenue", "naptan:Crossing": "Winrose Avenue", "naptan:Indicator": "Stop 45011910", "naptan:PlusbusZoneRef": "LEEDS", "naptan:ShortCommonName": "Winrose Avenue", "naptan:Street": "Winrose Drive", "naptan:verified": "no", "public_transport": "platform", "source": "naptan_import"}}, {"type": "node", "id": 496720737, "lat": 53.7626845, "lon": -1.5337951, "tags": {"bus": "yes", "highway": "bus_stop", "local_ref": "45011911", "name": "Winrose Drive The Clearings", "naptan:AtcoCode": "450011911", "naptan:Bearing": "NE", "naptan:CommonName": "Winrose Drive The Clearings", "naptan:Crossing": "The Clearings", "naptan:Indicator": "Stop 45011911", "naptan:PlusbusZoneRef": "LEEDS", "naptan:ShortCommonName": "The Clearings", "naptan:Street": "Winrose Drive", "naptan:verified": "no", "public_transport": "platform", "source": "naptan_import"}}, {"type": "node", "id": 496720738, "lat": 53.7591899, "lon": -1.5319681, "tags": {"bus": "yes", "highway": "bus_stop", "local_ref": "45011912", "name": "Winrose Drive Elmton Close", "naptan:AtcoCode": "450011912", "naptan:Bearing": "S", "naptan:CommonName": "Winrose Drive Elmton Close", "naptan:Crossing": "Elmton Close", "naptan:Indicator": "Stop 45011912", "naptan:PlusbusZoneRef": "LEEDS", "naptan:ShortCommonName": "Elmton Close", "naptan:Street": "Winrose Drive", "naptan:verified": "no", "public_transport": "platform", "source": "naptan_import"}}, {"type": "node", "id": 496720739, "lat": 53.7571402, "lon": -1.5318542, "tags": {"bus": "yes", "highway": "bus_stop", "local_ref": "45011913", "name": "Winrose Drive Newhall Gate", "naptan:AtcoCode": "450011913", "naptan:Bearing": "S", "naptan:CommonName": "Winrose Drive Newhall Gate", "naptan:Crossing": "Newhall Gate", "naptan:Indicator": "Stop 45011913", "naptan:PlusbusZoneRef": "LEEDS", "naptan:ShortCommonName": "Newhall Gate", "naptan:Street": "Newhall Road", "naptan:verified": "no", "public_transport": "platform", "source": "naptan_import"}}, {"type": "node", "id": 496720740, "lat": 53.753987, "lon": -1.5323141, "tags": {"bus": "yes", "highway": "bus_stop", "local_ref": "45011914", "name": "Newhall Road Newhall Chase", "naptan:AtcoCode": "450011914", "naptan:Bearing": "S", "naptan:CommonName": "Newhall Road Newhall Chase", "naptan:Crossing": "Newhall Chase", "naptan:Indicator": "Stop 45011914", "naptan:Landmark": "Community Centre", "naptan:Notes": "Stop re-sited 020207", "naptan:PlusbusZoneRef": "LEEDS", "naptan:ShortCommonName": "Newhall Chase", "naptan:Street": "Newhall Road", "naptan:verified": "yes", "public_transport": "platform", "source": "naptan_import", "timetable": "yes"}}, {"type": "node", "id": 496720741, "lat": 53.7537093, "lon": -1.5326261, "tags": {"bus": "yes", "highway": "bus_stop", "local_ref": "45011915", "name": "Newhall Road Newhall Close", "naptan:AtcoCode": "450011915", "naptan:Bearing": "N", "naptan:CommonName": "Newhall Road Newhall Close", "naptan:Crossing": "Newhall Close", "naptan:Indicator": "Stop 45011915", "naptan:Landmark": "Community Centre", "naptan:Notes": "New TF shelter and 3P tt case installed", "naptan:PlusbusZoneRef": "LEEDS", "naptan:ShortCommonName": "Newhall Chase", "naptan:Street": "Newhall Road", "naptan:verified": "yes", "public_transport": "platform", "shelter": "yes", "source": "naptan_import", "timetable": "yes"}},