{"version": 0.6, "generator": "Overpass API 0.7.62.8 e802775f", "osm3s": {"timestamp_osm_base": "2026-01-13T03:54:29Z", "copyright": "The data included in this document is from www.openstreetmap.org. The data is made available under ODbL."}, "elements": [{"type": "node", "id": 349267517, "lat": 17.4406857, "lon": 78.3916647, "tags": {"addr:district": "Hyderabad", "addr:full": "1-98/90/26, Near IOC Petrol Bunk, Hi-Tech City Main Road, Madhapur", "addr:postcode": "500033", "addr:state": "Telangana", "amenity": "hospital", "healthcare": "hospital", "name": "Vikram Hospitals", "source": "OpenGovernmentData"}}, {"type": "node", "id": 349270023, "lat": 17.4444337, "lon": 78.3860746, "tags": {"addr:district": "Hyderabad", "addr:full": "Plot No 8 & 9, Arunodaya Cooperative Housing Society, Vittal Rao nagar, Madhapur", "addr:postcode": "500081", "addr:state": "Telangana", "amenity": "hospital", "healthcare": "hospital", "name": "Image Hospitals", "name:te": "\u0c07\u0c2e\u0c47\u0c1c\u0c4d \u0c39\u0c3e\u0c38\u0c4d\u0c2a\u0c3f\u0c1f\u0c32\u0c4d\u0c38\u0c4d", "source": "OpenGovernmentData"}}, {"type": "node", "id": 827576106, "lat": 17.4301742, "lon": 78.3937323, "tags": {"amenity": "hospital", "healthcare": "hospital", "name": "Arogyasree Health care trust"}}, {"type": "node", "id": 1215214084, "lat": 17.4629614, "lon": 78.3673949, "tags": {"addr:city": "Hyderabad", "addr:full": "Plot No: 3 & 4, Jayalaxmi Apartments, Beside Bajaj Electronics, Near Kondapur X Roads", "addr:postcode": "500084", "addr:state": "Telangana", "amenity": "hospital", "contact:phone": "04023119469; 40188229", "healthcare": "hospital", "name": "LEAF HOSPITAL", "operator:type": "private", "source": "OpenGovernmentData"}}, {"type": "node", "id": 1224523179, "lat": 17.4535178, "lon": 78.364084, "tags": {"amenity": "hospital", "emergency": "no", "healthcare": "hospital", "name": "Ambicare Hospital"}}, {"type": "node", "id": 1702266641, "lat": 17.4696017, "lon": 78.3660584, "tags": {"amenity": "hospital", "healthcare": "hospital", "name": "haritha hospitals"}}, {"type": "node", "id": 1985544651, "lat": 17.4856038, "lon": 78.3903262, "tags": {"addr:district": "Hyderabad", "addr:full": "JNTU Road, Near Malaysian Town Ship Circle, KPHB Colony, Kukatpally", "addr:postcode": "500072", "addr:state": "Telangana", "amenity": "hospital", "contact:mobile": "9160016230", "designation": "Multi Specialty Hospital", "emergency": "yes", "health_facility:type": "ICU Facilities; 24 7 Pharmacy; Ambulance; Radiology and Imaging; Laboratories Services", "healthcare:speciality": "Dermatology; ENT; General Medice; Gynaecology and Obstetrics; Nephrology; Neuro Surgery; Plastic Surgery; Pediatric; Physiotherapy", "medical_system": "Allopathic", "name": "Anupama Hospital", "operator:type": "private", "source": "OpenGovernmentData", "website": "https://anupamahospitals.com/"}}, {"type": "node", "id": 2101693334, "lat": 17.4627567, "lon": 78.3524066, "tags": {"emergency": "yes"}}, {"type": "node", "id": 2101693335, "lat": 17.4626319, "lon": 78.3535372}, {"type": "node", "id": 2101693336, "lat": 17.4636422, "lon": 78.3524786}, {"type": "node", "id": 2101693337, "lat": 17.4635118, "lon": 78.3536231}, {"type": "node", "id": 2428125212, "lat": 17.4979039, "lon": 78.3911608, "tags": {"amenity": "hospital", "check_date": "2024-03-16", "healthcare": "clinic", "name": "Lucid Clinic"}}, {"type": "node", "id": 2579750830, "lat": 17.4911656, "lon": 78.3930858}, {"type": "node", "id": 2579750832, "lat": 17.4909695, "lon": 78.3929905}, {"type": "node", "id": 2579750834, "lat": 17.4908902, "lon": 78.3931629}, {"type": "node", "id": 2579750835, "lat": 17.4910877, "lon": 78.3932581}, {"type": "node", "id": 2632328586, "lat": 17.4888555, "lon": 78.3959947, "tags": {"addr:district": "Hyderabad", "addr:full": "MIG - 1/496, Road No 4 , Beside Venkateswara Swamy Temple , Kphb Colony", "addr:postcode": "500072", "addr:state": "Telangana", "amenity": "hospital", "check_date": "2024-03-16", "name": "Mamata Nursing Home", "source": "OpenGovernmentData"}}, {"type": "node", "id": 2708665930, "lat": 17.497295, "lon": 78.3059988}, {"type": "node", "id": 2708665931, "lat": 17.4963628, "lon": 78.3060238}, {"type": "node", "id": 2708665932, "lat": 17.4963199, "lon": 78.3045584}, {"type": "node", "id": 2708665934, "lat": 17.4972641, "lon": 78.3045304}, {"type": "node", "id": 3207060834, "lat": 17.4976626, "lon": 78.3901045, "tags": {"addr:city": "Hyderabad", "addr:full": "Plot No 34 & 35, Sardar Patel Nagar, Nizampet X Road", "addr:postcode": "500072", "addr:state": "Telangana", "amenity": "hospital", "check_date": "2024-03-16", "contact:phone": "040-42466666,040-40203020", "healthcare": "hospital", "name": "Cygnus Institute of Gastroenterology Centre", "operator:type": "private", "source": "OpenGovernmentData", "website": "https://cygnusgastro.com/"}}, {"type": "node", "id": 3483976672, "lat": 17.4953877, "lon": 78.3966033}, {"type": "node", "id": 3483976673, "lat": 17.4953609, "lon": 78.3967219}, {"type": "node", "id": 3483976674, "lat": 17.4955043, "lon": 78.3967575}, {"type": "node", "id": 3504308696, "lat": 17.5034348, "lon": 78.3883633}, {"type": "node", "id": 3504308697, "lat": 17.5034573, "lon": 78.3884828}, {"type": "node", "id": 3504308698, "lat": 17.5033316, "lon": 78.3885087}, {"type": "node", "id": 3504308699, "lat": 17.5033091, "lon": 78.3883892}, {"type": "node", "id": 3612482968, "lat": 17.5018184, "lon": 78.3890359}, {"type": "node", "id": 3612482977, "lat": 17.5018505, "lon": 78.3891531}, {"type": "node", "id": 3612483049, "lat": 17.5021179, "lon": 78.3889456}, {"type": "node", "id": 3612483056, "lat": 17.5021501, "lon": 78.3890628}, {"type": "node", "id": 3616700283, "lat": 17.4465602, "lon": 78.3839619}, {"type": "node", "id": 3616700284, "lat": 17.4467102, "lon": 78.3838326}, {"type": "node", "id": 3616700286, "lat": 17.4468102, "lon": 78.3842808}, {"type": "node", "id": 3616700287, "lat": 17.4469603, "lon": 78.3841515}, {"type": "node", "id": 3617008119, "lat": 17.4953558, "lon": 78.319802}, {"type": "node", "id": 3617008123, "lat": 17.4953694, "lon": 78.3196877}, {"type": "node", "id": 3617008124, "lat": 17.4954253, "lon": 78.3198111}, {"type": "node", "id": 3617008125, "lat": 17.4954388, "lon": 78.3196967}, {"type": "node", "id": 3619348034, "lat": 17.4599321, "lon": 78.3660837, "tags": {"amenity": "hospital", "healthcare": "hospital", "name": "Apoolo Clinic"}}, {"type": "node", "id": 4226395189, "lat": 17.4708232, "lon": 78.3098931}, {"type": "node", "id": 4226395190, "lat": 17.4708404, "lon": 78.3110992}, {"type": "node", "id": 4226395191, "lat": 17.4713115, "lon": 78.3110918}, {"type": "node", "id": 4226395192, "lat": 17.4713188, "lon": 78.3116012}, {"type": "node", "id": 4226395193, "lat": 17.4704397, "lon": 78.311615}, {"type": "node", "id": 4226395194, "lat": 17.4701604, "lon": 78.3113653}, {"type": "node", "id": 4226395197, "lat": 17.4701493, "lon": 78.3105839}, {"type": "node", "id": 4226395198, "lat": 17.4706805, "lon": 78.3105756}, {"type": "node", "id": 4226395199, "lat": 17.4706708, "lon": 78.3098955}, {"type": "node", "id": 4452950392, "lat": 17.4309578, "lon": 78.3720084}, {"type": "node", "id": 4665371689, "lat": 17.4955259, "lon": 78.332226, "tags": {"addr:district": "Hyderabad", "addr:full": "86, Near R.S. Brothers, Chandanagar, Serilingampally", "addr:postcode": "500050", "addr:state": "Telangana", "amenity": "hospital", "health_facility:type": "Separate Divisions for Each Speciality; State Of The Art Operation Theatres; Post Op Lounge with Beds; Advanced Eye Care Equipment; Complete Range of Optical Frames and Lenses; Exclusive Childrens Eye Care; 24 7 Pharmacy; Ambulance Services", "healthcare": "hospital", "healthcare:speciality": "Cataract Services; Refractive Surgery; Cornea Services; Glaucoma Services; Retina Services; Paediatric Ophthalmology and Squint Services; Oculoplasty Services; UVEITIS; Neuro Ophthalmology; Vision Rehabilitation Services; Computer Vision Syndrome Clinic", "medical_system": "Allopathic", "name": "Vasan Eye Care Hospital", "name:en": "Vasan Eye Care Hospital", "opening_hours": "Mo-Sa 09:00-20:00; Su 09:00-13:00", "operator:type": "private", "phone": "040 30124500", "source": "OpenGovernmentData", "website": "https://vasaneye.com/"}}, {"type": "node", "id": 4679716389, "lat": 17.466147, "lon": 78.3677443, "tags": {"addr:full": "# 1-112 / 86, Survey No 5 / EE, Beside Andhra Bank, Near RTA Office,Kondapur, Serilingampally Mandal", "addr:postcode": "500084", "addr:state": "Telangana", "amenity": "hospital", "contact:phone": "040-67505050", "healthcare": "hospital", "name": "KIMS HOSPITAL", "name:en": "KIMS Hospitals", "operator:type": "private", "source": "OpenGovernmentData", "website": "www.kimshospitals.in"}}, {"type": "node", "id": 4693614990, "lat": 17.4928587, "lon": 78.327984, "tags": {"amenity": "hospital", "healthcare": "hospital", "name": "Happy Children's Hospital", "name:en": "Happy Children's Hospital"}}, {"type": "node", "id": 4695632089, "lat": 17.4921861, "lon": 78.3275773, "tags": {"amenity": "hospital", "healthcare": "hospital", "name": "Vanaja Hospital", "name:en": "Vanaja Hospital"}}, {"type": "node", "id": 4716995091, "lat": 17.4959755, "lon": 78.337417, "tags": {"addr:city": "Hyderabad", "addr:full": "1-56/AH, National Highway 9, Beside Reliance Fresh, Madinaguda, Durga Estates, Miyapur", "addr:postcode": "500049", "addr:state": "Telangana", "amenity": "hospital", "contact:phone": "040 71071000", "healthcare": "hospital", "name": "Archana Hospital", "name:en": "Archana Hospital", "operator:type": "private", "source": "OpenGovernmentData", "website": "https://archanahospitals.com/"}}, {"type": "node", "id": 5405055776, "lat": 17.4422328, "lon": 78.3587144, "tags": {"addr:district": "Hyderabad", "addr:full": "Plot Number 4, 5, 23 and 24, Gachibowli Stadium Main Road", "addr:postcode": "500032", "addr:state": "Telangana", "amenity": "hospital", "email": "info@himagirihospitals.com", "emergency_telephone_code": "040 23001111", "fax": "040 2300 4204", "healthcare": "hospital", "healthcare:speciality": "multi specialty", "medical_system": "Allopathic", "name": "Himagiri Hospital", "opening_hours": "Su 09:00-21:00", "operator:type": "private", "phone": "040 23004206;040 23004207;040 23004208;040 23004209", "source": "OpenGovernmentData", "website": "https://www.himagirihospitals.com/"}}, {"type": "node", "id": 5563162636, "lat": 17.498762, "lon": 78.384027, "tags": {"addr:district": "Hyderabad", "addr:full": "Plot No. 33, Dharma Reddy Colony, KPHB Phase 2, Hydernagar, Kukatpally", "addr:postcode": "500072", "addr:state": "Telangana", "amenity": "hospital", "name": "S.V. Pooja Hospital", "source": "OpenGovernmentData"}}, {"type": "node", "id": 5682059254, "lat": 17.4788093, "lon": 78.3202299}, {"type": "node", "id": 5682059255, "lat": 17.4788008, "lon": 78.3203676}, {"type": "node", "id": 5682059256, "lat": 17.4786931, "lon": 78.3203696}, {"type": "node", "id": 5682059257, "lat": 17.4786997, "lon": 78.320219}, {"type": "node", "id": 5783995954, "lat": 17.4943337, "lon": 78.3448275, "tags": {"addr:city": "Hyderabad", "addr:housename": "Plot No 204, Mythri Nagar", "addr:housenumber": "Madina Nagar", "addr:postcode": "500049", "addr:street": "Main Road, Miyapur", "amenity": "hospital", "name": "Raja Hospital"}}, {"type": "node", "id": 5956425355, "lat": 17.4305631, "lon": 78.3717128}, {"type": "node", "id": 5956425356, "lat": 17.4301131, "lon": 78.3723728}, {"type": "node", "id": 5956425357, "lat": 17.4305078, "lon": 78.3726684}, {"type": "node", "id": 6046241877, "lat": 17.4469413, "lon": 78.3796635}, {"type": "node", "id": 6046241878, "lat": 17.4466598, "lon": 78.3795938}, {"type": "node", "id": 6046241879, "lat": 17.4466419, "lon": 78.3796581}, {"type": "node", "id": 6046241880, "lat": 17.4469276, "lon": 78.3797438}, {"type": "node", "id": 6151537449, "lat": 17.4503845, "lon": 78.3825608, "tags": {"amenity": "hospital", "healthcare": "hospital", "healthcare:speciality": "dental_oral_maxillo_facial_surgery;orthodontics", "level": "3", "name": "Apollo Dental Clinic, Hitech City", "operator": "Apollo Hospitals", "operator:type": "private", "operator:wikidata": "Q4780321"}}, {"type": "node", "id": 6235740285, "lat": 17.4858906, "lon": 78.3875314, "tags": {"addr:district": "Hyderabad", "addr:full": "16-31-H/9, HIG - 9, Near IJM Circle, Beside SBI, KPHB Phase 6", "addr:postcode": "500072", "addr:state": "Telangana", "amenity": "hospital", "name": "Sriven Hospital", "source": "OpenGovernmentData"}}, {"type": "node", "id": 6248864185, "lat": 17.4949239, "lon": 78.3969527, "tags": {"amenity": "hospital", "check_date": "2024-03-16", "name": "Medical Store"}}, {"type": "node", "id": 6248961986, "lat": 17.4729982, "lon": 78.3872074, "tags": {"addr:district": "Hyderabad", "addr:full": "JNTU Hitech City Road, 7th Phase, KPHB Colony, Near Hitech City Railway Station", "addr:postcode": "500072", "addr:state": "Telangana", "amenity": "hospital", "contact:mobile": "091609 20006", "email": "kukatpally@ankurahospital.com", "health_facility:type": "Pediatric Facilities;Obstetrics and Gynaecology Services;24 Hour Laboratory Service;Pharmacy;Emergency Ambulance Service with Transport Ventilator and Incubator;In House Canteen Services", "healthcare": "hospital", "healthcare:speciality": "Neonatology;Pediatric Critical Care;Paediatric Emergency;Paediatric Surgery;Pediatric Dentistry;Paediatric Neurology;Paediatric Cardiology;Microbiology;Endocrinology;Physiotherapy;Psychiatry;Dermatology;Dental Health;Diet and Nutrition", "medical_system": "Allopathic", "name": "Ankura Hospital for Women & Children", "operator:type": "private", "phone": "040 49599999", "source": "OpenGovernmentData", "website": "https://www.ankurahospital.com/"}}, {"type": "node", "id": 6261444586, "lat": 17.4731914, "lon": 78.3872633, "tags": {"amenity": "hospital", "healthcare": "hospital", "name": "Ankura Multispeciality clinic"}}, {"type": "node", "id": 6269697486, "lat": 17.491694, "lon": 78.3958249, "tags": {"amenity": "hospital", "check_date": "2024-03-16", "name": "Aurobindo Nethralaya"}}, {"type": "node", "id": 6480117503, "lat": 17.4912927, "lon": 78.3969096, "tags": {"addr:district": "Hyderabad", "addr:full": "Road No.4, KPHB Colony, Kukatpally", "addr:postcode": "500072", "addr:state": "Telangana", "amenity": "hospital", "contact:mobile": "9392159169", "email": "preetihospital@gmail.com", "medical_system": "Allopathic", "name": "Preeti Urology and Kidney Hospital", "operator:type": "private", "phone": "040 23152444; 93921 59169", "source": "OpenGovernmentData", "website": "https://www.preetihospital.com"}}, {"type": "node", "id": 6481950561, "lat": 17.5007182, "lon": 78.3825836, "tags": {"addr:district": "Hyderabad", "addr:full": "Nizampet Road, Kukatpally", "addr:postcode": "500072", "addr:state": "Telangana", "amenity": "hospital", "fixme": "Please verify the accurate position of the hospital as I have mapped the facility based on the address provided in Open Government Data", "name": "Abhaya Multi Speciality Hospital", "source": "OpenGovernmentData"}}, {"type": "node", "id": 6482139039, "lat": 17.4966133, "lon": 78.3398798, "tags": {"addr:district": "Hyderabad", "addr:full": "Plot Number 40/41, Mythri Nagar, Madinaguda", "addr:postcode": "500050", "addr:state": "Telangana", "amenity": "hospital", "contact:mobile": "7732038844", "health_facility:type": "Outpatient Clinic;Operating Theaters;Radiology Services;Pharmacy;Pathological Labs;Pre and Post Operating Recovery;Health Check ups", "healthcare:speciality": "Gynaecology and Obstetrics;Paediatrics;Paediatrics Surgery;General Medicine;General Surgery;Laparoscopic Surgery;Chest Physician;ENT;Urology;Neurology;NeuroSurgery;Ophthalmology;Orthopaedics;Dermatology;Physiotherapy;Dietician;Psychology", "medical_system": "Allopathic", "name": "Pranaam Hospitals", "operator:type": "private", "phone": "040 23042777", "source": "OpenGovernmentData", "website": "https://pranaamhospitals.in/"}}, {"type": "node", "id": 6484730153, "lat": 17.4372474, "lon": 78.3942747, "tags": {"addr:district": "Hyderabad", "addr:full": "1-66/4/194, Block-B, Kavurihills, Durgam Cheruvu Road, Madhava Nagar, Beside Shivaramalayam, Madhapur", "addr:postcode": "500033", "addr:state": "Telangana", "amenity": "hospital", "healthcare": "hospital", "name": "Praanadah Hospital", "source": "OpenGovernmentData"}}, {"type": "node", "id": 6485054528, "lat": 17.4956729, "lon": 78.3250616, "tags": {"addr:district": "Hyderabad", "addr:full": "2-58/8, Near Telephone Exchange, SBI Building, Chandanagar", "addr:postcode": "500050", "addr:state": "Telangana", "amenity": "hospital", "healthcare": "hospital", "name": "Vijaya Nursing Home", "phone": "040-2303-4173 ; 040-2303-6966", "source": "OpenGovernmentData", "website": "https://www.vijayanursinghome.in/"}}, {"type": "node", "id": 6485786103, "lat": 17.4932209, "lon": 78.327158, "tags": {"addr:district": "Hyderabad", "addr:full": "HUDA Colony, Opp. Kidzonia International Preschool, Chanda Nagar", "addr:postcode": "500050", "addr:state": "Telangana", "amenity": "hospital", "healthcare": "hospital", "name": "Sandhya Nursing Home", "source": "OpenGovernmentData"}}, {"type": "node", "id": 6485848266, "lat": 17.4391256, "lon": 78.3958378, "tags": {"addr:district": "Hyderabad", "addr:full": "1-88/5/A, Plot No. 274, Opp. Madhapur Police Station, Kavuri Hills", "addr:postcode": "500081", "addr:state": "Telangana", "amenity": "hospital", "healthcare": "hospital", "name": "L.V. Prasad Eye Institute", "source": "OpenGovernmentData"}}, {"type": "node", "id": 6487305068, "lat": 17.4941988, "lon": 78.3240189, "tags": {"addr:district": "Hyderabad", "addr:full": "Opp. Venkateswara Swamy Temple, Chandanagar, Gangaram", "addr:postcode": "500050", "addr:state": "Telangana", "amenity": "hospital", "email": "saisivahospital@gmail.com", "fax": "40175720", "healthcare": "hospital", "name": "Sai Siva Children\u2019s Hospital", "phone": "040- 23037879", "source": "OpenGovernmentData", "website": "https://www.saisivahospital.com/"}}, {"type": "node", "id": 6487508103, "lat": 17.4939308, "lon": 78.3267166, "tags": {"addr:district": "Hyderabad", "addr:full": "6-94/6/C, Manjeera Road, Opposite Hotel Swagath Residency, Chandanagar", "addr:postcode": "500050", "addr:state": "Telangana", "amenity": "hospital", "contact:email": "kadiminursinghome@gmail.com", "contact:mobile": "8374805630", "emergency_telephone_code": "8374805630", "fax": "040 23036926; 040 23031454", "healthcare": "hospital", "healthcare:speciality": "Laparoscopic Surgery and General Surgery;Obstetrics and Gynaecology;Infertility;Diabetes Care;Orthopadics and Trauma;Physician Care;Skin and Cosmetology;Eye;ENT;Urology;Dietician;Physiotherapy", "medical_system": "Allopathic", "name": "Kadimi Nursing Home", "operator:type": "private", "phone": "040 23033599;040 23036926;", "source": "OpenGovernmentData", "website": "https://www.kadiminursinghome.com/"}}, {"type": "node", "id": 6487609803, "lat": 17.4957541, "lon": 78.3410724, "tags": {"addr:district": "Hyderabad", "addr:full": "7-10, Opp. Pearls Inn Hotel, Madinaguda, Miyapur", "addr:postcode": "500050", "addr:state": "Telangana", "amenity": "hospital", "name": "Ragi Hospital", "source": "OpenGovernmentData"}}, {"type": "node", "id": 6487886439, "lat": 17.5044701, "lon": 78.3564663, "tags": {"addr:district": "Hyderabad", "addr:full": "Plot No's. 33,34,35, Alluri Sita Ram Raju Colony, Near DK enclave", "addr:postcode": "500050", "addr:state": "Telangana", "amenity": "hospital", "healthcare": "hospital", "name": "Mirra Multi Specialty Hospital", "source": "OpenGovernmentData"}}, {"type": "node", "id": 6489964063, "lat": 17.4954209, "lon": 78.3226825, "tags": {"addr:district": "Hyderabad", "addr:full": "2-30/A/3, Near SBI Bank and Chanda Nagar Bus Stop, Chandanagar", "addr:postcode": "500050", "addr:state": "Telangana", "amenity": "hospital", "healthcare": "hospital", "name": "RR Orthopedic Hospital", "source": "OpenGovernmentData"}}, {"type": "node", "id": 6494788582, "lat": 17.494784, "lon": 78.3404388, "tags": {"addr:district": "Hyderabad", "addr:full": "NH 65 , Madinaguda Bus Stop", "addr:postcode": "500049", "addr:state": "Telangana", "amenity": "hospital", "name": "Sarada Nursing Home", "source": "OpenGovernmentData"}}, {"type": "node", "id": 6494956566, "lat": 17.484821, "lon": 78.3881754, "tags": {"addr:district": "Hyderabad", "addr:full": "HIG - 57, Near Daffodils Public School, Behind Forum Sujana Mall, KPHB, Kukatpally", "addr:postcode": "500072", "addr:state": "Telangana", "amenity": "hospital", "name": "Sandeep Nursing Home", "source": "OpenGovernmentData"}}, {"type": "node", "id": 6495246032, "lat": 17.4954561, "lon": 78.3208955, "tags": {"addr:district": "Hyderabad", "addr:full": "NH 9, Opposite Bharat Petrol Pump, Chandanagar", "addr:postcode": "500050", "addr:state": "Telangana", "amenity": "hospital", "fax": "040 23030345", "healthcare": "hospital", "name": "Vishnu Hospital", "source": "OpenGovernmentData"}}, {"type": "node", "id": 6496885010, "lat": 17.4917263, "lon": 78.3970112, "tags": {"addr:district": "Hyderabad", "addr:full": "MIG 311, KPHB Phase I, Kukatpally", "addr:postcode": "500072", "addr:state": "Telangana", "amenity": "hospital", "name": "Eswar Eye Hospital", "source": "OpenGovernmentData"}}, {"type": "node", "id": 6496965130, "lat": 17.4947378, "lon": 78.3225725, "tags": {"addr:district": "Hyderabad", "addr:full": "Opposite State Bank Of India, Near Chandanagar Bus Stop, Chandanagar", "addr:postcode": "500050", "addr:state": "Telangana", "amenity": "hospital", "fax": "23020564", "healthcare": "hospital", "name": "Kiran Swetha Children Clinic", "source": "OpenGovernmentData"}}, {"type": "node", "id": 6497026146, "lat": 17.4982349, "lon": 78.3144481, "tags": {"addr:district": "Hyderabad", "addr:full": "Plot No: 5-4/12-16, Opposite Gandamma Temple, Chanda Nagar Main Road", "addr:state": "Telangana", "amenity": "hospital", "emergency_telephone_code": "9848030128", "fax": "040 40212000; 040 23030381", "health_facility:type": "Cardiology;Cardio Vascular and Thoracic Surgery;Trauma and Critical Care", "healthcare": "hospital", "healthcare:speciality": "Casuality;Opthalmology;Dermatology;General Surgery;Physiotherapy;Neurology;Pediatrics;Cardiology", "medical_system": "Allopathic", "name": "Mythri Multi Speciality Hospital", "operator:type": "private", "phone": "040 64633357;040 64633358;040 64633359", "source": "OpenGovernmentData"}}, {"type": "node", "id": 6503086685, "lat": 17.4946701, "lon": 78.3268218, "tags": {"addr:district": "Hyderabad", "addr:full": "Opp.Swagath Hotel, Above RKS Electronics, Chandanagar", "addr:postcode": "500050", "addr:state": "Telangana", "amenity": "hospital", "healthcare": "hospital", "name": "Sai Anurag Hosptial", "source": "OpenGovernmentData"}}, {"type": "node", "id": 6503755850, "lat": 17.4943913, "lon": 78.3232471, "tags": {"addr:district": "Hyderabad", "addr:full": "4-122/A, Opposite Vijaya Bank, Chanda Nagar", "addr:postcode": "500050", "addr:state": "Telangana", "amenity": "hospital", "fax": "040 23039092", "healthcare": "hospital", "name": "Anitha Nursing Home", "source": "OpenGovernmentData"}}, {"type": "node", "id": 6504110557, "lat": 17.4997851, "lon": 78.3841534, "tags": {"addr:district": "Hyderabad", "addr:full": "Opposite Chermas, Hydernagar, Kukatpally", "addr:postcode": "500072", "addr:state": "Telangana", "amenity": "hospital", "contact:tollfree": "1802 2122", "email": "info@rainbowhospitals.in", "emergency": "yes", "healthcare:speciality": "General Pediatrics;Neonatology;Pediatric Neurology;Anasthesia and Pain Management;Pediatric Gastroenterology;Pediatric Nephrology;Hematology & Oncology;ENT;Psychiatry;Pediatric Cardiology;Speech & Language Therapy;Physiotherapy and Rehabilitation Unit etc", "medical_system": "Allopathic", "name": "Rainbow Childrens Hospital", "opening_hours": "24/7", "operator:type": "private", "phone": "040 42462300;040 23892300", "source": "OpenGovernmentData", "website": "https://www.rainbowhospitals.in/"}}, {"type": "node", "id": 6504261883, "lat": 17.4853224, "lon": 78.3899282, "tags": {"addr:district": "Hyderabad", "addr:full": "540/1 and 2, JNTU Hitech City Road, VI - Phase, KPHB Colony", "addr:postcode": "500072", "addr:state": "Telangana", "amenity": "hospital", "check_date": "2024-03-16", "health_facility:type": "Personalised Patient Care;Hospital Information System", "healthcare:speciality": "Plastic Surgery;Reconstructive Surgery;Aesthetic Surgeries;Gynecology and Obsteric;Orthopedic;Pediatric;Pulmonology;General Medicine;Urology;Laproscopic Surgeries", "medical_system": "Allopathic", "name": "Icon Hospital", "operator:type": "private", "phone": "040 64602345;040 23159666", "source": "OpenGovernmentData"}}, {"type": "node", "id": 6505170700, "lat": 17.4947648, "lon": 78.3600202, "tags": {"addr:district": "Hyderabad", "addr:full": "Plot No. 12 & 13, Madhava Nagar, Behind Sai Ranga Theatre, Miyapur", "addr:postcode": "500049", "addr:state": "Telangana", "amenity": "hospital", "contact:phone": "040 23040450; 040 23048625", "fax": "040 23042800", "name": "Shilpa Nursing Home", "source": "OpenGovernmentData"}}, {"type": "node", "id": 6505485733, "lat": 17.4858827, "lon": 78.3890216, "tags": {"addr:district": "Hyderabad", "addr:full": "HIG - 547, 6th Phase, KPHB Colony, Opposite Malaysian Township", "addr:postcode": "500072", "addr:state": "Telangana", "amenity": "hospital", "fax": "040 23156976", "name": "Sagar Hospital", "source": "OpenGovernmentData"}}, {"type": "node", "id": 6532106149, "lat": 17.5046076, "lon": 78.3088705, "tags": {"addr:city": "Hyderabad", "addr:district": "Hyderabad", "addr:full": "Near Ashok Nagar Bus Stop, Ramachandra Puram", "addr:postcode": "502032", "addr:state": "Telangana", "addr:street": "Surekha Lane, Ashok Nagar", "amenity": "hospital", "healthcare": "doctor", "healthcare:speciality": "general", "name": "Sri Pallavi Hospital", "name:te": "\u0c36\u0c4d\u0c30\u0c40 \u0c2a\u0c32\u0c4d\u0c32\u0c35\u0c3f \u0c39\u0c3e\u0c38\u0c4d\u0c2a\u0c3f\u0c1f\u0c32\u0c4d", "source": "OpenGovernmentData;local knowledge"}}, {"type": "node", "id": 6532278196, "lat": 17.5022005, "lon": 78.3129877, "tags": {"addr:district": "Hyderabad", "addr:full": "23-15, Vinayaknagar, Ramachandrapuram", "addr:postcode": "502032", "addr:state": "Telangana", "amenity": "hospital", "healthcare": "hospital", "name": "Sidhartha Nursing Home", "source": "OpenGovernmentData"}}, {"type": "node", "id": 6536715096, "lat": 17.4707013, "lon": 78.3109143, "tags": {"addr:district": "Hyderabad", "addr:full": "1-100/1/CCH, Near Aparna Sarovar, Nallagandla, Serilingampally", "addr:postcode": "500019", "addr:state": "Telangana", "amenity": "hospital", "contact:phone": "18002082000", "emergency": "yes", "healthcare": "hospital", "name": "American Oncology Institute", "source": "OpenGovernmentData", "website": "https://www.americanoncology.com"}}, {"type": "node", "id": 6536715097, "lat": 17.4707742, "lon": 78.3113113, "tags": {"addr:district": "Hyderabad", "addr:full": "Near Aparna Sarovar, Nallagandla, Serilingampally", "addr:postcode": "500019", "addr:state": "Telangana", "aeroway": "no", "amenity": "hospital", "contact:email": "info@citizenshospitals.com", "emergency": "yes", "health_facility:type": "Outpatient and Inpatient Services;x ray and ultrasound;ECG;2D Echo Digital;lab services through our partner;AmPath", "healthcare": "hospital", "healthcare:speciality": "Anesthesiology;Bariatric Surgery;Cardiology;Critical Care;Dentistry;Dermatology;Diabetology;ENT;Gastroenterology;General Surgery;Internal Medicine;Nephrology;Neurology;Gynaecology;Orthopedics;Pediatrics;Surgical Oncology;Urology", "medical_system": "Allopathic", "name": "Citizens Specialty Hospital", "operator:type": "private", "phone": "040 67191919", "source": "OpenGovernmentData", "website": "https://www.citizenshospitals.com/", "wheelchair": "yes"}}, {"type": "node", "id": 6536841915, "lat": 17.5057043, "lon": 78.3072115, "tags": {"addr:district": "Hyderabad", "addr:full": "24-60/1, Road No.1, Kakathiya Nagar, BHEL, Ashok Nagar, R.C. Puram", "addr:postcode": "500032", "addr:state": "Telangana", "amenity": "hospital", "healthcare": "hospital", "name": "Maruthi Hospital", "source": "OpenGovernmentData"}}, {"type": "node", "id": 6537360032, "lat": 17.4506967, "lon": 78.3640308, "tags": {"addr:district": "Hyderabad", "addr:full": "Opp. Jayabheri Enclave, Anjaiah Nagar, Near Botanical Garden, Gachibowli", "addr:postcode": "500032", "addr:state": "Telangana", "amenity": "hospital", "healthcare": "hospital", "name": "Rajitha Hospital", "source": "OpenGovernmentData"}}, {"type": "node", "id": 6548781242, "lat": 17.4926185, "lon": 78.3964245, "tags": {"addr:city": "Hyderabad", "addr:full": "HIG - 210, Phase I , Near Maharastra Bank, Kphb Colony, Kukatpally", "addr:postcode": "500072", "addr:state": "Telangana", "amenity": "hospital", "check_date": "2024-03-16", "contact:phone": "040-23051000;040-23052225", "name": "Sri Aurobindo Nethralaya", "operator:type": "private", "source": "OpenGovernmentData"}}, {"type": "node", "id": 6548782136, "lat": 17.4464363, "lon": 78.3786482, "tags": {"addr:city": "Hyderabad", "addr:district": "Rangareddy", "addr:full": "Plot No:. 7, Sy. No. 64, Behind Cyber Towers, Patrika Nagar, Hitech City, Near IBIS Hotel Lane, Madhapur", "addr:postcode": "500081", "addr:state": "Telangana", "amenity": "hospital", "contact:phone": "4067076700", "email": "info@maxcuresuyosha.com", "healthcare": "hospital", "name": "MAXCURE SUYOSHA WOMAN & CHILD HOSPITAL", "operator:type": "private", "source": "OpenGovernmentData", "website": "https://www.maxcuresuyosha.com/"}}, {"type": "node", "id": 6548786015, "lat": 17.5066316, "lon": 78.3842419, "tags": {"addr:city": "Hyderabad", "addr:full": "Plot No:9, Opp Akshara School, Nizampet", "addr:postcode": "500072", "addr:state": "Telangana", "amenity": "hospital", "contact:phone": "4023890662", "name": "CALCIUM HOSPITAL", "operator:type": "private", "source": "OpenGovernmentData"}}, {"type": "node", "id": 6548854401, "lat": 17.4497269, "lon": 78.3672388, "tags": {"addr:district": "Hyderabad", "addr:full": "ANJAIAH NAGAR COMMUNITY HALL ROAD, GACHIBOWLI", "addr:postcode": "500032", "addr:state": "Telangana", "amenity": "hospital", "contact:phone": "4031000697", "healthcare": "hospital", "name": "Kakatiya Hospital", "operator:type": "private", "source": "OpenGovernmentData"}}, {"type": "node", "id": 6549141042, "lat": 17.4951101, "lon": 78.3706122, "tags": {"addr:city": "Hyderabad", "addr:full": "Plot No: 336, MATRUSRI NAGAR, CALVARY TEMPLE ROAD, MIYAPUR", "addr:postcode": "500049", "addr:state": "Telangana", "amenity": "hospital", "contact:phone": "8008033447", "name": "ENT CARE HOSPITAL", "operator:type": "private", "source": "OpenGovernmentData"}}, {"type": "node", "id": 6549141640, "lat": 17.4944322, "lon": 78.3415653, "tags": {"addr:city": "Hyderabad", "addr:full": "Plot No:26-27-29, NEAR VIJETHA SUPER MARKET, BEHIND BHARAT PETROL PUMP, MADINAGUDA", "addr:postcode": "500049", "addr:state": "Telangana", "amenity": "hospital", "contact:phone": "040 23043693", "name": "NAIDU EYE HOSPITAL", "operator:type": "private", "source": "OpenGovernmentData"}}, {"type": "node", "id": 6549150740, "lat": 17.494321, "lon": 78.3461505, "tags": {"addr:city": "Hyderabad", "addr:district": "Rangareddy", "addr:full": "Plot No:. 204, Mythri Nagar, Near Madinaguda, Miyapur", "addr:postcode": "500049", "addr:state": "Telangana", "amenity": "hospital", "contact:phone": "04023044155; 42007070", "fax": "23044133", "name": "HEALIX HOSPITAL", "operator:type": "private", "source": "OpenGovernmentData"}}, {"type": "node", "id": 6549184413, "lat": 17.4448396, "lon": 78.3855052, "tags": {"addr:district": "Hyderabad", "addr:full": "#1-120/3, Plot No.3, Behind Karachi Bakery, Survey No.64, Madhapur", "addr:postcode": "500081", "addr:state": "Telangana", "amenity": "hospital", "contact:phone": "040 67108108", "healthcare": "hospital", "name": "Oakridge Hospitals", "operator:type": "private", "source": "OpenGovernmentData", "website": "http://oakridgehospitals.com/"}}, {"type": "node", "id": 6549190771, "lat": 17.4921363, "lon": 78.348083, "tags": {"addr:full": "#222&223, MYTHRINAGAR, PHASE-II, Opp FORTURE HEIGHTS, MIYAPUR", "addr:postcode": "500049", "addr:state": "Telangana", "amenity": "hospital", "contact:phone": "04047470000", "name": "SRIKARA HOSPITALS", "operator:type": "private", "source": "OpenGovernmentData", "website": "https://www.srikarahospitals.com/"}}, {"type": "node", "id": 6549196760, "lat": 17.4885611, "lon": 78.3915214, "tags": {"addr:district": "Hyderabad", "addr:full": "HIG 450, Opp Manjeera Trinity Corporate, JNTU-HITEC city road KPHB Phase 6, Kukatpally", "addr:postcode": "500072", "addr:state": "Telangana", "amenity": "hospital", "check_date": "2024-03-16", "contact:phone": "040-40064008; 040-40117931", "name": "Amrita ENT Head & Neck Hospital", "operator:type": "private", "source": "OpenGovernmentData", "website": "https://amritaent.com/"}}, {"type": "node", "id": 6549198596, "lat": 17.4620023, "lon": 78.3669068, "tags": {"addr:city": "Hyderabad", "addr:full": "H.No: 2-41/11/3 & 4, QZ PLAZA, KOTHAGUDA CROSS ROADS, KONDAPUR, KOTHAGUDA (K.V.Rangareddy), SERILINGAMPALLY", "addr:postcode": "500084", "addr:state": "Telangana", "amenity": "hospital", "contact:phone": "23005789", "healthcare": "hospital", "name": "REFRACTO EYE HOSPITAL (A GROUP OF CREDIBLE HEALTH CARE PVT LTD )", "operator:type": "private", "source": "OpenGovernmentData"}}, {"type": "node", "id": 6549287021, "lat": 17.4954081, "lon": 78.3213112, "tags": {"addr:district": "Hyderabad", "addr:full": "2 - 24/1, Rajalaxmi Complex, SBI Building, Main Road, Chandanagar", "addr:postcode": "500050", "addr:state": "Telangana", "amenity": "hospital", "contact:phone": "4040065444", "healthcare": "hospital", "name": "VIJAYA SREE HOSPITAL", "operator:type": "private", "source": "OpenGovernmentData"}}, {"type": "node", "id": 6549349841, "lat": 17.4947571, "lon": 78.3432363, "tags": {"addr:city": "Hyderabad", "addr:full": "Plot No: 83 & 103, Miyapur Main Road", "addr:postcode": "500049", "addr:state": "Telangana", "amenity": "hospital", "contact:phone": "4023031113", "name": "HAPPY HOSPITAL", "operator:type": "private", "source": "OpenGovernmentData"}}, {"type": "node", "id": 6549350559, "lat": 17.4992274, "lon": 78.3880024, "tags": {"addr:city": "Hyderabad", "addr:full": "MCK BLOCK 2, NEAR JNTU METRO STATION, Opp. VASANTH NAGAR ARCH, HYDERNAGAR MAIN ROAD, KUKATPALLY", "addr:postcode": "500085", "addr:state": "Telangana", "amenity": "hospital", "check_date": "2024-03-16", "contact:email": "info@landmarkhospitals.net", "contact:phone": "040 45459999 ;+91 7036665051", "healthcare": "hospital", "name": "Landmark Hospital", "operator:type": "private", "source": "OpenGovernmentData", "website": "https://www.landmarkhospitals.net/"}}, {"type": "node", "id": 6549425557, "lat": 17.4438231, "lon": 78.3666245}, {"type": "node", "id": 6549431958, "lat": 17.4910196, "lon": 78.3967075, "tags": {"addr:city": "Hyderabad", "addr:full": "MIG: 304, Beside Global Edge School, Road No. 4, KPHB Colony", "addr:postcode": "500072", "addr:state": "Telangana", "amenity": "hospital", "contact:phone": "040 69992025", "name": "Baabaji Nethralaya Eye Hospital", "operator:type": "private", "source": "OpenGovernmentData"}}, {"type": "node", "id": 6549437828, "lat": 17.496072, "lon": 78.3452386, "tags": {"addr:city": "Hyderabad", "addr:full": "Plot No:38/225, Near St. Ann's School, Madinaguda, Miyapur", "addr:postcode": "500049", "addr:state": "Telangana", "amenity": "hospital", "contact:phone": "4023048399", "name": "MOTHERHOOD FERTILITY CENTRE", "operator:type": "private", "source": "OpenGovernmentData"}}, {"type": "node", "id": 6549439330, "lat": 17.490815, "lon": 78.396851, "tags": {"addr:city": "Hyderabad", "addr:full": "MIG: 288, Road No: 4, KPHB Colony", "addr:postcode": "500085", "addr:state": "Telangana", "amenity": "hospital", "contact:phone": "4048503737", "name": "MedWise Hospital (A unit of Chirayu Avigna Healthcare)", "operator:type": "private", "source": "OpenGovernmentData"}}, {"type": "node", "id": 6562261140, "lat": 17.4953327, "lon": 78.3461183, "tags": {"addr:district": "Hyderabad", "addr:full": "1-58/7/3, 3rd Floor, Near St Ann's School & Bajaj Electronics, Madinaguda", "addr:postcode": "500049", "addr:state": "Telangana", "amenity": "hospital", "name": "Vijaya Hospital", "source": "OpenGovernmentData"}}, {"type": "node", "id": 6562677269, "lat": 17.4300284, "lon": 78.3742265, "tags": {"addr:district": "Hyderabad", "addr:full": "3rd Floor, Millennium Square, Near Commissionerate of Police, Gachibowli", "addr:postcode": "500032", "addr:state": "Telangana", "amenity": "hospital", "contact:mobile": "040-69000370", "healthcare": "hospital", "healthcare:speciality": "Maternity;Gynaecology;Pediatrics;Fertility;Intensive Care;Fetal Care;Cosmetology", "medical_system": "Allopathic", "name": "Motherhood Clinic", "operator:type": "private", "source": "OpenGovernmentData"}}, {"type": "node", "id": 6811748994, "lat": 17.4279239, "lon": 78.3240814, "tags": {"addr:district": "Ranga Reddy", "addr:full": "H. No. 5-1/99/A/B, Near Padmasree Gardens, Gowli Doddi, Hyderabad", "addr:postcode": "500032", "addr:state": "Telangana", "amenity": "hospital", "contact:mobile": "7337456268", "email": "info@srijahospitals.com", "name": "Srija Hospital", "source": "OpenGovernmentData", "website": "https://srijahospitals.com/"}}, {"type": "node", "id": 6811749001, "lat": 17.488394, "lon": 78.39696, "tags": {"addr:district": "Medchal Malkajgiri", "addr:full": "MIG: 487, Road No. 3, Near MeeSeva, KPHB Colony, Hyderabad", "addr:postcode": "500072", "addr:state": "Telangana", "amenity": "hospital", "check_date": "2024-03-16", "name": "Madhusudhan Hospital", "source": "OpenGovernmentData"}}, {"type": "node", "id": 6811749146, "lat": 17.4795083, "lon": 78.3202454, "tags": {"addr:district": "Hyderabad", "addr:full": "ADARSH NAGAR, OPPOOSITE TO GULMOHAR PARK, Serilingampally", "addr:state": "Telangana", "amenity": "hospital", "healthcare": "hospital", "name": "Shreya Hospitals", "operator:type": "private", "source": "OpenGovernmentData"}}, {"type": "node", "id": 6811749180, "lat": 17.4934982, "lon": 78.3209211, "tags": {"addr:district": "Medchal Malkajgiri", "addr:full": "H.No. 5-126/1, Opp. Taruni Auto Works, Chandanagar", "addr:postcode": "500050", "addr:state": "Telangana", "amenity": "hospital", "healthcare": "hospital", "name": "Archana Multi Speciality Hospital", "source": "OpenGovernmentData"}}, {"type": "node", "id": 6830806688, "lat": 17.4944955, "lon": 78.3296853, "tags": {"addr:district": "Hyderabad", "addr:full": "NH-65, Gangaram, Chandanagar", "addr:postcode": "500050", "addr:state": "Telangana", "amenity": "hospital", "healthcare": "hospital", "name": "Gangaram Community Hall Health Sub Center", "source": "OpenGovernmentData"}}, {"type": "node", "id": 6855228385, "lat": 17.4659669, "lon": 78.3678073, "tags": {"addr:street": "Gachibowli - Miyapur Highway", "amenity": "hospital", "healthcare": "hospital", "name": "KIMS Cruddle", "opening_hours": "24/7"}}, {"type": "node", "id": 6866161636, "lat": 17.5028997, "lon": 78.3887517, "tags": {"addr:city": "hyderabad", "addr:postcode": "500085", "addr:street": "Nizampet Road", "amenity": "hospital", "healthcare": "hospital", "healthcare:speciality": "general", "name": "srisri holistic"}}, {"type": "node", "id": 6866161637, "lat": 17.5029831, "lon": 78.3887796, "tags": {"addr:city": "hyderabad", "addr:postcode": "500085", "addr:street": "Nizampet Road", "amenity": "hospital", "healthcare": "hospital"}}, {"type": "node", "id": 6937779552, "lat": 17.4594547, "lon": 78.3659801, "tags": {"amenity": "hospital", "healthcare": "hospital", "name": "Apollo"}}, {"type": "node", "id": 7007970916, "lat": 17.4948228, "lon": 78.3401789, "tags": {"amenity": "hospital", "healthcare": "hospital", "healthcare:speciality": "ophthalmology", "name": "Titan eye plus"}}, {"type": "node", "id": 7025820758, "lat": 17.4406949, "lon": 78.3943588, "tags": {"amenity": "hospital", "healthcare": "hospital", "name": "Srinivasa Hospital"}}, {"type": "node", "id": 7025820786, "lat": 17.44582, "lon": 78.3924173, "tags": {"addr:city": "hyderabad", "addr:district": "rangareddy", "addr:housenumber": "APIIC Colony Beside State Bank of India , Shapur Nagar Jeedimetla Hyderabad", "addr:postcode": "500055", "addr:street": "Near SBI Bank", "amenity": "hospital", "emergency": "yes", "healthcare": "hospital", "healthcare:speciality": "gynaecology", "name": "lifespan hospitals"}}, {"type": "node", "id": 7025820915, "lat": 17.4413783, "lon": 78.3880897, "tags": {"amenity": "hospital", "healthcare": "hospital", "name": "Samanta Homeopathy"}}, {"type": "node", "id": 7243959583, "lat": 17.4947296, "lon": 78.341244, "tags": {"amenity": "hospital", "healthcare": "hospital", "name": "Ankura Children hospital"}}, {"type": "node", "id": 7244398147, "lat": 17.493937, "lon": 78.351628, "tags": {"amenity": "hospital", "healthcare": "hospital", "name": "Dr.agarwals"}}, {"type": "node", "id": 7246482631, "lat": 17.4955311, "lon": 78.3966389}, {"type": "node", "id": 7246517948, "lat": 17.4866535, "lon": 78.3912724, "tags": {"amenity": "hospital", "healthcare": "hospital", "name": "saidatha homeo stores and clinic"}}, {"type": "node", "id": 7963108861, "lat": 17.5054839, "lon": 78.3953535}, {"type": "node", "id": 7963108862, "lat": 17.5054391, "lon": 78.3958484}, {"type": "node", "id": 7963108863, "lat": 17.5057708, "lon": 78.3958814}, {"type": "node", "id": 7963108864, "lat": 17.5058156, "lon": 78.3953865}, {"type": "node", "id": 8007022925, "lat": 17.4998816, "lon": 78.3574735, "tags": {"addr:city": "Hyderabad", "addr:postcode": "500049", "addr:street": "Pragathi Enclave Colony, Miyapur", "amenity": "hospital", "emergency": "no", "healthcare": "hospital", "healthcare:speciality": "general;gynaecology", "name": "Tirumala Nursing home", "operator": "Individual", "operator:type": "private"}}, {"type": "node", "id": 8013052988, "lat": 17.4423249, "lon": 78.3665192}, {"type": "node", "id": 8013052989, "lat": 17.442449, "lon": 78.3663992}, {"type": "node", "id": 8013052990, "lat": 17.4425453, "lon": 78.3663408}, {"type": "node", "id": 8013052991, "lat": 17.4426444, "lon": 78.3660974}, {"type": "node", "id": 8013052992, "lat": 17.4427228, "lon": 78.3659137}, {"type": "node", "id": 8013052993, "lat": 17.4428834, "lon": 78.3655456}, {"type": "node", "id": 8013052994, "lat": 17.4430817, "lon": 78.3652975}, {"type": "node", "id": 8013052995, "lat": 17.4423601, "lon": 78.3664213}, {"type": "node", "id": 8013052996, "lat": 17.4423857, "lon": 78.3665554}, {"type": "node", "id": 8013052997, "lat": 17.4430535, "lon": 78.3667338}, {"type": "node", "id": 8013052998, "lat": 17.4430446, "lon": 78.3668183}, {"type": "node", "id": 8013052999, "lat": 17.4437124, "lon": 78.3668666}, {"type": "node", "id": 8013053000, "lat": 17.4437758, "lon": 78.3672729}, {"type": "node", "id": 8013053001, "lat": 17.4438186, "lon": 78.3674151}, {"type": "node", "id": 8013053002, "lat": 17.4440918, "lon": 78.3670744}, {"type": "node", "id": 8013053003, "lat": 17.4440214, "lon": 78.3669195}, {"type": "node", "id": 8013053004, "lat": 17.4440016, "lon": 78.3668961}, {"type": "node", "id": 8013053005, "lat": 17.4439798, "lon": 78.3668867}, {"type": "node", "id": 8013053006, "lat": 17.4439517, "lon": 78.3668907}, {"type": "node", "id": 8013053007, "lat": 17.4439191, "lon": 78.3668961}, {"type": "node", "id": 8013053008, "lat": 17.4438756, "lon": 78.3668947}, {"type": "node", "id": 8013053009, "lat": 17.4438583, "lon": 78.3668813}, {"type": "node", "id": 8013053010, "lat": 17.4437137, "lon": 78.3658011}, {"type": "node", "id": 8013053011, "lat": 17.4436043, "lon": 78.3651473}, {"type": "node", "id": 8013053012, "lat": 17.4434911, "lon": 78.3651553}, {"type": "node", "id": 8013053013, "lat": 17.4434322, "lon": 78.3649756}, {"type": "node", "id": 8013053014, "lat": 17.443344, "lon": 78.3649857}, {"type": "node", "id": 8013053015, "lat": 17.4432762, "lon": 78.3650775}, {"type": "node", "id": 8386241852, "lat": 17.4907039, "lon": 78.3373612}, {"type": "node", "id": 8386241853, "lat": 17.490675, "lon": 78.3374915}, {"type": "node", "id": 8386241854, "lat": 17.4904668, "lon": 78.3374466}, {"type": "node", "id": 8386241855, "lat": 17.4904948, "lon": 78.3373154}, {"type": "node", "id": 8386643937, "lat": 17.5070065, "lon": 78.395168, "tags": {"amenity": "hospital", "healthcare": "hospital", "name": "VITAL'S Hospital"}}, {"type": "node", "id": 8733731577, "lat": 17.498279, "lon": 78.3146178, "tags": {"addr:district": "Sangareddy", "addr:full": "Door No 22, Kalyani Towers, opposite Gandemma Temple", "addr:postcode": "500020", "addr:state": "Telangana", "amenity": "hospital", "healthcare": "hospital", "name": "Medicover Hospital ,Chandanagar", "source": "Local Knowledge"}}, {"type": "node", "id": 8733734629, "lat": 17.4943209, "lon": 78.3168615, "tags": {"addr:district": "Sangareddy", "addr:full": "BHEL X Roads, 2-82/1/2, BHEL Road, Near Lingampally Bus Stop, Kanukunta, Tara Nagar, Chanda Nagar", "addr:postcode": "502032", "addr:state": "Telangana", "amenity": "hospital", "healthcare": "hospital", "name": "Preeti Urology & Kidney Hospital ,BHEL, Lingampally", "source": "Local Knowledge"}}, {"type": "node", "id": 8747920907, "lat": 17.4940216, "lon": 78.3227858, "tags": {"addr:district": "Rangareddy", "addr:full": "Manjeera Road, Indira Nagar, Chanda Nagar", "addr:postcode": "500050", "addr:state": "Telangana", "amenity": "hospital", "healthcare": "hospital", "name": "Archana Hospital", "source": "Local Knowledge"}}, {"type": "node", "id": 8747950688, "lat": 17.4446234, "lon": 78.384659, "tags": {"addr:district": "Rangareddy", "addr:full": "Vittal Rao Nagar, HITEC City, Madhapur", "addr:postcode": "500081", "addr:state": "Telangana", "amenity": "hospital", "healthcare": "hospital", "name": "Hegde Hospital", "source": "Local Knowledge"}}, {"type": "node", "id": 8748429666, "lat": 17.4554623, "lon": 78.3720097, "tags": {"addr:district": "Rangareddy", "addr:full": "Survey No.9, White Field Road, HITEC City", "addr:postcode": "500081", "addr:state": "Telangana", "amenity": "hospital", "healthcare": "hospital", "name": "Rainbow Children Hospital", "source": "Local Knowledge"}}, {"type": "node", "id": 8748479530, "lat": 17.4940229, "lon": 78.3470745, "tags": {"addr:district": "Rangareddy", "addr:full": "Mythri Nagar, Madinaguda Beside South India Shopping Mall, Hafeezpet", "addr:postcode": "500050", "addr:state": "Telangana", "amenity": "hospital", "name": "Pace Hospitals ,Madinaguda", "source": "Local Knowledge"}}, {"type": "node", "id": 8751771666, "lat": 17.4644176, "lon": 78.3682452, "tags": {"addr:district": "Rangareddy", "addr:full": "Door no 1-111/4/46 & 48/E beside NISUM, Khanamet Road, Kondapur, HITEC City", "addr:postcode": "500084", "addr:state": "Telangana", "amenity": "hospital", "healthcare": "hospital", "name": "Health Valley Hospital", "source": "Local Knowledge"}}, {"type": "node", "id": 8759381105, "lat": 17.4507108, "lon": 78.3631503, "tags": {"addr:district": "Hyderabad", "addr:full": "Plot NO.21, Level, 2, Jayabheri Enclave, Gachibowli, Hyderabad", "addr:postcode": "500032", "addr:state": "Telangana", "amenity": "hospital", "healthcare": "hospital", "name": "Praba's VCare Health Clinic (P) Ltd, Gachibowli", "source": "Local Knowledge"}}, {"type": "node", "id": 8760794581, "lat": 17.4855041, "lon": 78.3908053, "tags": {"addr:district": "Medchal", "addr:full": "Kukatpally Housing Board Colony, Kukatpally, Hyderabad", "addr:postcode": "500085", "addr:state": "Telangana", "amenity": "hospital", "check_date": "2024-03-16", "name": "Remedy Hospitals", "source": "Local Knowledge"}}, {"type": "node", "id": 8760905236, "lat": 17.4908668, "lon": 78.3970173, "tags": {"addr:district": "Medchal", "addr:full": "Rd Number 4, opposite global Edge School, Kukatpally Housing Board Colony, Hyderabad", "addr:postcode": "500072", "addr:state": "Telangana", "amenity": "hospital", "name": "Cosmo Derma", "source": "Local Knowledge"}}, {"type": "node", "id": 8763135141, "lat": 17.4881237, "lon": 78.3949721, "tags": {"addr:district": "Medchal", "addr:full": "Road No 4, 3rd Phase, KPHB Behind Temple Bus Stop", "addr:postcode": "500072", "addr:state": "Telangana", "amenity": "hospital", "check_date": "2024-03-16", "name": "Dr. Rao's ENT Super Speciality International Hospital", "source": "Local Knowledge"}}, {"type": "node", "id": 8763316074, "lat": 17.4951229, "lon": 78.3574077, "tags": {"addr:district": "Medchal", "addr:full": "Jagdish Complex,Miyapur Main Road, Ambedkar Nagar, Miyapur", "addr:postcode": "500049", "addr:state": "Telangana", "amenity": "hospital", "name": "Udbhava Hospital ,Miyapur", "source": "Local Knowledge"}}, {"type": "node", "id": 9605389618, "lat": 17.4940583, "lon": 78.3212245, "tags": {"amenity": "hospital", "healthcare": "hospital", "name": "Chenna reddy hospital"}}, {"type": "node", "id": 9903987801, "lat": 17.5020291, "lon": 78.3889724}, {"type": "node", "id": 9903987802, "lat": 17.5020423, "lon": 78.3889444, "tags": {"addr:city": "hyderabad", "addr:postcode": "500072", "addr:street": "Nizampet Road", "amenity": "hospital", "healthcare": "hospital", "name": "sri sri holistic hospitals"}}, {"type": "node", "id": 10150942414, "lat": 17.4605484, "lon": 78.3547514, "tags": {"amenity": "hospital", "healthcare": "hospital"}}, {"type": "node", "id": 10790318146, "lat": 17.4310175, "lon": 78.3716983, "tags": {"amenity": "hospital", "brand": "Dr Agarwals", "healthcare": "hospital", "name": "Dr Agarwals Eye Hospital", "operator": "Dr. Agarwal's Eye Hospital", "operator:type": "private", "operator:wikidata": "Q17052044"}}, {"type": "node", "id": 11230719677, "lat": 17.4707752, "lon": 78.3116097}, {"type": "node", "id": 11736376192, "lat": 17.4915484, "lon": 78.3910656, "tags": {"amenity": "hospital", "check_date": "2024-03-16", "healthcare": "hospital", "name": "JNTU Hospital"}}, {"type": "node", "id": 11770988839, "lat": 17.4364246, "lon": 78.3675806, "tags": {"amenity": "hospital", "check_date": "2024-03-29", "healthcare": "hospital", "name": "Omega Hospitals"}}, {"type": "node", "id": 11770993380, "lat": 17.4622687, "lon": 78.384176, "tags": {"amenity": "hospital", "check_date": "2024-03-29", "healthcare": "hospital", "name": "Yashoda Hospitals"}}, {"type": "node", "id": 12951255501, "lat": 17.4635854, "lon": 78.3530355}, {"type": "node", "id": 13020731415, "lat": 17.4731157, "lon": 78.3872398, "tags": {"addr:city": "Hyderabad", "addr:district": "Hyderabad", "addr:housenumber": "4th Floor", "addr:postcode": "500072", "addr:street": "MMTS Station Rd, beside Jehovah House of Worship, near Hitech City, K P H B Phase 7, Kukatpally, Hyderabad,", "amenity": "hospital", "healthcare": "hospital", "healthcare:speciality": "skin_care;hair_care;aesthetic_clinic;dermatologist_clinic", "name": "Reborn Skin and Hair Clinic", "operator": "https://rebornclinics.in/", "operator:type": "private"}}, {"type": "node", "id": 13169104952, "lat": 17.473193, "lon": 78.3871998, "tags": {"addr:city": "Hyderabad", "addr:district": "Hyderabad", "addr:housenumber": "Plot No 59", "addr:postcode": "500085", "addr:street": "Hitech - Kukatpally Main Road", "amenity": "hospital", "contact:facebook": "https://www.facebook.com/saiayushayurveda", "email": "info@saiayushayurveda.com", "healthcare": "hospital", "healthcare:speciality": "ayurveda;naturopathy;physiotherapy", "internet_access:ssid": "saiayush", "mobile": "+918142328080", "name": "Sai Ayush Ayurveda Hospital - wellness Hyderabad", "opening_hours": "Mo-Su 07:00-22:00", "payment:app": "yes", "payment:cards": "yes", "payment:cash": "yes", "payment:contactless": "yes", "payment:credit_cards": "yes", "payment:debit_cards": "yes", "payment:mastercard": "yes", "payment:visa": "yes", "start_date": "2025-02-02", "website": "https://saiayushayurveda.com/", "wheelchair": "yes"}}, {"type": "node", "id": 13285248846, "lat": 17.4482414, "lon": 78.3605759, "tags": {"amenity": "hospital", "check_date": "2025-11-06", "healthcare": "hospital", "name": "Pi Health Hospital"}}, {"type": "node", "id": 13423743515, "lat": 17.4276743, "lon": 78.3749073, "tags": {"amenity": "hospital", "emergency": "yes", "healthcare": "hospital", "name": "Arete Hospitals"}}, {"type": "way", "id": 200173462, "nodes": [2101693336, 12951255501, 2101693337, 2101693335, 2101693334, 2101693336], "tags": {"addr:district": "Hyderabad", "addr:full": "1-55/3, Near Chirec International School, Kondapur", "addr:postcode": "500084", "addr:state": "Telangana", "addr:street": "Sri Ram Nagar", "addr:subdistrict": "Serilingampally", "amenity": "hospital", "emergency": "yes", "healthcare": "hospital", "landuse": "hospital Grounds", "name": "Government Area Hospital, Kondapur", "source": "OpenGovernmentData"}}, {"type": "way", "id": 251804751, "nodes": [2579750830, 2579750832, 2579750834, 2579750835, 2579750830], "tags": {"addr:district": "Hyderabad", "addr:full": "HIG No.15, JNTU, Hi tech City Road, KPHB, Kukatpally", "addr:postcode": "500071", "addr:state": "Telangana", "amenity": "hospital", "building": "yes", "check_date": "2024-03-16", "email": "frontoffice.kp@lotushospitals.in", "emergency": "yes", "health_facility:type": "X Ray; CT Scan and Ultrasound; Radiology and Imaging Services", "healthcare:speciality": "Pediatrics", "medical_system": "Allopathic", "name": "Lotus Hospitals, Kukatpally", "operator:type": "private", "phone": "040-40406666", "source": "OpenGovernmentData", "website": "https://www.lotushospitals.in/"}}, {"type": "way", "id": 265204509, "nodes": [2708665930, 2708665931, 2708665932, 2708665934, 2708665930], "tags": {"addr:city": "hyderabad", "addr:district": "Medak", "addr:full": "Ramachandrapuram, Patancheru", "addr:postcode": "502032", "addr:state": "Telangana", "addr:street": "BHEL", "amenity": "hospital", "healthcare": "hospital", "name": "BHEL Hospital", "source": "OpenGovernmentData"}}, {"type": "way", "id": 341185823, "nodes": [7246482631, 3483976672, 3483976673, 3483976674, 7246482631], "tags": {"amenity": "hospital", "building": "hospital", "check_date": "2024-03-16", "healthcare": "hospital", "name": "Remedy Hospital"}}, {"type": "way", "id": 343606383, "nodes": [3504308696, 3504308697, 3504308698, 3504308699, 3504308696], "tags": {"addr:city": "Hyderabad", "addr:postcode": "500085", "addr:street": "Nizampet Road", "amenity": "hospital", "healthcare": "hospital", "healthcare:speciality": "general;stomatology", "name": "lahari dental hospital"}}, {"type": "way", "id": 355678288, "nodes": [3612482968, 9903987801, 3612483049, 3612483056, 3612482977, 3612482968], "tags": {"addr:district": "Hyderabad", "addr:full": "#1-2-49/13B, Nizampet Road, Hydernagar, Nagarjuna Homes, Kukatpally", "addr:postcode": "500072", "addr:state": "Telangana", "amenity": "hospital", "building": "yes", "email": "admn.srisriholistic@gmail.com", "health_facility:type": "State Of The Theatres;Joint Replacement Computerized Navigation;Advanced Lab Equipment;Advanced Energy Equipment;OCT", "healthcare:speciality": "Joint Replacement Sugery;Cardiology;Gastroenterology;Respiratory Medicine;Neurology;Urology;Nephrology;Laparoscopic Surgery;Infertility Cente;Retinal;Cataract and Glaucoma Services", "medical_system": "Allopathic", "name": "Sri Sri Holistic Hospitals", "operator:type": "private", "phone": "040-44108108", "source": "OpenGovernmentData", "website": "http://www.srisriholistic.com"}}, {"type": "way", "id": 356159628, "nodes": [3616700284, 3616700287, 3616700286, 3616700283, 3616700284], "tags": {"addr:district": "Hyderabad", "addr:full": "Plot No:23, Huda Techno Enclave, Patrika Nagar, Beside Avasa Hotel, Pillar No. 18, MADHAPUR", "addr:postcode": "500081", "addr:state": "Telangana", "amenity": "hospital", "building": "yes", "building:levels": "5", "contact:phone": "040 48486868", "healthcare": "hospital", "name": "Pace Hospitals", "operator:type": "private", "source": "OpenGovernmentData"}}, {"type": "way", "id": 356240039, "nodes": [3617008125, 3617008124, 3617008119, 3617008123, 3617008125], "tags": {"addr:city": "Hyderabad", "addr:housenumber": "1-76", "addr:postcode": "500050", "addr:street": "Chandanagar - RC Puram BHEL Rd Mumbai Highway", "amenity": "hospital", "description": "Your healing is our priority... A group of like-minded doctors with various specialties trying to deliver standard medical services with an attitude to progress from time to time and motto to provide quality services as per the needs of people.", "email": "vhealmultispecialitycenter@gmail.com", "healthcare": "hospital", "healthcare:speciality": "general;orthopaedics;dermatology;gynaecology;otorhy;otolorhynology;ENT", "image": "https://business.google.com/u/2/photos/l/18440308866862923974", "internet_access": "wlan", "name": "VHeal ENT, ORTHO and Multispeciality Center", "name:te": "\u0c35\u0c3f \u0c39\u0c40\u0c32\u0c4d \u0c07 \u0c0e\u0c28\u0c4d \u0c1f\u0c3f & \u0c0e\u0c2e\u0c41\u0c15\u0c32\u0c42 \u0c2e\u0c30\u0c3f\u0c2f\u0c41 \u0c2e\u0c32\u0c4d\u0c1f\u0c40\u0c38\u0c4d\u0c2a\u0c46\u0c37\u0c3e\u0c32\u0c3f\u0c1f\u0c40 \u0c38\u0c46\u0c02\u0c1f\u0c30\u0c4d", "operator": "Dr.Mohammad Yawar, Dr.P.Srinivas", "operator:type": "private", "phone": "+91 77940 47396", "start_date": "2020-07-18", "website": "https://vhealu.github.io", "wheelchair": "yes"}}, {"type": "way", "id": 422917298, "nodes": [4226395189, 4226395190, 4226395191, 4226395192, 11230719677, 4226395193, 4226395194, 4226395197, 4226395198, 4226395199, 4226395189], "tags": {"amenity": "hospital", "healthcare": "hospital"}}, {"type": "way", "id": 596480014, "nodes": [5682059254, 5682059255, 5682059256, 5682059257, 5682059254], "tags": {"amenity": "hospital", "healthcare": "hospital"}}, {"type": "way", "id": 630869585, "nodes": [5956425355, 5956425356, 5956425357, 4452950392, 5956425355], "tags": {"addr:street": "Hi Tech City Main Road", "amenity": "hospital", "check_date": "2024-03-29", "healthcare": "hospital", "internet_access": "wlan", "name": "Care Hospitals", "name:en": "Care Hospitals", "opening_hours": "24/7", "phone": "040-33623500", "website": "https://www.carehospitals.com/hitechcity/"}}, {"type": "way", "id": 642171981, "nodes": [6046241877, 6046241878, 6046241879, 6046241880, 6046241877], "tags": {"amenity": "hospital", "building": "yes", "healthcare": "hospital"}}, {"type": "way", "id": 853755273, "nodes": [7963108864, 7963108863, 7963108862, 7963108861, 7963108864], "tags": {"addr:city": "Pragathi Nagar", "addr:district": "Hyderabad", "addr:postcode": "500090", "addr:street": "High Tension Line Road", "amenity": "hospital", "healthcare": "hospital", "healthcare:speciality": "general", "name": "Prasad Hospital"}}, {"type": "way", "id": 859663303, "nodes": [8013052999, 8013052998, 8013052997, 8013052996, 8013052988, 8013052995, 8013052989, 8013052990, 8013052991, 8013052992, 8013052993, 8013052994, 8013053015, 8013053014, 8013053013, 8013053012, 8013053011, 8013053010, 6549425557, 8013053009], "tags": {"barrier": "wall", "source": "OpenGovernmentData"}}, {"type": "way", "id": 872949694, "nodes": [8013053009, 8013053008, 8013053007, 8013053006, 8013053005, 8013053004, 8013053003, 8013053002, 8013053001, 8013053000, 8013052999], "tags": {"source": "OpenGovernmentData"}}, {"type": "way", "id": 902925307, "nodes": [8386241852, 8386241853, 8386241854, 8386241855, 8386241852], "tags": {"addr:city": "hyderabad", "addr:postcode": "500049", "addr:street": "Manjira Pipeline Road", "amenity": "hospital", "emergency": "yes", "healthcare": "hospital", "name": "Lakshmi hospital"}}, {"type": "relation", "id": 11902466, "members": [{"type": "way", "ref": 872949694, "role": "outer"}, {"type": "way", "ref": 859663303, "role": "outer"}], "tags": {"addr:city": "Hyderabad", "addr:district": "Rangareddy", "addr:full": "Plot No 2/3/4/5, Survey No. 136/1, Mindspace Road, Gachibowli", "addr:postcode": "500032", "addr:state": "Telangana", "amenity": "hospital", "contact:email": "info@aighospitals.com", "contact:phone": "040 42444222", "description": "A UNIT OF ASIAN INSTITUTE OF GASTROENTEROLOGY PVT LTD", "healthcare": "hospital", "name": "AIG HOSPITALS", "operator:type": "private", "type": "multipolygon", "website": "https://aighospitals.com"}}]}